CountrySubdivision,CountrySubdivisionCode,Municipality,Latitude,Longitude,Country,CountryCode,CountryCode3
Alberta [English and French],,Mackay,53.65,-115.583333,CANADA,CA,CAN
Ontario [English and French],,Macdiarmid,49.433333,-88.116667,CANADA,CA,CAN
Nova Scotia [English] / Nouvelle-Écosse [French],,Apple River,45.466667,-64.783333,CANADA,CA,CAN
British Columbia [English] / Colombie-Britannique [French],,Alert Bay,50.583333,-126.916667,CANADA,CA,CAN
Ontario [English and French],,Nipigon,49.016667,-88.25,CANADA,CA,CAN
Alberta [English and French],,Calmar,53.25,-113.783333,CANADA,CA,CAN
Ontario [English and French],,Caledon,43.866667,-80,CANADA,CA,CAN
Alberta [English and French],,Lamont,53.75,-112.783333,CANADA,CA,CAN
Saskatchewan [English and French],,Jordan River,53.15,-103.466667,CANADA,CA,CAN
Quebec [English] / Québec [French],,Saint-François-Xavier-de-la-Petite-Rivière,47.316667,-70.566667,CANADA,CA,CAN
Quebec [English] / Québec [French],,Saint François Xavier,47.316667,-70.566667,CANADA,CA,CAN
Quebec [English] / Québec [French],,Petite-Rivière,47.316667,-70.566667,CANADA,CA,CAN
Quebec [English] / Québec [French],,Saint Francis Xavier,47.316667,-70.566667,CANADA,CA,CAN
Quebec [English] / Québec [French],,La Petite-Rivière-Saint-François,47.316667,-70.566667,CANADA,CA,CAN
Quebec [English] / Québec [French],,Petit-Rivière,47.316667,-70.566667,CANADA,CA,CAN
British Columbia [English] / Colombie-Britannique [French],,Tsawwassen,49.016667,-123.083333,CANADA,CA,CAN
Saskatchewan [English and French],,Saint-Isidore-de-Bellevue,52.783333,-105.916667,CANADA,CA,CAN
Quebec [English] / Québec [French],,Saint-Henri-de-Taillon,48.666667,-71.816667,CANADA,CA,CAN
Quebec [English] / Québec [French],,Sainte-Famille,46.966667,-70.95,CANADA,CA,CAN
Quebec [English] / Québec [French],,Lac-Chat,47.166667,-72.633333,CANADA,CA,CAN
Newfoundland and Labrador [English] / Terre Neuve-et-Labrador [French],,Daniels Harbour,50.233333,-57.583333,CANADA,CA,CAN
Newfoundland and Labrador [English] / Terre Neuve-et-Labrador [French],,Daniels Cove,50.233333,-57.583333,CANADA,CA,CAN
Ontario [English and French],,Heron Bay,48.65,-86.283333,CANADA,CA,CAN
Nunavut [English and French],,Cape Dyer,66.666667,-61.366667,CANADA,CA,CAN
Quebec [English] / Québec [French],,Cap-de-la-Madeleine,46.366667,-72.5,CANADA,CA,CAN
Ontario [English and French],,Kashabowie,48.65,-90.433333,CANADA,CA,CAN
Prince Edward Island [English] / Île-du-Prince-Édouard [French],,Murray Harbour,46.016667,-62.533333,CANADA,CA,CAN
Manitoba [English and French],,Brandon,49.833333,-99.95,CANADA,CA,CAN
Ontario [English and French],,Bradford,44.116667,-79.566667,CANADA,CA,CAN
Nova Scotia [English] / Nouvelle-Écosse [French],,Coxheath,46.116667,-60.233333,CANADA,CA,CAN
Ontario [English and French],,Warren,46.433333,-80.3,CANADA,CA,CAN
Alberta [English and French],,Wardlow,50.9,-111.55,CANADA,CA,CAN
Alberta [English and French],,Rich Lake,54.509167,-111.618056,CANADA,CA,CAN
British Columbia [English] / Colombie-Britannique [French],,Tintagel,54.2,-125.083333,CANADA,CA,CAN
Newfoundland and Labrador [English] / Terre Neuve-et-Labrador [French],,Tilting,49.683333,-54.05,CANADA,CA,CAN
Quebec [English] / Québec [French],,Saint Paul,45.45,-73.583333,CANADA,CA,CAN
Quebec [English] / Québec [French],,Campbells Bay,45.733333,-76.6,CANADA,CA,CAN
Quebec [English] / Québec [French],,Marieville,45.433333,-73.166667,CANADA,CA,CAN
Saskatchewan [English and French],,Lillestrom,50.266667,-105.883333,CANADA,CA,CAN
Quebec [English] / Québec [French],,Baie-d’Urfé,45.4,-73.916667,CANADA,CA,CAN
British Columbia [English] / Colombie-Britannique [French],,Log Cabin,59.85,-134.983333,CANADA,CA,CAN
Saskatchewan [English and French],,Lemsford,50.85,-109.116667,CANADA,CA,CAN
Saskatchewan [English and French],,Kipling Station,50.1,-102.633333,CANADA,CA,CAN
Ontario [English and French],,Kingsville,42.033333,-82.75,CANADA,CA,CAN
Manitoba [English and French],,Snake,51.733333,-96.916667,CANADA,CA,CAN
Manitoba [English and French],,Matheson Island,51.733333,-96.916667,CANADA,CA,CAN
Newfoundland and Labrador [English] / Terre Neuve-et-Labrador [French],,Grand Falls,48.933333,-55.65,CANADA,CA,CAN
British Columbia [English] / Colombie-Britannique [French],,Shoreacres,49.433333,-117.533333,CANADA,CA,CAN
Northwest Territories [English] / Territoires du Nord-Ouest [French],,Rocher River,61.383333,-112.75,CANADA,CA,CAN
Northwest Territories [English] / Territoires du Nord-Ouest [French],,Taltson River,61.383333,-112.75,CANADA,CA,CAN
Northwest Territories [English] / Territoires du Nord-Ouest [French],,Talston River,61.383333,-112.75,CANADA,CA,CAN
Newfoundland and Labrador [English] / Terre Neuve-et-Labrador [French],,Lawn,46.933333,-55.55,CANADA,CA,CAN
Quebec [English] / Québec [French],,Laval,45.6,-73.733333,CANADA,CA,CAN
Quebec [English] / Québec [French],,Fabreville,45.566667,-73.65,CANADA,CA,CAN
,,New-Liverpool,46.75,-71.266667,CANADA,CA,CAN
Ontario [English and French],,Minaki,49.983333,-94.65,CANADA,CA,CAN
Nova Scotia [English] / Nouvelle-Écosse [French],,Port Williams,44.95,-65.266667,CANADA,CA,CAN
Nova Scotia [English] / Nouvelle-Écosse [French],,Port Lorne,44.95,-65.266667,CANADA,CA,CAN
Nova Scotia [English] / Nouvelle-Écosse [French],,Marshall Cove,44.95,-65.266667,CANADA,CA,CAN
British Columbia [English] / Colombie-Britannique [French],,Port Hardy,50.716667,-127.5,CANADA,CA,CAN
Alberta [English and French],,Scapa,51.866667,-111.983333,CANADA,CA,CAN
Quebec [English] / Québec [French],,Saint-Anaclet,48.483333,-68.433333,CANADA,CA,CAN
British Columbia [English] / Colombie-Britannique [French],,Seventy Mile,51.3,-121.4,CANADA,CA,CAN
British Columbia [English] / Colombie-Britannique [French],,Prince George,53.916667,-122.766667,CANADA,CA,CAN
Manitoba [English and French],,Ethelbert,51.516667,-100.4,CANADA,CA,CAN
Alberta [English and French],,Esther,51.683333,-110.25,CANADA,CA,CAN
Ontario [English and French],,Devonshire,48.816667,-80.816667,CANADA,CA,CAN
Ontario [English and French],,Bergland,48.933333,-94.383333,CANADA,CA,CAN
Manitoba [English and French],,Harding,49.983333,-100.533333,CANADA,CA,CAN
Saskatchewan [English and French],,Oungre,49.133333,-103.8,CANADA,CA,CAN
British Columbia [English] / Colombie-Britannique [French],,Brisco,50.816667,-116.283333,CANADA,CA,CAN
Ontario [English and French],,Heaslip,47.8,-79.816667,CANADA,CA,CAN
Ontario [English and French],,Cochrane,49.066667,-81.016667,CANADA,CA,CAN
Saskatchewan [English and French],,Tway,52.733333,-105.45,CANADA,CA,CAN
New Brunswick [English] / Nouveau-Brunswick [French],,Prince William,45.916667,-67.033333,CANADA,CA,CAN
New Brunswick [English] / Nouveau-Brunswick [French],,Rosborough,45.916667,-67.033333,CANADA,CA,CAN
Ontario [English and French],,Root Portage,50.933333,-91.383333,CANADA,CA,CAN
Quebec [English] / Québec [French],,Saint-Jérôme,45.766667,-74,CANADA,CA,CAN
Saskatchewan [English and French],,Medstead,53.3,-108.083333,CANADA,CA,CAN
Alberta [English and French],,Beaverlodge,55.2,-119.45,CANADA,CA,CAN
Saskatchewan [English and French],,Gunworth,51.333333,-108.15,CANADA,CA,CAN
Newfoundland and Labrador [English] / Terre Neuve-et-Labrador [French],,Sunnyside,47.866667,-53.933333,CANADA,CA,CAN
Quebec [English] / Québec [French],,Maskinongé,46.216667,-73.016667,CANADA,CA,CAN
Alberta [English and French],,Bluesky,56.066667,-118.25,CANADA,CA,CAN
Saskatchewan [English and French],,Pelican Narrows,55.166667,-102.95,CANADA,CA,CAN
,,Leclercville,46.566667,-72,CANADA,CA,CAN
Alberta [English and French],,Stony Plain,53.533333,-114,CANADA,CA,CAN
Quebec [English] / Québec [French],,Stoneham,46.983333,-71.366667,CANADA,CA,CAN
Ontario [English and French],,Watford,42.95,-81.883333,CANADA,CA,CAN
Quebec [English] / Québec [French],,Saint-Rémi-d’Amherst,46.016667,-74.766667,CANADA,CA,CAN
Quebec [English] / Québec [French],,Saint Rémi,46.016667,-74.766667,CANADA,CA,CAN
Quebec [English] / Québec [French],,Riverbend,48.55,-71.65,CANADA,CA,CAN
British Columbia [English] / Colombie-Britannique [French],,Duncan,48.783333,-123.7,CANADA,CA,CAN
Saskatchewan [English and French],,Mossbank,49.933333,-105.966667,CANADA,CA,CAN
Ontario [English and French],,Ayr,43.283333,-80.45,CANADA,CA,CAN
British Columbia [English] / Colombie-Britannique [French],,San Josef,50.666667,-128.083333,CANADA,CA,CAN
British Columbia [English] / Colombie-Britannique [French],,Quinsam,49.983333,-125.433333,CANADA,CA,CAN
Ontario [English and French],,Atikup,52.766667,-90.783333,CANADA,CA,CAN
Quebec [English] / Québec [French],,Cabano,47.683333,-68.883333,CANADA,CA,CAN
Newfoundland and Labrador [English] / Terre Neuve-et-Labrador [French],,Englee,50.733333,-56.1,CANADA,CA,CAN
British Columbia [English] / Colombie-Britannique [French],,Snake River,59.033333,-122.433333,CANADA,CA,CAN
British Columbia [English] / Colombie-Britannique [French],,Oliver,49.183333,-119.55,CANADA,CA,CAN
British Columbia [English] / Colombie-Britannique [French],,Canim Lake,51.766667,-120.9,CANADA,CA,CAN
Alberta [English and French],,Hemaruka,51.783333,-111.083333,CANADA,CA,CAN
Alberta [English and French],,Peers,53.666667,-115.983333,CANADA,CA,CAN
Quebec [English] / Québec [French],,Diana Bay,60.783333,-69.833333,CANADA,CA,CAN
Saskatchewan [English and French],,Coderre,50.133333,-106.383333,CANADA,CA,CAN
Newfoundland and Labrador [English] / Terre Neuve-et-Labrador [French],,Perrys Cove,47.8,-53.166667,CANADA,CA,CAN
Newfoundland and Labrador [English] / Terre Neuve-et-Labrador [French],,Saint Lawrence,46.9,-55.4,CANADA,CA,CAN
Nova Scotia [English] / Nouvelle-Écosse [French],,Ingonish,46.683333,-60.366667,CANADA,CA,CAN
Nova Scotia [English] / Nouvelle-Écosse [French],,Inganish,46.683333,-60.366667,CANADA,CA,CAN
Nova Scotia [English] / Nouvelle-Écosse [French],,Niganishe,46.683333,-60.366667,CANADA,CA,CAN
Quebec [English] / Québec [French],,Pointe-aux-Trembles,45.65,-73.483333,CANADA,CA,CAN
British Columbia [English] / Colombie-Britannique [French],,Morricetown,55.033333,-127.333333,CANADA,CA,CAN
British Columbia [English] / Colombie-Britannique [French],,Moricetown,55.033333,-127.333333,CANADA,CA,CAN
Saskatchewan [English and French],,Moosomin,50.15,-101.666667,CANADA,CA,CAN
Quebec [English] / Québec [French],,Bois-des-Filion,45.65,-73.766667,CANADA,CA,CAN
Quebec [English] / Québec [French],,Saint Maurice,45.65,-73.766667,CANADA,CA,CAN
Ontario [English and French],,Bobcaygeon,44.533333,-78.55,CANADA,CA,CAN
Manitoba [English and French],,Holmfield,49.133333,-99.466667,CANADA,CA,CAN
British Columbia [English] / Colombie-Britannique [French],,Hylands Post,57.65,-128.2,CANADA,CA,CAN
British Columbia [English] / Colombie-Britannique [French],,Hyland Post,57.65,-128.2,CANADA,CA,CAN
Alberta [English and French],,Craigmyle,51.666667,-112.233333,CANADA,CA,CAN
Alberta [English and French],,Black Diamond,50.7,-114.233333,CANADA,CA,CAN
Nova Scotia [English] / Nouvelle-Écosse [French],,Ecum Secum,44.966667,-62.116667,CANADA,CA,CAN
Alberta [English and French],,Chipewyan,58.716667,-111.15,CANADA,CA,CAN
Alberta [English and French],,Fort Chipewyan,58.716667,-111.15,CANADA,CA,CAN
British Columbia [English] / Colombie-Britannique [French],,Quathiaski Cove,50.05,-125.183333,CANADA,CA,CAN
Newfoundland and Labrador [English] / Terre Neuve-et-Labrador [French],,Port au Choix,50.716667,-57.366667,CANADA,CA,CAN
Ontario [English and French],,Quorn,49.416667,-90.916667,CANADA,CA,CAN
Ontario [English and French],,Malton,43.7,-79.633333,CANADA,CA,CAN
British Columbia [English] / Colombie-Britannique [French],,Lumby,50.25,-118.966667,CANADA,CA,CAN
Quebec [English] / Québec [French],,Rivière-du-Loup,47.833333,-69.533333,CANADA,CA,CAN
Quebec [English] / Québec [French],,Rivière-du-Loup-en-Bas,47.833333,-69.533333,CANADA,CA,CAN
British Columbia [English] / Colombie-Britannique [French],,Rivers Inlet,51.683333,-127.25,CANADA,CA,CAN
British Columbia [English] / Colombie-Britannique [French],,Soda Creek,52.333333,-122.283333,CANADA,CA,CAN
New Brunswick [English] / Nouveau-Brunswick [French],,Quaco,45.35,-65.533333,CANADA,CA,CAN
New Brunswick [English] / Nouveau-Brunswick [French],,Saint Martins,45.35,-65.533333,CANADA,CA,CAN
Yukon [English and French],,Tagish,60.3,-134.266667,CANADA,CA,CAN
British Columbia [English] / Colombie-Britannique [French],,Tachie,54.65,-124.766667,CANADA,CA,CAN
Ontario [English and French],,Skead,46.666667,-80.75,CANADA,CA,CAN
Alberta [English and French],,Valleyview,55.066667,-117.283333,CANADA,CA,CAN
Northwest Territories [English] / Territoires du Nord-Ouest [French],,Inuvik,68.35,-133.7,CANADA,CA,CAN
Ontario [English and French],,Carleton Place,45.133333,-76.133333,CANADA,CA,CAN
Ontario [English and French],,Mitchell,43.466667,-81.183333,CANADA,CA,CAN
Quebec [English] / Québec [French],,Manouane,47.216667,-74.366667,CANADA,CA,CAN
Quebec [English] / Québec [French],,Manowan,47.216667,-74.366667,CANADA,CA,CAN
Quebec [English] / Québec [French],,Manuan,47.216667,-74.366667,CANADA,CA,CAN
British Columbia [English] / Colombie-Britannique [French],,East Pine,55.716667,-121.183333,CANADA,CA,CAN
Ontario [English and French],,Crystal Beach,45.05,-79.4,CANADA,CA,CAN
Yukon [English and French],,Little Salmon,62.05,-135.683333,CANADA,CA,CAN
Quebec [English] / Québec [French],,Saint-Vincent-de-Paul,45.616667,-73.65,CANADA,CA,CAN
Alberta [English and French],,Veteran,52.016667,-111.116667,CANADA,CA,CAN
Manitoba [English and French],,Elm Creek,49.666667,-98,CANADA,CA,CAN
Ontario [English and French],,Cannington,44.35,-79.033333,CANADA,CA,CAN
Quebec [English] / Québec [French],,Saint-Barthélemy-de-Dusablé,46.183333,-73.116667,CANADA,CA,CAN
Quebec [English] / Québec [French],,Saint-Barthélémy,46.183333,-73.116667,CANADA,CA,CAN
Quebec [English] / Québec [French],,Saint-Barthélémi,46.183333,-73.116667,CANADA,CA,CAN
British Columbia [English] / Colombie-Britannique [French],,Headquarters,49.766667,-125.1,CANADA,CA,CAN
Quebec [English] / Québec [French],,Pascalis,48.15,-77.483333,CANADA,CA,CAN
Manitoba [English and French],,Lynn Lake,56.85,-101.05,CANADA,CA,CAN
Saskatchewan [English and French],,Belle Plaine,50.4,-105.15,CANADA,CA,CAN
Quebec [English] / Québec [French],,Oskelaneo,48.116667,-75.216667,CANADA,CA,CAN
Nunavut [English and French],,Spurell Harbour,63.333333,-90.7,CANADA,CA,CAN
Nunavut [English and French],,Chesterfield Inlet,63.333333,-90.7,CANADA,CA,CAN
Nunavut [English and French],,Igluligaarjuk,63.333333,-90.7,CANADA,CA,CAN
Nunavut [English and French],,Chesterfield,63.333333,-90.7,CANADA,CA,CAN
Nunavut [English and French],,Spurrell Harbour,63.333333,-90.7,CANADA,CA,CAN
Manitoba [English and French],,Plumas,50.383333,-99.083333,CANADA,CA,CAN
British Columbia [English] / Colombie-Britannique [French],,Sooke,48.383333,-123.733333,CANADA,CA,CAN
Ontario [English and French],,Jackson Manion,51.1,-92.75,CANADA,CA,CAN
Newfoundland and Labrador [English] / Terre Neuve-et-Labrador [French],,Port Union,48.483333,-53.1,CANADA,CA,CAN
Ontario [English and French],,Loon,48.633333,-88.766667,CANADA,CA,CAN
New Brunswick [English] / Nouveau-Brunswick [French],,Alma,45.6,-64.95,CANADA,CA,CAN
Quebec [English] / Québec [French],,L’Isletville,47.116667,-70.333333,CANADA,CA,CAN
Alberta [English and French],,Lindbergh,53.883333,-110.666667,CANADA,CA,CAN
Alberta [English and French],,Montgomery,51.066667,-114.166667,CANADA,CA,CAN
Alberta [English and French],,Highridge,54.033333,-114.133333,CANADA,CA,CAN
British Columbia [English] / Colombie-Britannique [French],,Springhouse,51.916667,-122.1,CANADA,CA,CAN
Quebec [English] / Québec [French],,Varennes,45.683333,-73.433333,CANADA,CA,CAN
Ontario [English and French],,Vankleek Hill,45.516667,-74.65,CANADA,CA,CAN
Newfoundland and Labrador [English] / Terre Neuve-et-Labrador [French],,Ship Cove,47.1,-54.066667,CANADA,CA,CAN
Quebec [English] / Québec [French],,Saint-Elzéar,45.6,-73.733333,CANADA,CA,CAN
Quebec [English] / Québec [French],,Saint Elzéar de Laval,45.6,-73.733333,CANADA,CA,CAN
Saskatchewan [English and French],,Chitek,53.783333,-107.75,CANADA,CA,CAN
Ontario [English and French],,Wiarton,44.733333,-81.133333,CANADA,CA,CAN
British Columbia [English] / Colombie-Britannique [French],,Fort Nelson,58.816667,-122.533333,CANADA,CA,CAN
British Columbia [English] / Colombie-Britannique [French],,Fort Grahame,56.6,-124.633333,CANADA,CA,CAN
British Columbia [English] / Colombie-Britannique [French],,Fort Graham,56.6,-124.633333,CANADA,CA,CAN
Alberta [English and French],,Bashaw,52.583333,-112.966667,CANADA,CA,CAN
Saskatchewan [English and French],,Côte,51.516667,-101.8,CANADA,CA,CAN
British Columbia [English] / Colombie-Britannique [French],,Keithley Creek,52.75,-121.416667,CANADA,CA,CAN
Ontario [English and French],,Keewatin,49.766667,-94.55,CANADA,CA,CAN
British Columbia [English] / Colombie-Britannique [French],,Bridge Lake,51.483333,-120.7,CANADA,CA,CAN
British Columbia [English] / Colombie-Britannique [French],,Brentwood Bay,48.583333,-123.466667,CANADA,CA,CAN
Alberta [English and French],,Iddesleigh,50.733333,-111.3,CANADA,CA,CAN
Manitoba [English and French],,Pilot Mound,49.2,-98.9,CANADA,CA,CAN
Saskatchewan [English and French],,Weyburn,49.666667,-103.85,CANADA,CA,CAN
Newfoundland and Labrador [English] / Terre Neuve-et-Labrador [French],,Sound Island,47.833333,-54.166667,CANADA,CA,CAN
Quebec [English] / Québec [French],,Temiscaming,46.716667,-79.083333,CANADA,CA,CAN
Ontario [English and French],,Tecumseh,42.316667,-82.9,CANADA,CA,CAN
Saskatchewan [English and French],,Wollaston Lake Post,58.05,-103.55,CANADA,CA,CAN
Yukon [English and French],,Lower Laberge,61.4,-135.216667,CANADA,CA,CAN
Yukon [English and French],,Lower La Barge,61.4,-135.216667,CANADA,CA,CAN
Nova Scotia [English] / Nouvelle-Écosse [French],,Freeport,44.266667,-66.316667,CANADA,CA,CAN
Newfoundland and Labrador [English] / Terre Neuve-et-Labrador [French],,Nain,56.55,-61.683333,CANADA,CA,CAN
Nova Scotia [English] / Nouvelle-Écosse [French],,West Bay,45.716667,-61.166667,CANADA,CA,CAN
Saskatchewan [English and French],,Roseray,50.45,-108.45,CANADA,CA,CAN
Alberta [English and French],,Rosebud,51.3,-112.95,CANADA,CA,CAN
Saskatchewan [English and French],,Nokomis,51.516667,-105.016667,CANADA,CA,CAN
Nova Scotia [English] / Nouvelle-Écosse [French],,Cambridge Station,45.066667,-64.633333,CANADA,CA,CAN
Alberta [English and French],,Benalto,52.3,-114.283333,CANADA,CA,CAN
Saskatchewan [English and French],,Handsworth,49.85,-102.95,CANADA,CA,CAN
Ontario [English and French],,Ottawa,45.416667,-75.7,CANADA,CA,CAN
Nova Scotia [English] / Nouvelle-Écosse [French],,Goshen,45.383333,-61.983333,CANADA,CA,CAN
Alberta [English and French],,Turner,50.683333,-114.266667,CANADA,CA,CAN
Alberta [English and French],,Turner Valley,50.683333,-114.266667,CANADA,CA,CAN
Ontario [English and French],,Sandwich,42.3,-83.066667,CANADA,CA,CAN
Ontario [English and French],,Newburgh,44.333333,-76.866667,CANADA,CA,CAN
British Columbia [English] / Colombie-Britannique [French],,Burns Lake,54.216667,-125.766667,CANADA,CA,CAN
Alberta [English and French],,Beaverdam,54.203611,-110.306667,CANADA,CA,CAN
Nova Scotia [English] / Nouvelle-Écosse [French],,Centreville,44.533333,-66.016667,CANADA,CA,CAN
Ontario [English and French],,Huronian,48.716667,-90.733333,CANADA,CA,CAN
Quebec [English] / Québec [French],,Huntingdon,45.083333,-74.183333,CANADA,CA,CAN
Ontario [English and French],,Graham,49.25,-90.566667,CANADA,CA,CAN
Ontario [English and French],,Wingham,43.883333,-81.3,CANADA,CA,CAN
Quebec [English] / Québec [French],,Windsor,45.583333,-72,CANADA,CA,CAN
Saskatchewan [English and French],,Rapid View,54.150556,-108.809722,CANADA,CA,CAN
Nova Scotia [English] / Nouvelle-Écosse [French],,North Canso,45.7,-61.483333,CANADA,CA,CAN
Newfoundland and Labrador [English] / Terre Neuve-et-Labrador [French],,Bonavista,48.633333,-53.1,CANADA,CA,CAN
British Columbia [English] / Colombie-Britannique [French],,Barrett Lake,54.433333,-126.75,CANADA,CA,CAN
British Columbia [English] / Colombie-Britannique [French],,Barrett,54.433333,-126.75,CANADA,CA,CAN
Newfoundland and Labrador [English] / Terre Neuve-et-Labrador [French],,Hooping Harbour,50.6,-56.2,CANADA,CA,CAN
Newfoundland and Labrador [English] / Terre Neuve-et-Labrador [French],,Petty Harbour,47.45,-52.716667,CANADA,CA,CAN
British Columbia [English] / Colombie-Britannique [French],,Copper Mountain,49.316667,-120.533333,CANADA,CA,CAN
Saskatchewan [English and French],,Cookson,53.533333,-106.316667,CANADA,CA,CAN
Yukon [English and French],,Selwyn,62.783333,-138.283333,CANADA,CA,CAN
Saskatchewan [English and French],,Southend,56.333333,-103.233333,CANADA,CA,CAN
Newfoundland and Labrador [English] / Terre Neuve-et-Labrador [French],,Red Rocks,47.683333,-59.316667,CANADA,CA,CAN
British Columbia [English] / Colombie-Britannique [French],,Port Renfrew,48.55,-124.416667,CANADA,CA,CAN
Newfoundland and Labrador [English] / Terre Neuve-et-Labrador [French],,English Harbour East,47.65,-54.933333,CANADA,CA,CAN
Saskatchewan [English and French],,Delisle,51.916667,-107.116667,CANADA,CA,CAN
British Columbia [English] / Colombie-Britannique [French],,Hale,59.6,-134.3,CANADA,CA,CAN
Alberta [English and French],,Dixonville,56.533333,-117.666667,CANADA,CA,CAN
Alberta [English and French],,Majorville,50.633333,-112.7,CANADA,CA,CAN
Saskatchewan [English and French],,Maidstone,53.083333,-109.3,CANADA,CA,CAN
Saskatchewan [English and French],,Armit,52.833333,-101.85,CANADA,CA,CAN
Newfoundland and Labrador [English] / Terre Neuve-et-Labrador [French],,Argentia,47.3,-54,CANADA,CA,CAN
Saskatchewan [English and French],,Neidpath,50.233333,-107.25,CANADA,CA,CAN
British Columbia [English] / Colombie-Britannique [French],,Bull River,49.466667,-115.45,CANADA,CA,CAN
Quebec [English] / Québec [French],,Ivugivik,62.416667,-77.9,CANADA,CA,CAN
Quebec [English] / Québec [French],,Notre-Dame-d’Ivugivic,62.416667,-77.9,CANADA,CA,CAN
Newfoundland and Labrador [English] / Terre Neuve-et-Labrador [French],,Pool’s Island,49.1,-53.583333,CANADA,CA,CAN
Newfoundland and Labrador [English] / Terre Neuve-et-Labrador [French],,Pools Harbor,49.1,-53.583333,CANADA,CA,CAN
Alberta [English and French],,Killam,52.783333,-111.85,CANADA,CA,CAN
Nova Scotia [English] / Nouvelle-Écosse [French],,Five Islands,45.416667,-64.033333,CANADA,CA,CAN
Ontario [English and French],,South River,45.85,-79.366667,CANADA,CA,CAN
Nova Scotia [English] / Nouvelle-Écosse [French],,South Maitland,45.25,-63.466667,CANADA,CA,CAN
Quebec [English] / Québec [French],,Romaine,50.216667,-60.716667,CANADA,CA,CAN
Quebec [English] / Québec [French],,Gethsémani,50.216667,-60.716667,CANADA,CA,CAN
Manitoba [English and French],,Newdale,50.35,-100.2,CANADA,CA,CAN
Quebec [English] / Québec [French],,Lac Sainte-Marie,45.95,-75.95,CANADA,CA,CAN
Ontario [English and French],,Meldrum Bay,45.916667,-83.116667,CANADA,CA,CAN
Saskatchewan [English and French],,Doré Lake,54.666667,-107.116667,CANADA,CA,CAN
Quebec [English] / Québec [French],,Old Fort Bay,51.416667,-57.816667,CANADA,CA,CAN
Manitoba [English and French],,Channing,54.75,-101.85,CANADA,CA,CAN
Quebec [English] / Québec [French],,Champcoeur,48.666667,-77.633333,CANADA,CA,CAN
Prince Edward Island [English] / Île-du-Prince-Édouard [French],,Vernon River,46.2,-62.833333,CANADA,CA,CAN
Alberta [English and French],,Willingdon,53.833333,-112.116667,CANADA,CA,CAN
Quebec [English] / Québec [French],,Valcartier Village,46.933333,-71.466667,CANADA,CA,CAN
Ontario [English and French],,Blind River,46.183333,-82.95,CANADA,CA,CAN
British Columbia [English] / Colombie-Britannique [French],,Penticton,49.5,-119.583333,CANADA,CA,CAN
Quebec [English] / Québec [French],,Drummondville,45.883333,-72.483333,CANADA,CA,CAN
Quebec [English] / Québec [French],,Drummondville East,45.883333,-72.483333,CANADA,CA,CAN
Saskatchewan [English and French],,Cupar,50.95,-104.2,CANADA,CA,CAN
Ontario [English and French],,Forest,43.1,-82,CANADA,CA,CAN
Saskatchewan [English and French],,Southey,50.933333,-104.5,CANADA,CA,CAN
Nunavut [English and French],,Lake Harbor,62.85,-69.883333,CANADA,CA,CAN
Nunavut [English and French],,Kimmirut,62.85,-69.883333,CANADA,CA,CAN
Nunavut [English and French],,Lake Harbour,62.85,-69.883333,CANADA,CA,CAN
British Columbia [English] / Colombie-Britannique [French],,Bellakula,52.366667,-126.75,CANADA,CA,CAN
British Columbia [English] / Colombie-Britannique [French],,Bella Coola,52.366667,-126.75,CANADA,CA,CAN
Alberta [English and French],,Halkirk,52.283333,-112.15,CANADA,CA,CAN
Saskatchewan [English and French],,Ordale,53.266667,-106.7,CANADA,CA,CAN
Saskatchewan [English and French],,Strasbourg,51.066667,-104.95,CANADA,CA,CAN
Saskatchewan [English and French],,Strasbourg Station,51.066667,-104.95,CANADA,CA,CAN
Quebec [English] / Québec [French],,Shallop,49.133333,-62.533333,CANADA,CA,CAN
Ontario [English and French],,Trout Mills,46.333333,-79.416667,CANADA,CA,CAN
Alberta [English and French],,Didsbury,51.666667,-114.133333,CANADA,CA,CAN
Ontario [English and French],,Madoc,44.516667,-77.483333,CANADA,CA,CAN
British Columbia [English] / Colombie-Britannique [French],,Arrowhead,50.7,-117.916667,CANADA,CA,CAN
Saskatchewan [English and French],,Armley,53.116667,-104.033333,CANADA,CA,CAN
Manitoba [English and French],,Churchill,58.766667,-94.166667,CANADA,CA,CAN
Saskatchewan [English and French],,Cree Lake,57.366667,-106.833333,CANADA,CA,CAN
Ontario [English and French],,Savant Lake,50.233333,-90.716667,CANADA,CA,CAN
Ontario [English and French],,Princes Lake,45.4,-78.083333,CANADA,CA,CAN
Ontario [English and French],,Wallace,45.4,-78.083333,CANADA,CA,CAN
Ontario [English and French],,Hawkesbury,45.616667,-74.6,CANADA,CA,CAN
Saskatchewan [English and French],,Parkbeg,50.45,-106.266667,CANADA,CA,CAN
Alberta [English and French],,Demmitt,55.45,-119.9,CANADA,CA,CAN
British Columbia [English] / Colombie-Britannique [French],,Clayoquot,49.15,-125.916667,CANADA,CA,CAN
Saskatchewan [English and French],,Laflèche,49.7,-106.566667,CANADA,CA,CAN
British Columbia [English] / Colombie-Britannique [French],,Granthams Landing,49.416667,-123.5,CANADA,CA,CAN
Alberta [English and French],,Dowling,51.766667,-112,CANADA,CA,CAN
Alberta [English and French],,Bow River,49.933333,-111.7,CANADA,CA,CAN
Alberta [English and French],,Goat,49.933333,-111.7,CANADA,CA,CAN
Alberta [English and French],,Askow,49.933333,-111.7,CANADA,CA,CAN
Alberta [English and French],,Green Court,54.016667,-115.233333,CANADA,CA,CAN
Alberta [English and French],,Carway,49.016667,-113.383333,CANADA,CA,CAN
Saskatchewan [English and French],,Stenen,51.9,-102.35,CANADA,CA,CAN
Saskatchewan [English and French],,Rosthern,52.65,-106.333333,CANADA,CA,CAN
Saskatchewan [English and French],,Rosethern,52.65,-106.333333,CANADA,CA,CAN
British Columbia [English] / Colombie-Britannique [French],,Yahk,49.083333,-116.1,CANADA,CA,CAN
Nova Scotia [English] / Nouvelle-Écosse [French],,Mabou,46.066667,-61.366667,CANADA,CA,CAN
Ontario [English and French],,Iroquois,44.85,-75.316667,CANADA,CA,CAN
Ontario [English and French],,Port Colborne,42.883333,-79.233333,CANADA,CA,CAN
Saskatchewan [English and French],,Glaslyn,53.35,-108.35,CANADA,CA,CAN
Ontario [English and French],,Farrington,48.766667,-92.833333,CANADA,CA,CAN
Quebec [English] / Québec [French],,Joliette,46.033333,-73.433333,CANADA,CA,CAN
Nova Scotia [English] / Nouvelle-Écosse [French],,Prospect,44.466667,-63.8,CANADA,CA,CAN
Newfoundland and Labrador [English] / Terre Neuve-et-Labrador [French],,Seal Cove,49.933333,-56.4,CANADA,CA,CAN
Quebec [English] / Québec [French],,Villeroy,46.383333,-71.883333,CANADA,CA,CAN
Alberta [English and French],,Judah,56.133333,-117.316667,CANADA,CA,CAN
Quebec [English] / Québec [French],,Princeville,46.166667,-71.883333,CANADA,CA,CAN
Saskatchewan [English and French],,Mawer,50.75,-106.4,CANADA,CA,CAN
Alberta [English and French],,Caroline,52.083333,-114.75,CANADA,CA,CAN
Quebec [English] / Québec [French],,Saint-Francois-du-Lac,46.066667,-72.833333,CANADA,CA,CAN
Quebec [English] / Québec [French],,Saint Francois,46.066667,-72.833333,CANADA,CA,CAN
Newfoundland and Labrador [English] / Terre Neuve-et-Labrador [French],,Saint Fintans,48.183333,-58.85,CANADA,CA,CAN
Quebec [English] / Québec [French],,Sainte-Angèle,48.533333,-68.083333,CANADA,CA,CAN
Newfoundland and Labrador [English] / Terre Neuve-et-Labrador [French],,Ramea,47.516667,-57.416667,CANADA,CA,CAN
Manitoba [English and French],,Waugh,49.616667,-95.183333,CANADA,CA,CAN
Newfoundland and Labrador [English] / Terre Neuve-et-Labrador [French],,Topsail,47.533333,-52.933333,CANADA,CA,CAN
Ontario [English and French],,Kanata,45.333333,-75.9,CANADA,CA,CAN
Nova Scotia [English] / Nouvelle-Écosse [French],,Dingwall,46.9,-60.466667,CANADA,CA,CAN
Quebec [English] / Québec [French],,Millstream,48.05,-67.083333,CANADA,CA,CAN
Saskatchewan [English and French],,Bienfait,49.15,-102.8,CANADA,CA,CAN
Alberta [English and French],,Beverly,53.566667,-113.4,CANADA,CA,CAN
Ontario [English and French],,Pagwa River,50.016667,-85.216667,CANADA,CA,CAN
Northwest Territories [English] / Territoires du Nord-Ouest [French],,Letty Harbour,69.85,-124.433333,CANADA,CA,CAN
Saskatchewan [English and French],,Four Corners,54.180278,-108.628056,CANADA,CA,CAN
Alberta [English and French],,Saint Vincent,54.153333,-111.276389,CANADA,CA,CAN
Saskatchewan [English and French],,Flat Valley,54.296944,-109.227222,CANADA,CA,CAN
Alberta [English and French],,Ardmore,54.332222,-110.477222,CANADA,CA,CAN
Alberta [English and French],,Durlingville,54.284167,-110.649444,CANADA,CA,CAN
Alberta [English and French],,Alpen,54.426111,-112.923611,CANADA,CA,CAN
Ontario [English and French],,Brower,49.016667,-80.833333,CANADA,CA,CAN
Manitoba [English and French],,Minitonas,52.083333,-101.05,CANADA,CA,CAN
Newfoundland and Labrador [English] / Terre Neuve-et-Labrador [French],,Lethbridge,48.366667,-53.866667,CANADA,CA,CAN
Alberta [English and French],,Franchere,54.269444,-111.029167,CANADA,CA,CAN
Saskatchewan [English and French],,Senlac,52.5,-109.7,CANADA,CA,CAN
Alberta [English and French],,Freedom,54.15,-114.233333,CANADA,CA,CAN
Ontario [English and French],,Colborne,44.016667,-77.883333,CANADA,CA,CAN
Newfoundland and Labrador [English] / Terre Neuve-et-Labrador [French],,Fogo,49.7,-54.283333,CANADA,CA,CAN
New Brunswick [English] / Nouveau-Brunswick [French],,Saint Margaret Bay,46.9,-65.183333,CANADA,CA,CAN
New Brunswick [English] / Nouveau-Brunswick [French],,Saint Margarets,46.9,-65.183333,CANADA,CA,CAN
Newfoundland and Labrador [English] / Terre Neuve-et-Labrador [French],,Hebron,58.2,-62.633333,CANADA,CA,CAN
Newfoundland and Labrador [English] / Terre Neuve-et-Labrador [French],,Bell Island,47.65,-52.933333,CANADA,CA,CAN
Newfoundland and Labrador [English] / Terre Neuve-et-Labrador [French],,Wabana,47.65,-52.933333,CANADA,CA,CAN
British Columbia [English] / Colombie-Britannique [French],,Steveston,49.133333,-123.183333,CANADA,CA,CAN
Ontario [English and French],,Nemegos,47.716667,-83.2,CANADA,CA,CAN
British Columbia [English] / Colombie-Britannique [French],,Kinnaird,49.283333,-117.65,CANADA,CA,CAN
Ontario [English and French],,Scarborough,43.75,-79.2,CANADA,CA,CAN
Saskatchewan [English and French],,Silver Park,52.666667,-104.533333,CANADA,CA,CAN
Saskatchewan [English and French],,Paddockwood,53.5,-105.566667,CANADA,CA,CAN
Nova Scotia [English] / Nouvelle-Écosse [French],,Little Narrows,45.983333,-60.983333,CANADA,CA,CAN
Ontario [English and French],,Listowel,43.733333,-80.966667,CANADA,CA,CAN
Quebec [English] / Québec [French],,Sainte-Germaine-du-Lac-Etchemin,46.4,-70.5,CANADA,CA,CAN
Quebec [English] / Québec [French],,Lac Etchemin,46.4,-70.5,CANADA,CA,CAN
Quebec [English] / Québec [French],,L’Echourie,49.05,-64.483333,CANADA,CA,CAN
Quebec [English] / Québec [French],,Saint-Maurice,49.05,-64.483333,CANADA,CA,CAN
British Columbia [English] / Colombie-Britannique [French],,Leon,50.433333,-117.9,CANADA,CA,CAN
British Columbia [English] / Colombie-Britannique [French],,Saint Leon,50.433333,-117.9,CANADA,CA,CAN
Manitoba [English and French],,Reynolds,49.666667,-95.9,CANADA,CA,CAN
Ontario [English and French],,Port Dalhousie,43.2,-79.266667,CANADA,CA,CAN
Newfoundland and Labrador [English] / Terre Neuve-et-Labrador [French],,Bishops Falls,49.016667,-55.516667,CANADA,CA,CAN
British Columbia [English] / Colombie-Britannique [French],,Cecil Lake,56.3,-120.533333,CANADA,CA,CAN
Saskatchewan [English and French],,Tessier,51.8,-107.416667,CANADA,CA,CAN
Ontario [English and French],,Geraldton,49.716667,-86.966667,CANADA,CA,CAN
Ontario [English and French],,Beachberg,45.733333,-76.85,CANADA,CA,CAN
Ontario [English and French],,Beachburg,45.733333,-76.85,CANADA,CA,CAN
Saskatchewan [English and French],,Lemberg,50.733333,-103.2,CANADA,CA,CAN
Quebec [English] / Québec [French],,Laverlochère,47.416667,-79.283333,CANADA,CA,CAN
Quebec [English] / Québec [French],,Davangus,48.45,-78.883333,CANADA,CA,CAN
Yukon [English and French],,Paris,63.816667,-138.666667,CANADA,CA,CAN
Manitoba [English and French],,Sprague,49.033333,-95.65,CANADA,CA,CAN
Saskatchewan [English and French],,Wrixon,53.65,-106.983333,CANADA,CA,CAN
Alberta [English and French],,Tangent,55.8,-117.683333,CANADA,CA,CAN
Quebec [English] / Québec [French],,Shipshaw,48.45,-71.216667,CANADA,CA,CAN
Quebec [English] / Québec [French],,Chicoutimi,48.45,-71.216667,CANADA,CA,CAN
Ontario [English and French],,Raith,48.833333,-89.916667,CANADA,CA,CAN
Quebec [English] / Québec [French],,Berthier-sur-Mer,46.933333,-70.733333,CANADA,CA,CAN
Quebec [English] / Québec [French],,Berthier,46.933333,-70.733333,CANADA,CA,CAN
Quebec [English] / Québec [French],,Berthier-en-Bas,46.933333,-70.733333,CANADA,CA,CAN
Yukon [English and French],,Champagne,60.8,-136.483333,CANADA,CA,CAN
Quebec [English] / Québec [French],,Sheldrake,50.266667,-64.916667,CANADA,CA,CAN
Alberta [English and French],,Watino,55.716667,-117.616667,CANADA,CA,CAN
Manitoba [English and French],,Birch River,52.383333,-101.1,CANADA,CA,CAN
Newfoundland and Labrador [English] / Terre Neuve-et-Labrador [French],,Deer Harbour,48.133333,-53.583333,CANADA,CA,CAN
Saskatchewan [English and French],,Langenburg,50.833333,-101.7,CANADA,CA,CAN
Ontario [English and French],,Crediton,43.3,-81.55,CANADA,CA,CAN
Ontario [English and French],,Fingal,42.716667,-81.3,CANADA,CA,CAN
Saskatchewan [English and French],,Lanigan,51.85,-105.033333,CANADA,CA,CAN
Nunavut [English and French],,Eureka,80.216667,-86.183333,CANADA,CA,CAN
Ontario [English and French],,Burks Falls,45.616667,-79.416667,CANADA,CA,CAN
Ontario [English and French],,New Liskeard,47.5,-79.666667,CANADA,CA,CAN
British Columbia [English] / Colombie-Britannique [French],,Nanoose Bay,49.25,-124.183333,CANADA,CA,CAN
Quebec [English] / Québec [French],,Rivière-Pigou,50.283333,-65.583333,CANADA,CA,CAN
Ontario [English and French],,Chippewa,43.083333,-79.05,CANADA,CA,CAN
Ontario [English and French],,Chippawa,43.083333,-79.05,CANADA,CA,CAN
British Columbia [English] / Colombie-Britannique [French],,Gibson’s Landing,49.4,-123.5,CANADA,CA,CAN
British Columbia [English] / Colombie-Britannique [French],,Gibsons,49.4,-123.5,CANADA,CA,CAN
Alberta [English and French],,Myrnam,53.666667,-111.233333,CANADA,CA,CAN
Newfoundland and Labrador [English] / Terre Neuve-et-Labrador [French],,Gaultois,47.6,-55.916667,CANADA,CA,CAN
British Columbia [English] / Colombie-Britannique [French],,Church House,50.316667,-125.083333,CANADA,CA,CAN
Ontario [English and French],,Potter,48.866667,-80.85,CANADA,CA,CAN
Ontario [English and French],,Holland,48.866667,-80.85,CANADA,CA,CAN
Alberta [English and French],,Pakan,54.004722,-112.405,CANADA,CA,CAN
Ontario [English and French],,Brantford,43.133333,-80.266667,CANADA,CA,CAN
Alberta [English and French],,Whiskey Gap,49.033333,-113.033333,CANADA,CA,CAN
Alberta [English and French],,Whisky Gap,49.033333,-113.033333,CANADA,CA,CAN
Quebec [English] / Québec [French],,L’Anse-Saint-Jean,48.233333,-70.183333,CANADA,CA,CAN
Ontario [English and French],,MacTier,45.133333,-79.766667,CANADA,CA,CAN
Ontario [English and French],,Cat Lake,51.716667,-91.8,CANADA,CA,CAN
Newfoundland and Labrador [English] / Terre Neuve-et-Labrador [French],,Tompkins,47.816667,-59.2,CANADA,CA,CAN
British Columbia [English] / Colombie-Britannique [French],,Hosmer,49.583333,-114.966667,CANADA,CA,CAN
Manitoba [English and French],,Griswold,49.766667,-100.466667,CANADA,CA,CAN
British Columbia [English] / Colombie-Britannique [French],,Tofino,49.133333,-125.9,CANADA,CA,CAN
Ontario [English and French],,Utterson,45.216667,-79.333333,CANADA,CA,CAN
Quebec [English] / Québec [French],,Clermont,47.683333,-70.233333,CANADA,CA,CAN
Ontario [English and French],,Colwell,44.35,-79.783333,CANADA,CA,CAN
Ontario [English and French],,Cowell,44.35,-79.783333,CANADA,CA,CAN
Ontario [English and French],,Exeter,43.35,-81.483333,CANADA,CA,CAN
Northwest Territories [English] / Territoires du Nord-Ouest [French],,Arctic Red River,67.433333,-133.75,CANADA,CA,CAN
Northwest Territories [English] / Territoires du Nord-Ouest [French],,Tsiigehtchic,67.433333,-133.75,CANADA,CA,CAN
British Columbia [English] / Colombie-Britannique [French],,Poplar Creek,50.416667,-117.133333,CANADA,CA,CAN
Yukon [English and French],,Minto,62.583333,-136.833333,CANADA,CA,CAN
British Columbia [English] / Colombie-Britannique [French],,Alliford Bay,53.2,-131.983333,CANADA,CA,CAN
Ontario [English and French],,Stratford,43.366667,-80.983333,CANADA,CA,CAN
Saskatchewan [English and French],,Truax,49.916667,-104.95,CANADA,CA,CAN
Newfoundland and Labrador [English] / Terre Neuve-et-Labrador [French],,Fair Island,48.983333,-53.7,CANADA,CA,CAN
Quebec [English] / Québec [French],,Saint-Romuald,46.75,-71.233333,CANADA,CA,CAN
Quebec [English] / Québec [French],,Saint-Romuald-d’Etchemin,46.75,-71.233333,CANADA,CA,CAN
Quebec [English] / Québec [French],,Saint Romald,46.75,-71.233333,CANADA,CA,CAN
Quebec [English] / Québec [French],,Lévy,49.833333,-74.833333,CANADA,CA,CAN
Saskatchewan [English and French],,Piapot,49.983333,-109.116667,CANADA,CA,CAN
British Columbia [English] / Colombie-Britannique [French],,Argenta,50.183333,-116.933333,CANADA,CA,CAN
Nova Scotia [English] / Nouvelle-Écosse [French],,Goldboro,45.183333,-61.65,CANADA,CA,CAN
Alberta [English and French],,Cold Lake,54.465,-110.183056,CANADA,CA,CAN
Saskatchewan [English and French],,Lockwood,51.633333,-105.016667,CANADA,CA,CAN
Manitoba [English and French],,Altona,49.1,-97.566667,CANADA,CA,CAN
Newfoundland and Labrador [English] / Terre Neuve-et-Labrador [French],,Lomond,49.45,-57.766667,CANADA,CA,CAN
Alberta [English and French],,Rosyth,52.633333,-111.216667,CANADA,CA,CAN
Quebec [English] / Québec [French],,Valleyfield,45.25,-74.133333,CANADA,CA,CAN
Quebec [English] / Québec [French],,Salaberry-de-Valleyfield,45.25,-74.133333,CANADA,CA,CAN
Saskatchewan [English and French],,South Fork,49.6,-108.716667,CANADA,CA,CAN
Newfoundland and Labrador [English] / Terre Neuve-et-Labrador [French],,Pilley’s Island,49.5,-55.716667,CANADA,CA,CAN
Newfoundland and Labrador [English] / Terre Neuve-et-Labrador [French],,Pilleys,49.5,-55.716667,CANADA,CA,CAN
Saskatchewan [English and French],,White Bear,50.883333,-108.2,CANADA,CA,CAN
Ontario [English and French],,Whitby,43.866667,-78.933333,CANADA,CA,CAN
Newfoundland and Labrador [English] / Terre Neuve-et-Labrador [French],,Whitbourne,47.416667,-53.533333,CANADA,CA,CAN
Ontario [English and French],,Sellwood,46.85,-81.016667,CANADA,CA,CAN
Manitoba [English and French],,Selkirk,50.15,-96.883333,CANADA,CA,CAN
Prince Edward Island [English] / Île-du-Prince-Édouard [French],,Selkirk,46.416667,-62.433333,CANADA,CA,CAN
Prince Edward Island [English] / Île-du-Prince-Édouard [French],,Armadale,46.416667,-62.433333,CANADA,CA,CAN
Newfoundland and Labrador [English] / Terre Neuve-et-Labrador [French],,Trinity,48.95,-53.916667,CANADA,CA,CAN
Quebec [English] / Québec [French],,Tring-Jonction,46.266667,-71,CANADA,CA,CAN
Newfoundland and Labrador [English] / Terre Neuve-et-Labrador [French],,Trepassey,46.733333,-53.366667,CANADA,CA,CAN
Newfoundland and Labrador [English] / Terre Neuve-et-Labrador [French],,Trespassey,46.733333,-53.366667,CANADA,CA,CAN
Ontario [English and French],,Trenton,44.1,-77.583333,CANADA,CA,CAN
Manitoba [English and French],,Treherne,49.633333,-98.7,CANADA,CA,CAN
New Brunswick [English] / Nouveau-Brunswick [French],,Soudou,46.166667,-64.566667,CANADA,CA,CAN
New Brunswick [English] / Nouveau-Brunswick [French],,Dorchester Crossing,46.166667,-64.566667,CANADA,CA,CAN
New Brunswick [English] / Nouveau-Brunswick [French],,Scoudouc,46.166667,-64.566667,CANADA,CA,CAN
Alberta [English and French],,Round Hill,53.166667,-112.616667,CANADA,CA,CAN
Saskatchewan [English and French],,Rouleau,50.183333,-104.9,CANADA,CA,CAN
Saskatchewan [English and French],,Totzke,52.283333,-105.666667,CANADA,CA,CAN
Alberta [English and French],,Torrington,51.8,-113.6,CANADA,CA,CAN
Ontario [English and French],,Torrance,44.983333,-79.566667,CANADA,CA,CAN
Saskatchewan [English and French],,Torquay,49.133333,-103.483333,CANADA,CA,CAN
Nova Scotia [English] / Nouvelle-Écosse [French],,Stellarton,45.566667,-62.65,CANADA,CA,CAN
New Brunswick [English] / Nouveau-Brunswick [French],,Rothesay,45.383333,-66,CANADA,CA,CAN
British Columbia [English] / Colombie-Britannique [French],,Rosswood,54.816667,-128.766667,CANADA,CA,CAN
British Columbia [English] / Colombie-Britannique [French],,Rossland,49.083333,-117.816667,CANADA,CA,CAN
Yukon [English and French],,Wernecke,63.95,-135.266667,CANADA,CA,CAN
Nova Scotia [English] / Nouvelle-Écosse [French],,Wentworth Centre,45.683333,-63.55,CANADA,CA,CAN
New Brunswick [English] / Nouveau-Brunswick [French],,Welshpool,44.883333,-66.95,CANADA,CA,CAN
New Brunswick [English] / Nouveau-Brunswick [French],,Campo Bello,44.883333,-66.95,CANADA,CA,CAN
New Brunswick [English] / Nouveau-Brunswick [French],,Welchpool,44.883333,-66.95,CANADA,CA,CAN
New Brunswick [English] / Nouveau-Brunswick [French],,Welsford,45.45,-66.35,CANADA,CA,CAN
Newfoundland and Labrador [English] / Terre Neuve-et-Labrador [French],,Dover,48.85,-53.983333,CANADA,CA,CAN
Newfoundland and Labrador [English] / Terre Neuve-et-Labrador [French],,Wellington,48.85,-53.983333,CANADA,CA,CAN
Ontario [English and French],,Wellington,43.95,-77.35,CANADA,CA,CAN
Ontario [English and French],,Big Sandy,43.95,-77.35,CANADA,CA,CAN
New Brunswick [English] / Nouveau-Brunswick [French],,Weldon,45.95,-64.683333,CANADA,CA,CAN
New Brunswick [English] / Nouveau-Brunswick [French],,Welden,45.95,-64.683333,CANADA,CA,CAN
Alberta [English and French],,Whitelaw,56.1,-118.083333,CANADA,CA,CAN
Yukon [English and French],,Whitehorse,60.716667,-135.05,CANADA,CA,CAN
Nova Scotia [English] / Nouvelle-Écosse [French],,Sable River,43.833333,-65.066667,CANADA,CA,CAN
Nova Scotia [English] / Nouvelle-Écosse [French],,Sabie River,43.833333,-65.066667,CANADA,CA,CAN
Saskatchewan [English and French],,Ryerson,49.783333,-101.666667,CANADA,CA,CAN
Ontario [English and French],,Rutherglen,46.266667,-79.033333,CANADA,CA,CAN
Nova Scotia [English] / Nouvelle-Écosse [French],,Truro,45.366667,-63.3,CANADA,CA,CAN
Nova Scotia [English] / Nouvelle-Écosse [French],,Troy,45.683333,-61.433333,CANADA,CA,CAN
Newfoundland and Labrador [English] / Terre Neuve-et-Labrador [French],,Trout River,49.483333,-58.116667,CANADA,CA,CAN
British Columbia [English] / Colombie-Britannique [French],,Trout Lake,53.816667,-89.883333,CANADA,CA,CAN
Ontario [English and French],,Trout Creek,45.983333,-79.366667,CANADA,CA,CAN
Saskatchewan [English and French],,Trossachs,49.633333,-104.216667,CANADA,CA,CAN
Saskatchewan [English and French],,Young,51.766667,-105.75,CANADA,CA,CAN
British Columbia [English] / Colombie-Britannique [French],,Youbou,48.883333,-124.2,CANADA,CA,CAN
Saskatchewan [English and French],,Yorkton,51.216667,-102.466667,CANADA,CA,CAN
Ontario [English and French],,York Mills,43.75,-79.416667,CANADA,CA,CAN
Manitoba [English and French],,York Factory,57,-92.283333,CANADA,CA,CAN
Alberta [English and French],,Sedalia,51.666667,-110.666667,CANADA,CA,CAN
Northwest Territories [English] / Territoires du Nord-Ouest [French],,Stanton,69.75,-128.866667,CANADA,CA,CAN
Quebec [English] / Québec [French],,Stanstead Plain,45.016667,-72.083333,CANADA,CA,CAN
Quebec [English] / Québec [French],,Stanstead,45.016667,-72.083333,CANADA,CA,CAN
Ontario [English and French],,Schumacher,48.466667,-81.283333,CANADA,CA,CAN
Ontario [English and French],,Schreiber,48.8,-87.266667,CANADA,CA,CAN
Quebec [English] / Québec [French],,Shafferville,54.8,-66.816667,CANADA,CA,CAN
Quebec [English] / Québec [French],,Schefferville,54.8,-66.816667,CANADA,CA,CAN
Quebec [English] / Québec [French],,Knob Lake,54.8,-66.816667,CANADA,CA,CAN
Saskatchewan [English and French],,White Fox,53.45,-104.083333,CANADA,CA,CAN
Ontario [English and French],,Sturgeon Falls,46.366667,-79.933333,CANADA,CA,CAN
Manitoba [English and French],,Shamattawa,55.85,-92.083333,CANADA,CA,CAN
Manitoba [English and French],,Shamattawa River,55.85,-92.083333,CANADA,CA,CAN
Manitoba [English and French],,Chamatawa,55.85,-92.083333,CANADA,CA,CAN
Quebec [English] / Québec [French],,Saint-Athanase,47.433333,-69.416667,CANADA,CA,CAN
Saskatchewan [English and French],,Whitewood,50.333333,-102.25,CANADA,CA,CAN
Prince Edward Island [English] / Île-du-Prince-Édouard [French],,White Sands,45.966667,-62.566667,CANADA,CA,CAN
British Columbia [English] / Colombie-Britannique [French],,White Rock,49.033333,-122.816667,CANADA,CA,CAN
Alberta [English and French],,Twin Butte,46.266667,-113.85,CANADA,CA,CAN
Newfoundland and Labrador [English] / Terre Neuve-et-Labrador [French],,Toulinguet,49.65,-54.75,CANADA,CA,CAN
Newfoundland and Labrador [English] / Terre Neuve-et-Labrador [French],,Twillingate,49.65,-54.75,CANADA,CA,CAN
Ontario [English and French],,Tweed,44.466667,-77.3,CANADA,CA,CAN
Saskatchewan [English and French],,Tuxford,50.583333,-105.583333,CANADA,CA,CAN
Manitoba [English and French],,Tuxedo,49.833333,-97.216667,CANADA,CA,CAN
Nova Scotia [English] / Nouvelle-Écosse [French],,Tusket,43.85,-65.966667,CANADA,CA,CAN
British Columbia [English] / Colombie-Britannique [French],,Sturdies Bay,48.883333,-123.316667,CANADA,CA,CAN
Ontario [English and French],,Shelburne,44.066667,-80.2,CANADA,CA,CAN
Saskatchewan [English and French],,Sheho,51.583333,-103.216667,CANADA,CA,CAN
Quebec [English] / Québec [French],,Shefford,45.416667,-72.583333,CANADA,CA,CAN
Nova Scotia [English] / Nouvelle-Écosse [French],,Sheet Harbour,44.933333,-62.533333,CANADA,CA,CAN
Quebec [English] / Québec [French],,Saint-Antoine-du-Lac-Saint-Jean,49.066667,-72.35,CANADA,CA,CAN
Quebec [English] / Québec [French],,Saint-Antoine-des-Laurentides,45.766667,-73.983333,CANADA,CA,CAN
New Brunswick [English] / Nouveau-Brunswick [French],,Saint Anthony,46.366667,-64.75,CANADA,CA,CAN
Quebec [English] / Québec [French],,Saint-Anselme,46.616667,-70.966667,CANADA,CA,CAN
Nova Scotia [English] / Nouvelle-Écosse [French],,Saint Ann,46.25,-60.616667,CANADA,CA,CAN
Nova Scotia [English] / Nouvelle-Écosse [French],,Saint Anns,46.25,-60.616667,CANADA,CA,CAN
Newfoundland and Labrador [English] / Terre Neuve-et-Labrador [French],,Saint Andrews,47.783333,-59.233333,CANADA,CA,CAN
New Brunswick [English] / Nouveau-Brunswick [French],,Saint Andrews,45.066667,-67.033333,CANADA,CA,CAN
Quebec [English] / Québec [French],,Saint-André-de-Kamouraska,47.666667,-69.733333,CANADA,CA,CAN
Quebec [English] / Québec [French],,Saint-André,47.666667,-69.733333,CANADA,CA,CAN
British Columbia [English] / Colombie-Britannique [French],,Quesnel,52.983333,-122.483333,CANADA,CA,CAN
Ontario [English and French],,Queenston,43.166667,-79.05,CANADA,CA,CAN
Nova Scotia [English] / Nouvelle-Écosse [French],,Queensport,45.35,-61.25,CANADA,CA,CAN
Nova Scotia [English] / Nouvelle-Écosse [French],,West Bay Road,45.716667,-61.25,CANADA,CA,CAN
Newfoundland and Labrador [English] / Terre Neuve-et-Labrador [French],,West Bay,54.133333,-57.416667,CANADA,CA,CAN
Alberta [English and French],,Stanmore,51.583333,-111.516667,CANADA,CA,CAN
Manitoba [English and French],,Steinbach,49.516667,-96.683333,CANADA,CA,CAN
Ontario [English and French],,Steep Rock Lake,48.833333,-91.666667,CANADA,CA,CAN
Manitoba [English and French],,Steep Rock,51.433333,-98.8,CANADA,CA,CAN
Ontario [English and French],,Stayner,44.416667,-80.083333,CANADA,CA,CAN
British Columbia [English] / Colombie-Britannique [French],,Seechelt,49.466667,-123.766667,CANADA,CA,CAN
British Columbia [English] / Colombie-Britannique [French],,Sechelt,49.466667,-123.766667,CANADA,CA,CAN
Manitoba [English and French],,Rossburn,50.666667,-100.816667,CANADA,CA,CAN
British Columbia [English] / Colombie-Britannique [French],,Trapp Lake,50.383333,-120.266667,CANADA,CA,CAN
Saskatchewan [English and French],,Tramping Lake,52.133333,-108.95,CANADA,CA,CAN
British Columbia [English] / Colombie-Britannique [French],,Trail,49.1,-117.716667,CANADA,CA,CAN
Ontario [English and French],,Westport,44.683333,-76.4,CANADA,CA,CAN
Nova Scotia [English] / Nouvelle-Écosse [French],,Westport,44.266667,-66.35,CANADA,CA,CAN
Ontario [English and French],,Weston,43.7,-79.5,CANADA,CA,CAN
Quebec [English] / Québec [French],,Westmount,45.483333,-73.6,CANADA,CA,CAN
Nova Scotia [English] / Nouvelle-Écosse [French],,West Lehave,44.316667,-64.416667,CANADA,CA,CAN
Nova Scotia [English] / Nouvelle-Écosse [French],,West LaHave,44.316667,-64.416667,CANADA,CA,CAN
Manitoba [English and French],,West Kildonan,49.933333,-97.116667,CANADA,CA,CAN
British Columbia [English] / Colombie-Britannique [French],,Westholm,48.866667,-123.716667,CANADA,CA,CAN
British Columbia [English] / Colombie-Britannique [French],,Westholme,48.866667,-123.716667,CANADA,CA,CAN
Alberta [English and French],,Seba Beach,53.566667,-114.716667,CANADA,CA,CAN
British Columbia [English] / Colombie-Britannique [French],,Seaton,55.1,-127.366667,CANADA,CA,CAN
Newfoundland and Labrador [English] / Terre Neuve-et-Labrador [French],,Searston,47.833333,-59.316667,CANADA,CA,CAN
Ontario [English and French],,Searchmont,46.783333,-84.05,CANADA,CA,CAN
Newfoundland and Labrador [English] / Terre Neuve-et-Labrador [French],,Seal Islands,53.233333,-55.716667,CANADA,CA,CAN
Newfoundland and Labrador [English] / Terre Neuve-et-Labrador [French],,Seal Cove,47.466667,-53.083333,CANADA,CA,CAN
New Brunswick [English] / Nouveau-Brunswick [French],,Seal Cove,44.65,-66.85,CANADA,CA,CAN
Nova Scotia [English] / Nouvelle-Écosse [French],,Seaforth,44.65,-63.266667,CANADA,CA,CAN
Ontario [English and French],,Shabaqua,48.583333,-89.9,CANADA,CA,CAN
Ontario [English and French],,Shabagua,48.583333,-89.9,CANADA,CA,CAN
Alberta [English and French],,Sexsmith,55.35,-118.783333,CANADA,CA,CAN
Ontario [English and French],,Severn Bridge,44.766667,-79.333333,CANADA,CA,CAN
Ontario [English and French],,Severn,44.766667,-79.333333,CANADA,CA,CAN
British Columbia [English] / Colombie-Britannique [French],,Queen Charlotte,53.25,-132.083333,CANADA,CA,CAN
Quebec [English] / Québec [French],,Québec,46.8,-71.25,CANADA,CA,CAN
Quebec [English] / Québec [French],,Quebec,46.8,-71.25,CANADA,CA,CAN
British Columbia [English] / Colombie-Britannique [French],,Whaletown,50.1,-125.033333,CANADA,CA,CAN
Nunavut [English and French],,Tikiraqjuaq,62.183333,-92.6,CANADA,CA,CAN
Nunavut [English and French],,Whale Cove,62.183333,-92.6,CANADA,CA,CAN
Nova Scotia [English] / Nouvelle-Écosse [French],,Weymouth,44.416667,-65.983333,CANADA,CA,CAN
Alberta [English and French],,Wetaskiwin,52.966667,-113.383333,CANADA,CA,CAN
Alberta [English and French],,Standard,51.116667,-112.983333,CANADA,CA,CAN
Ontario [English and French],,Stamford,43.133333,-79.1,CANADA,CA,CAN
Alberta [English and French],,Rosevear,53.666667,-116.166667,CANADA,CA,CAN
Saskatchewan [English and French],,Rosetown,51.55,-107.983333,CANADA,CA,CAN
British Columbia [English] / Colombie-Britannique [French],,Rose Prairie,56.516667,-120.783333,CANADA,CA,CAN
Quebec [English] / Québec [French],,Rosemère,45.633333,-73.816667,CANADA,CA,CAN
Alberta [English and French],,Rose Lynn,51.416667,-111.683333,CANADA,CA,CAN
British Columbia [English] / Colombie-Britannique [French],,Rose Lake,54.4,-126.033333,CANADA,CA,CAN
New Brunswick [English] / Nouveau-Brunswick [French],,Tracadie,47.5,-64.916667,CANADA,CA,CAN
Prince Edward Island [English] / Île-du-Prince-Édouard [French],,Tracadie,46.35,-62.966667,CANADA,CA,CAN
British Columbia [English] / Colombie-Britannique [French],,Tow Hill,54.066667,-131.783333,CANADA,CA,CAN
New Brunswick [English] / Nouveau-Brunswick [French],,Tower Hill,45.316667,-67.2,CANADA,CA,CAN
British Columbia [English] / Colombie-Britannique [French],,Squilax,50.866667,-119.583333,CANADA,CA,CAN
British Columbia [English] / Colombie-Britannique [French],,Squaw Creek,59.983333,-137.116667,CANADA,CA,CAN
Quebec [English] / Québec [French],,Squatteck,47.866667,-68.733333,CANADA,CA,CAN
Quebec [English] / Québec [French],,Sqatteck,47.866667,-68.733333,CANADA,CA,CAN
Alberta [English and French],,Scotswood,56.1,-118.683333,CANADA,CA,CAN
Quebec [English] / Québec [French],,Scotstown,45.533333,-71.283333,CANADA,CA,CAN
Saskatchewan [English and French],,Scotsguard,49.716667,-108.133333,CANADA,CA,CAN
Nova Scotia [English] / Nouvelle-Écosse [French],,Scots Bay,45.3,-64.4,CANADA,CA,CAN
Ontario [English and French],,Scotia,45.516667,-79.3,CANADA,CA,CAN
Alberta [English and French],,Rosalind,52.783333,-112.45,CANADA,CA,CAN
British Columbia [English] / Colombie-Britannique [French],,Stuart Island,50.366667,-125.15,CANADA,CA,CAN
Prince Edward Island [English] / Île-du-Prince-Édouard [French],,Rustico,46.416667,-63.3,CANADA,CA,CAN
Manitoba [English and French],,Russell,50.783333,-101.283333,CANADA,CA,CAN
Ontario [English and French],,Ruel,47.25,-81.466667,CANADA,CA,CAN
Yukon [English and French],,Ruby Camp,61.083333,-137.916667,CANADA,CA,CAN
Ontario [English and French],,Whitefish Falls,46.1,-81.716667,CANADA,CA,CAN
Ontario [English and French],,Whitefish,46.366667,-81.316667,CANADA,CA,CAN
Saskatchewan [English and French],,Turtleford,53.383333,-108.966667,CANADA,CA,CAN
Ontario [English and French],,Turriff,44.983333,-77.733333,CANADA,CA,CAN
Newfoundland and Labrador [English] / Terre Neuve-et-Labrador [French],,Turner Bight,54.216667,-58.133333,CANADA,CA,CAN
Quebec [English] / Québec [French],,Sacré-Coeur-Saguenay,48.233333,-69.816667,CANADA,CA,CAN
Manitoba [English and French],,Stonewall,50.133333,-97.316667,CANADA,CA,CAN
New Brunswick [English] / Nouveau-Brunswick [French],,Stonehaven,47.75,-65.366667,CANADA,CA,CAN
Ontario [English and French],,Stonecliffe,46.216667,-77.883333,CANADA,CA,CAN
Ontario [English and French],,Rockliffe,46.216667,-77.883333,CANADA,CA,CAN
Manitoba [English and French],,Stockton,49.583333,-99.45,CANADA,CA,CAN
Ontario [English and French],,Stittsville,45.25,-75.916667,CANADA,CA,CAN
Alberta [English and French],,Stirling,49.516667,-112.516667,CANADA,CA,CAN
British Columbia [English] / Colombie-Britannique [French],,Stillwater,49.766667,-124.316667,CANADA,CA,CAN
Nova Scotia [English] / Nouvelle-Écosse [French],,Stewiacke,45.133333,-63.35,CANADA,CA,CAN
Saskatchewan [English and French],,Stewart Valley,50.6,-107.816667,CANADA,CA,CAN
Yukon [English and French],,Stewart River,63.316667,-139.416667,CANADA,CA,CAN
Newfoundland and Labrador [English] / Terre Neuve-et-Labrador [French],,Separation Point,53.616667,-57.433333,CANADA,CA,CAN
Quebec [English] / Québec [French],,Senneterre,48.4,-77.25,CANADA,CA,CAN
Saskatchewan [English and French],,Semans,51.4,-104.733333,CANADA,CA,CAN
Yukon [English and French],,West Dawson,64.066667,-139.45,CANADA,CA,CAN
Nova Scotia [English] / Nouvelle-Écosse [French],,Westchester Station,45.616667,-63.666667,CANADA,CA,CAN
Quebec [English] / Québec [French],,Trois-Pistoles,48.116667,-69.166667,CANADA,CA,CAN
Quebec [English] / Québec [French],,Trois-Lacs,45.8,-71.9,CANADA,CA,CAN
Quebec [English] / Québec [French],,Three Lakes,45.8,-71.9,CANADA,CA,CAN
Alberta [English and French],,Saint Albert,53.633333,-113.633333,CANADA,CA,CAN
Newfoundland and Labrador [English] / Terre Neuve-et-Labrador [French],,Saint Albans,47.866667,-55.85,CANADA,CA,CAN
Quebec [English] / Québec [French],,Saint-Alban,46.7,-72.083333,CANADA,CA,CAN
Manitoba [English and French],,Sagawitchewan,53.733333,-93.666667,CANADA,CA,CAN
Ontario [English and French],,Whitney,45.5,-78.233333,CANADA,CA,CAN
Alberta [English and French],,Whitla,49.883333,-111.05,CANADA,CA,CAN
Saskatchewan [English and French],,Whitkow,52.933333,-107.866667,CANADA,CA,CAN
British Columbia [English] / Colombie-Britannique [French],,White Pass,59.616667,-135.116667,CANADA,CA,CAN
Prince Edward Island [English] / Île-du-Prince-Édouard [French],,Tyne Valley,46.566667,-63.933333,CANADA,CA,CAN
Manitoba [English and French],,Tyndall,50.083333,-96.666667,CANADA,CA,CAN
British Columbia [English] / Colombie-Britannique [French],,Two Rivers,56.183333,-120.533333,CANADA,CA,CAN
Saskatchewan [English and French],,Success,50.45,-108.083333,CANADA,CA,CAN
Saskatchewan [English and French],,Sturgis,51.85,-102.533333,CANADA,CA,CAN
British Columbia [English] / Colombie-Britannique [French],,Shearer Dale,56.066667,-120.083333,CANADA,CA,CAN
Quebec [English] / Québec [French],,Shawville,45.6,-76.483333,CANADA,CA,CAN
Quebec [English] / Québec [French],,Shawinigan-Sud,46.533333,-72.75,CANADA,CA,CAN
Quebec [English] / Québec [French],,Almaville,46.533333,-72.75,CANADA,CA,CAN
Quebec [English] / Québec [French],,Shawbridge,45.866667,-74.083333,CANADA,CA,CAN
Saskatchewan [English and French],,Shaunavon,49.65,-108.416667,CANADA,CA,CAN
Ontario [English and French],,Sharbot Lake,44.766667,-76.683333,CANADA,CA,CAN
Ontario [English and French],,Quetico,48.733333,-90.933333,CANADA,CA,CAN
Saskatchewan [English and French],,Qu’Appelle,50.533333,-103.866667,CANADA,CA,CAN
Nova Scotia [English] / Nouvelle-Écosse [French],,Westville,45.55,-62.716667,CANADA,CA,CAN
British Columbia [English] / Colombie-Britannique [French],,Westview,49.85,-124.533333,CANADA,CA,CAN
Ontario [English and French],,Strathroy,42.95,-81.616667,CANADA,CA,CAN
Nova Scotia [English] / Nouvelle-Écosse [French],,Strathlorne,46.183333,-61.266667,CANADA,CA,CAN
Alberta [English and French],,Strathcona,53.583333,-113.166667,CANADA,CA,CAN
Saskatchewan [English and French],,Stranraer,51.7,-108.483333,CANADA,CA,CAN
Saskatchewan [English and French],,Stoughton,49.683333,-103.016667,CANADA,CA,CAN
Ontario [English and French],,Whitchurch-Stouffville,43.966667,-79.25,CANADA,CA,CAN
Ontario [English and French],,Stouffville,43.966667,-79.25,CANADA,CA,CAN
Ontario [English and French],,Stouffville Junction,43.966667,-79.25,CANADA,CA,CAN
Manitoba [English and French],,Warren Landing,53.7,-97.883333,CANADA,CA,CAN
Alberta [English and French],,Warner,49.283333,-112.2,CANADA,CA,CAN
British Columbia [English] / Colombie-Britannique [French],,Ware,57.416667,-125.616667,CANADA,CA,CAN
British Columbia [English] / Colombie-Britannique [French],,Fort Ware,57.416667,-125.616667,CANADA,CA,CAN
British Columbia [English] / Colombie-Britannique [French],,Whitewater,57.416667,-125.616667,CANADA,CA,CAN
Ontario [English and French],,Tudhope,49.25,-81.666667,CANADA,CA,CAN
British Columbia [English] / Colombie-Britannique [French],,Roy,50.516667,-125.533333,CANADA,CA,CAN
Quebec [English] / Québec [French],,Roxboro,45.5,-73.816667,CANADA,CA,CAN
Quebec [English] / Québec [French],,Rouyn,48.25,-79.033333,CANADA,CA,CAN
Ontario [English and French],,Turbine,46.366667,-81.516667,CANADA,CA,CAN
Ontario [English and French],,Thunder Bay,48.4,-89.233333,CANADA,CA,CAN
Ontario [English and French],,Fort William,48.4,-89.233333,CANADA,CA,CAN
Ontario [English and French],,Port Arthur,48.4,-89.233333,CANADA,CA,CAN
Ontario [English and French],,Richmond Hill,43.866667,-79.433333,CANADA,CA,CAN
British Columbia [English] / Colombie-Britannique [French],,Richmond,49.166667,-122.966667,CANADA,CA,CAN
Quebec [English] / Québec [French],,Richmond,45.666667,-72.15,CANADA,CA,CAN
Ontario [English and French],,Richmond,45.183333,-75.833333,CANADA,CA,CAN
Newfoundland and Labrador [English] / Terre Neuve-et-Labrador [French],,Wabush,52.916667,-66.866667,CANADA,CA,CAN
Ontario [English and French],,Wabun,47.666667,-80.233333,CANADA,CA,CAN
Manitoba [English and French],,Wabowden,54.916667,-98.633333,CANADA,CA,CAN
Manitoba [English and French],,Vivian,49.866667,-96.466667,CANADA,CA,CAN
Manitoba [English and French],,Vivian Station,49.866667,-96.466667,CANADA,CA,CAN
Alberta [English and French],,Tawatinaw,54.3,-113.483333,CANADA,CA,CAN
Ontario [English and French],,Tavistock,43.316667,-80.833333,CANADA,CA,CAN
Saskatchewan [English and French],,Estuary,50.933333,-109.9,CANADA,CA,CAN
Saskatchewan [English and French],,Eston,51.15,-108.75,CANADA,CA,CAN
Saskatchewan [English and French],,Estevan,49.15,-103,CANADA,CA,CAN
Saskatchewan [English and French],,Esterhazy,50.65,-102.083333,CANADA,CA,CAN
Yukon [English and French],,DeWette,60.383333,-134.833333,CANADA,CA,CAN
Ontario [English and French],,Midhurst,44.45,-79.733333,CANADA,CA,CAN
Nova Scotia [English] / Nouvelle-Écosse [French],,Middleton,44.95,-65.066667,CANADA,CA,CAN
British Columbia [English] / Colombie-Britannique [French],,Middle River Village,54.866667,-125.133333,CANADA,CA,CAN
Nova Scotia [English] / Nouvelle-Écosse [French],,Musquodoboit,45.05,-63.133333,CANADA,CA,CAN
Nova Scotia [English] / Nouvelle-Écosse [French],,Middle Musquodoboit,45.05,-63.133333,CANADA,CA,CAN
Newfoundland and Labrador [English] / Terre Neuve-et-Labrador [French],,Middle Arm,49.85,-56.433333,CANADA,CA,CAN
Newfoundland and Labrador [English] / Terre Neuve-et-Labrador [French],,Middle Arm,49.7,-56.15,CANADA,CA,CAN
Quebec [English] / Québec [French],,Macamik,48.766667,-79,CANADA,CA,CAN
Quebec [English] / Québec [French],,Macamic,48.766667,-79,CANADA,CA,CAN
Quebec [English] / Québec [French],,Makamik,48.766667,-79,CANADA,CA,CAN
Nova Scotia [English] / Nouvelle-Écosse [French],,Mabou Harbour,46.083333,-61.416667,CANADA,CA,CAN
Quebec [English] / Québec [French],,Lyster Station,46.366667,-71.616667,CANADA,CA,CAN
Quebec [English] / Québec [French],,Lyster,46.366667,-71.616667,CANADA,CA,CAN
British Columbia [English] / Colombie-Britannique [French],,Lamèque,47.783333,-64.633333,CANADA,CA,CAN
Newfoundland and Labrador [English] / Terre Neuve-et-Labrador [French],,Lamaline,46.866667,-55.816667,CANADA,CA,CAN
British Columbia [English] / Colombie-Britannique [French],,Anyox,55.416667,-129.833333,CANADA,CA,CAN
Nova Scotia [English] / Nouvelle-Écosse [French],,Antigonishe,45.616667,-61.966667,CANADA,CA,CAN
Nova Scotia [English] / Nouvelle-Écosse [French],,Antigonish,45.616667,-61.966667,CANADA,CA,CAN
Ontario [English and French],,Ansonville,48.75,-80.683333,CANADA,CA,CAN
Newfoundland and Labrador [English] / Terre Neuve-et-Labrador [French],,Gander,48.95,-54.55,CANADA,CA,CAN
Ontario [English and French],,Gananoque,44.333333,-76.166667,CANADA,CA,CAN
Alberta [English and French],,Joffre,52.333333,-113.533333,CANADA,CA,CAN
Newfoundland and Labrador [English] / Terre Neuve-et-Labrador [French],,Jersey Harbour,47.5,-55.783333,CANADA,CA,CAN
British Columbia [English] / Colombie-Britannique [French],,Port Simpson,54.55,-130.416667,CANADA,CA,CAN
Ontario [English and French],,Port Severn,44.8,-79.716667,CANADA,CA,CAN
Newfoundland and Labrador [English] / Terre Neuve-et-Labrador [French],,Port Saunders,50.65,-57.266667,CANADA,CA,CAN
Newfoundland and Labrador [English] / Terre Neuve-et-Labrador [French],,Port Rexton,48.4,-53.35,CANADA,CA,CAN
Ontario [English and French],,Port Perry,44.1,-78.933333,CANADA,CA,CAN
British Columbia [English] / Colombie-Britannique [French],,Port Neville,50.483333,-126.083333,CANADA,CA,CAN
Manitoba [English and French],,Nelson,57.066667,-92.583333,CANADA,CA,CAN
Manitoba [English and French],,Port Nelson,57.066667,-92.583333,CANADA,CA,CAN
Nova Scotia [English] / Nouvelle-Écosse [French],,Port Mouton,43.933333,-64.85,CANADA,CA,CAN
Nova Scotia [English] / Nouvelle-Écosse [French],,Port Matoon,43.933333,-64.85,CANADA,CA,CAN
Nova Scotia [English] / Nouvelle-Écosse [French],,Port Morien,46.133333,-59.883333,CANADA,CA,CAN
Nova Scotia [English] / Nouvelle-Écosse [French],,Morien Bay,46.133333,-59.883333,CANADA,CA,CAN
Nova Scotia [English] / Nouvelle-Écosse [French],,Cow Bay,46.133333,-59.883333,CANADA,CA,CAN
Quebec [English] / Québec [French],,Port-Menier,49.816667,-64.35,CANADA,CA,CAN
British Columbia [English] / Colombie-Britannique [French],,Port Mellon,49.516667,-123.483333,CANADA,CA,CAN
Manitoba [English and French],,English Brook,51.133333,-96.2,CANADA,CA,CAN
Quebec [English] / Québec [French],,Deloro,44.516667,-77.616667,CANADA,CA,CAN
Alberta [English and French],,Clandonald,53.583333,-110.716667,CANADA,CA,CAN
Quebec [English] / Québec [French],,Chute-Shipshaw,48.466667,-71.233333,CANADA,CA,CAN
Quebec [English] / Québec [French],,Shipshaw Falls,48.466667,-71.233333,CANADA,CA,CAN
Quebec [English] / Québec [French],,Chute-aux-Outardes,49.116667,-68.383333,CANADA,CA,CAN
Quebec [English] / Québec [French],,Lac Edouard,47.666667,-72.266667,CANADA,CA,CAN
Manitoba [English and French],,Lac du Bonnet,50.266667,-96.05,CANADA,CA,CAN
Quebec [English] / Québec [French],,Lac-Castor,46.366667,-74.883333,CANADA,CA,CAN
Quebec [English] / Québec [French],,Lac-Castagnier,48.7,-77.733333,CANADA,CA,CAN
Alberta [English and French],,Lac Cardinal,56.266667,-117.816667,CANADA,CA,CAN
Quebec [English] / Québec [French],,Lac-aux-Sables,46.866667,-72.383333,CANADA,CA,CAN
Quebec [English] / Québec [French],,Lac-au-Saumon,48.416667,-67.333333,CANADA,CA,CAN
Northwest Territories [English] / Territoires du Nord-Ouest [French],,Buffalo River,60.883333,-115.033333,CANADA,CA,CAN
Saskatchewan [English and French],,Buffalo Narrows,55.854167,-108.484167,CANADA,CA,CAN
Ontario [English and French],,Jackfish,48.8,-86.966667,CANADA,CA,CAN
Newfoundland and Labrador [English] / Terre Neuve-et-Labrador [French],,Ivanhoe,48.183333,-53.533333,CANADA,CA,CAN
Quebec [English] / Québec [French],,Issoudun,46.583333,-71.616667,CANADA,CA,CAN
British Columbia [English] / Colombie-Britannique [French],,Isnardy,52.05,-122.266667,CANADA,CA,CAN
British Columbia [English] / Colombie-Britannique [French],,Isle Pierre,53.95,-123.266667,CANADA,CA,CAN
Ontario [English and French],,Hamilton,43.25,-79.833333,CANADA,CA,CAN
Saskatchewan [English and French],,Halvorgate,50.616667,-106.7,CANADA,CA,CAN
Ontario [English and French],,Hallowell,44,-77.233333,CANADA,CA,CAN
Ontario [English and French],,Osnaburgh House,51.133333,-90.266667,CANADA,CA,CAN
Ontario [English and French],,Osnaburgh,51.133333,-90.266667,CANADA,CA,CAN
Ontario [English and French],,Oshawa,43.9,-78.866667,CANADA,CA,CAN
Manitoba [English and French],,Osborne,49.533333,-97.366667,CANADA,CA,CAN
Quebec [English] / Québec [French],,Orsainville,46.883333,-71.283333,CANADA,CA,CAN
New Brunswick [English] / Nouveau-Brunswick [French],,Oromocto,45.85,-66.466667,CANADA,CA,CAN
New Brunswick [English] / Nouveau-Brunswick [French],,Oronocto,45.85,-66.466667,CANADA,CA,CAN
Quebec [English] / Québec [French],,Ormstown,45.133333,-74,CANADA,CA,CAN
Ontario [English and French],,Orleans,45.466667,-75.516667,CANADA,CA,CAN
Quebec [English] / Québec [French],,Saint Anne De Chicoutimi,48.45,-71.066667,CANADA,CA,CAN
Quebec [English] / Québec [French],,Chicoutimi-Nord,48.45,-71.066667,CANADA,CA,CAN
Quebec [English] / Québec [French],,Chicoutimi,48.433333,-71.066667,CANADA,CA,CAN
British Columbia [English] / Colombie-Britannique [French],,Stuart Portage,54.6,-125.083333,CANADA,CA,CAN
British Columbia [English] / Colombie-Britannique [French],,Nancut,54.6,-125.083333,CANADA,CA,CAN
British Columbia [English] / Colombie-Britannique [French],,Namu,51.866667,-127.866667,CANADA,CA,CAN
Alberta [English and French],,Nampa,56.033333,-117.116667,CANADA,CA,CAN
Saskatchewan [English and French],,Melville,50.933333,-102.8,CANADA,CA,CAN
Quebec [English] / Québec [French],,Melocheville,45.316667,-73.933333,CANADA,CA,CAN
Manitoba [English and French],,Melita,49.266667,-100.983333,CANADA,CA,CAN
Quebec [English] / Québec [French],,Brossard,45.45,-73.483333,CANADA,CA,CAN
Alberta [English and French],,Brooks,50.566667,-111.9,CANADA,CA,CAN
Manitoba [English and French],,Brooklands,49.916667,-97.183333,CANADA,CA,CAN
Nova Scotia [English] / Nouvelle-Écosse [French],,Bedford,44.728889,-63.664444,CANADA,CA,CAN
Quebec [English] / Québec [French],,Inoucdjouac,58.45,-78.15,CANADA,CA,CAN
Quebec [English] / Québec [French],,Port Harrison,58.45,-78.15,CANADA,CA,CAN
British Columbia [English] / Colombie-Britannique [French],,Fraser Lake,54.05,-124.783333,CANADA,CA,CAN
Ontario [English and French],,Fraserdale,49.85,-81.616667,CANADA,CA,CAN
British Columbia [English] / Colombie-Britannique [French],,Fraser,59.716667,-135.05,CANADA,CA,CAN
Ontario [English and French],,Franz,48.466667,-84.416667,CANADA,CA,CAN
British Columbia [English] / Colombie-Britannique [French],,Eholt,49.15,-118.566667,CANADA,CA,CAN
Alberta [English and French],,Egremont,54.033333,-113.116667,CANADA,CA,CAN
Newfoundland and Labrador [English] / Terre Neuve-et-Labrador [French],,Summerford,49.483333,-54.833333,CANADA,CA,CAN
Ontario [English and French],,Sultan,47.583333,-82.766667,CANADA,CA,CAN
Saskatchewan [English and French],,Ogema,49.566667,-104.916667,CANADA,CA,CAN
Newfoundland and Labrador [English] / Terre Neuve-et-Labrador [French],,Oderin,47.283333,-54.816667,CANADA,CA,CAN
Manitoba [English and French],,Ochre River,51.05,-99.783333,CANADA,CA,CAN
British Columbia [English] / Colombie-Britannique [French],,Ceepeecee,49.866667,-126.7,CANADA,CA,CAN
Quebec [English] / Québec [French],,Cedars,45.316667,-74.05,CANADA,CA,CAN
Alberta [English and French],,Cayley,50.45,-113.85,CANADA,CA,CAN
Alberta [English and French],,Cavendish,50.816667,-110.466667,CANADA,CA,CAN
Newfoundland and Labrador [English] / Terre Neuve-et-Labrador [French],,Cavendish,47.716667,-53.5,CANADA,CA,CAN
Quebec [English] / Québec [French],,Causapscal,48.35,-67.216667,CANADA,CA,CAN
Quebec [English] / Québec [French],,Caughnawaga,45.416667,-73.683333,CANADA,CA,CAN
Newfoundland and Labrador [English] / Terre Neuve-et-Labrador [French],,Little Bay Island,49.633333,-55.8,CANADA,CA,CAN
Ontario [English and French],,Wallaceburg,42.583333,-82.366667,CANADA,CA,CAN
Nova Scotia [English] / Nouvelle-Écosse [French],,Wallace Bay,45.833333,-63.583333,CANADA,CA,CAN
Nova Scotia [English] / Nouvelle-Écosse [French],,Wallace,45.8,-63.466667,CANADA,CA,CAN
Yukon [English and French],,Teslin Crossing,61.25,-134.616667,CANADA,CA,CAN
Newfoundland and Labrador [English] / Terre Neuve-et-Labrador [French],,Terenceville,47.683333,-54.716667,CANADA,CA,CAN
Newfoundland and Labrador [English] / Terre Neuve-et-Labrador [French],,Terrenceville,47.683333,-54.716667,CANADA,CA,CAN
Newfoundland and Labrador [English] / Terre Neuve-et-Labrador [French],,Terra Nova,48.5,-54.216667,CANADA,CA,CAN
British Columbia [English] / Colombie-Britannique [French],,Terrace,54.5,-128.583333,CANADA,CA,CAN
Ontario [English and French],,Sombra,42.716667,-82.483333,CANADA,CA,CAN
Nova Scotia [English] / Nouvelle-Écosse [French],,Soldiers Cove,45.7,-60.733333,CANADA,CA,CAN
Nova Scotia [English] / Nouvelle-Écosse [French],,Soldier Cove,45.7,-60.733333,CANADA,CA,CAN
British Columbia [English] / Colombie-Britannique [French],,Sointula,50.633333,-127.016667,CANADA,CA,CAN
Newfoundland and Labrador [English] / Terre Neuve-et-Labrador [French],,Snug Harbour,52.9,-55.85,CANADA,CA,CAN
Northwest Territories [English] / Territoires du Nord-Ouest [French],,Snowdrift,62.4,-110.733333,CANADA,CA,CAN
Northwest Territories [English] / Territoires du Nord-Ouest [French],,Łutselk’e,62.4,-110.733333,CANADA,CA,CAN
Quebec [English] / Québec [French],,Saint-Stanislas-de-Kostka,45.166667,-74.133333,CANADA,CA,CAN
Quebec [English] / Québec [French],,Saint-Stanislas,49,-72.166667,CANADA,CA,CAN
Quebec [English] / Québec [French],,Saint-Paul-du-Nord,48.566667,-69.233333,CANADA,CA,CAN
Alberta [English and French],,Saint Paul,53.983333,-111.283333,CANADA,CA,CAN
Alberta [English and French],,Saint Paul des Metis,53.983333,-111.283333,CANADA,CA,CAN
New Brunswick [English] / Nouveau-Brunswick [French],,Richardson,45,-66.933333,CANADA,CA,CAN
Ontario [English and French],,Wyoming,42.95,-82.116667,CANADA,CA,CAN
Saskatchewan [English and French],,Wymark,50.116667,-107.733333,CANADA,CA,CAN
Ontario [English and French],,Wyebridge,44.683333,-79.883333,CANADA,CA,CAN
Saskatchewan [English and French],,Wroxton,51.216667,-101.883333,CANADA,CA,CAN
Ontario [English and French],,Redwater Station,46.9,-79.633333,CANADA,CA,CAN
Ontario [English and French],,Redwater,46.9,-79.633333,CANADA,CA,CAN
Saskatchewan [English and French],,Redvers,49.566667,-101.7,CANADA,CA,CAN
British Columbia [English] / Colombie-Britannique [French],,Redstone,52.133333,-123.7,CANADA,CA,CAN
British Columbia [English] / Colombie-Britannique [French],,Redroofs,49.5,-123.916667,CANADA,CA,CAN
British Columbia [English] / Colombie-Britannique [French],,Red Rock,53.666667,-122.65,CANADA,CA,CAN
Ontario [English and French],,Red Rock,48.95,-88.283333,CANADA,CA,CAN
Newfoundland and Labrador [English] / Terre Neuve-et-Labrador [French],,Red Point,53.483333,-55.9,CANADA,CA,CAN
British Columbia [English] / Colombie-Britannique [French],,Red Pass,52.983333,-119.516667,CANADA,CA,CAN
British Columbia [English] / Colombie-Britannique [French],,Red Pass Junction,52.983333,-119.516667,CANADA,CA,CAN
British Columbia [English] / Colombie-Britannique [French],,Wistaria,53.833333,-126.283333,CANADA,CA,CAN
Saskatchewan [English and French],,Wishart,51.55,-103.966667,CANADA,CA,CAN
Newfoundland and Labrador [English] / Terre Neuve-et-Labrador [French],,Winterton,47.966667,-53.333333,CANADA,CA,CAN
Alberta [English and French],,Bergen,51.7,-114.633333,CANADA,CA,CAN
Manitoba [English and French],,Berens River,52.366667,-97.033333,CANADA,CA,CAN
Alberta [English and French],,Hardisty,52.683333,-111.3,CANADA,CA,CAN
Manitoba [English and French],,Harcus,50.7,-98.866667,CANADA,CA,CAN
Newfoundland and Labrador [English] / Terre Neuve-et-Labrador [French],,Harbour Main,47.433333,-53.166667,CANADA,CA,CAN
Newfoundland and Labrador [English] / Terre Neuve-et-Labrador [French],,Harbour Buffett,47.533333,-54.1,CANADA,CA,CAN
Newfoundland and Labrador [English] / Terre Neuve-et-Labrador [French],,Harbour Buffet,47.533333,-54.1,CANADA,CA,CAN
Newfoundland and Labrador [English] / Terre Neuve-et-Labrador [French],,Harbour Breton,47.483333,-55.833333,CANADA,CA,CAN
Nova Scotia [English] / Nouvelle-Écosse [French],,Hantsport,45.066667,-64.183333,CANADA,CA,CAN
Saskatchewan [English and French],,Outram Station,49.133333,-103.316667,CANADA,CA,CAN
Newfoundland and Labrador [English] / Terre Neuve-et-Labrador [French],,Gambo,48.783333,-54.216667,CANADA,CA,CAN
Ontario [English and French],,Galt,43.35,-80.3,CANADA,CA,CAN
British Columbia [English] / Colombie-Britannique [French],,Galbraith,59.533333,-132.083333,CANADA,CA,CAN
British Columbia [English] / Colombie-Britannique [French],,Natal,49.733333,-114.85,CANADA,CA,CAN
British Columbia [English] / Colombie-Britannique [French],,Nass Harbour,54.933333,-129.933333,CANADA,CA,CAN
Quebec [English] / Québec [French],,Metabechuoan,48.433333,-71.866667,CANADA,CA,CAN
Quebec [English] / Québec [French],,Metabetchouan,48.433333,-71.866667,CANADA,CA,CAN
Quebec [English] / Québec [French],,Messines,46.233333,-76.016667,CANADA,CA,CAN
Quebec [English] / Québec [French],,Burbidge,46.233333,-76.016667,CANADA,CA,CAN
Saskatchewan [English and French],,Buchanan,51.7,-102.75,CANADA,CA,CAN
Ontario [English and French],,Delamere,46.166667,-80.7,CANADA,CA,CAN
Ontario [English and French],,Delamare,46.166667,-80.7,CANADA,CA,CAN
Nova Scotia [English] / Nouvelle-Écosse [French],,Delaire,48.816667,-64.45,CANADA,CA,CAN
Saskatchewan [English and French],,Mendham,50.766667,-109.666667,CANADA,CA,CAN
Yukon [English and French],,Mendenhall Landing,60.766667,-136.016667,CANADA,CA,CAN
Nova Scotia [English] / Nouvelle-Écosse [French],,Woods Harbour,43.516667,-65.733333,CANADA,CA,CAN
Nova Scotia [English] / Nouvelle-Écosse [French],,Lower Wood Harbour,43.516667,-65.733333,CANADA,CA,CAN
Nova Scotia [English] / Nouvelle-Écosse [French],,Lower Woods Harbour,43.516667,-65.733333,CANADA,CA,CAN
Saskatchewan [English and French],,Bélanger,55.783333,-106.216667,CANADA,CA,CAN
Alberta [English and French],,Beiseker,51.383333,-113.533333,CANADA,CA,CAN
Ontario [English and French],,Amesdale,50.016667,-92.933333,CANADA,CA,CAN
Saskatchewan [English and French],,Amazon,51.55,-105.466667,CANADA,CA,CAN
Ontario [English and French],,Frater,47.333333,-84.55,CANADA,CA,CAN
Ontario [English and French],,Elsas,48.516667,-82.916667,CANADA,CA,CAN
Yukon [English and French],,Elsa,63.916667,-135.483333,CANADA,CA,CAN
Ontario [English and French],,Elora,43.683333,-80.433333,CANADA,CA,CAN
Ontario [English and French],,Eloida,44.683333,-75.966667,CANADA,CA,CAN
Nova Scotia [English] / Nouvelle-Écosse [French],,Elmsdale,44.966667,-63.516667,CANADA,CA,CAN
Ontario [English and French],,Elmira,43.6,-80.55,CANADA,CA,CAN
Manitoba [English and French],,Elma,49.866667,-95.916667,CANADA,CA,CAN
British Columbia [English] / Colombie-Britannique [French],,Nadu River,53.85,-132.116667,CANADA,CA,CAN
British Columbia [English] / Colombie-Britannique [French],,Nadu,53.85,-132.116667,CANADA,CA,CAN
British Columbia [English] / Colombie-Britannique [French],,Nadina River,53.966667,-126.516667,CANADA,CA,CAN
Newfoundland and Labrador [English] / Terre Neuve-et-Labrador [French],,Nachvak,59.066667,-63.883333,CANADA,CA,CAN
Ontario [English and French],,Poplar Hill,52.1,-94.3,CANADA,CA,CAN
Ontario [English and French],,Pontypool,44.1,-78.633333,CANADA,CA,CAN
Ontario [English and French],,Pentypool,44.1,-78.633333,CANADA,CA,CAN
Quebec [English] / Québec [French],,Pont-Viau,45.55,-73.666667,CANADA,CA,CAN
Yukon [English and French],,Dawson City,64.066667,-139.416667,CANADA,CA,CAN
Yukon [English and French],,Dawson,64.066667,-139.416667,CANADA,CA,CAN
Newfoundland and Labrador [English] / Terre Neuve-et-Labrador [French],,Davis Inlet,55.85,-60.866667,CANADA,CA,CAN
Saskatchewan [English and French],,Davidson,51.266667,-105.966667,CANADA,CA,CAN
Manitoba [English and French],,Dauphin,51.15,-100.05,CANADA,CA,CAN
Quebec [English] / Québec [French],,McMasterville,45.55,-73.233333,CANADA,CA,CAN
Quebec [English] / Québec [French],,Chibougamau,49.866667,-74.35,CANADA,CA,CAN
Nova Scotia [English] / Nouvelle-Écosse [French],,Chiverie,45.15,-64.166667,CANADA,CA,CAN
Nova Scotia [English] / Nouvelle-Écosse [French],,Chèverie,45.15,-64.166667,CANADA,CA,CAN
Quebec [English] / Québec [French],,Chesterville,45.966667,-71.816667,CANADA,CA,CAN
Nova Scotia [English] / Nouvelle-Écosse [French],,Chester,44.533333,-64.233333,CANADA,CA,CAN
Ontario [English and French],,Chesley,44.3,-81.1,CANADA,CA,CAN
British Columbia [English] / Colombie-Britannique [French],,Knight Inlet,50.683333,-125.7,CANADA,CA,CAN
British Columbia [English] / Colombie-Britannique [French],,Kiokh,50.683333,-125.7,CANADA,CA,CAN
British Columbia [English] / Colombie-Britannique [French],,Glendale Cove,50.683333,-125.7,CANADA,CA,CAN
Newfoundland and Labrador [English] / Terre Neuve-et-Labrador [French],,Point Crewe,46.95,-55.983333,CANADA,CA,CAN
Newfoundland and Labrador [English] / Terre Neuve-et-Labrador [French],,Point au Mall,48.65,-58.65,CANADA,CA,CAN
Newfoundland and Labrador [English] / Terre Neuve-et-Labrador [French],,Point-a-Mal,48.65,-58.65,CANADA,CA,CAN
Newfoundland and Labrador [English] / Terre Neuve-et-Labrador [French],,Point au Mal,48.65,-58.65,CANADA,CA,CAN
New Brunswick [English] / Nouveau-Brunswick [French],,Pocologan,45.133333,-66.583333,CANADA,CA,CAN
Alberta [English and French],,Innisfail,52.033333,-113.95,CANADA,CA,CAN
New Brunswick [English] / Nouveau-Brunswick [French],,Inkerman,47.666667,-64.833333,CANADA,CA,CAN
Nova Scotia [English] / Nouvelle-Écosse [French],,Ingramport,44.666667,-63.95,CANADA,CA,CAN
Quebec [English] / Québec [French],,Bromptonville,45.466667,-71.933333,CANADA,CA,CAN
Saskatchewan [English and French],,Broderick,51.483333,-106.933333,CANADA,CA,CAN
Ontario [English and French],,Brockville,44.583333,-75.683333,CANADA,CA,CAN
Alberta [English and French],,Brocket,49.55,-113.766667,CANADA,CA,CAN
Saskatchewan [English and French],,Broadview,50.383333,-102.566667,CANADA,CA,CAN
Quebec [English] / Québec [French],,Broadlands,48,-66.766667,CANADA,CA,CAN
Quebec [English] / Québec [French],,Uniacke,48.416667,-77.516667,CANADA,CA,CAN
Ontario [English and French],,Shillington,48.533333,-80.683333,CANADA,CA,CAN
Ontario [English and French],,Sheshegwaning,45.9,-82.833333,CANADA,CA,CAN
Alberta [English and French],,Sherwood Park,53.516667,-113.316667,CANADA,CA,CAN
Manitoba [English and French],,Sherridon,55.116667,-101.083333,CANADA,CA,CAN
Yukon [English and French],,Herschel Island,69.566667,-138.9,CANADA,CA,CAN
Yukon [English and French],,Herschel,69.566667,-138.9,CANADA,CA,CAN
Saskatchewan [English and French],,Herschel,51.633333,-108.35,CANADA,CA,CAN
Newfoundland and Labrador [English] / Terre Neuve-et-Labrador [French],,Herring Neck,49.616667,-54.583333,CANADA,CA,CAN
Newfoundland and Labrador [English] / Terre Neuve-et-Labrador [French],,Hermitage,47.55,-55.933333,CANADA,CA,CAN
Manitoba [English and French],,Herb Lake,54.783333,-99.783333,CANADA,CA,CAN
British Columbia [English] / Colombie-Britannique [French],,Smithers,54.766667,-127.166667,CANADA,CA,CAN
Quebec [English] / Québec [French],,Saint-Pascal,47.516667,-69.816667,CANADA,CA,CAN
Quebec [English] / Québec [French],,Saint-Ours,45.883333,-73.15,CANADA,CA,CAN
Quebec [English] / Québec [French],,Saint-Onésime,47.333333,-69.983333,CANADA,CA,CAN
Quebec [English] / Québec [French],,Saint-Noël,48.583333,-67.833333,CANADA,CA,CAN
Quebec [English] / Québec [French],,Saint-Nérée,46.716667,-70.716667,CANADA,CA,CAN
Quebec [English] / Québec [French],,Saint-Nazaire,48.583333,-71.55,CANADA,CA,CAN
Quebec [English] / Québec [French],,Saint-Narcisse,46.55,-72.466667,CANADA,CA,CAN
Quebec [English] / Québec [French],,Saint-Michel-des-Saints,46.666667,-73.916667,CANADA,CA,CAN
Quebec [English] / Québec [French],,Saint-Michel,46.866667,-70.916667,CANADA,CA,CAN
Nunavut [English and French],,Qausuittuq,74.683333,-94.9,CANADA,CA,CAN
Nunavut [English and French],,Resolute,74.683333,-94.9,CANADA,CA,CAN
Saskatchewan [English and French],,Reserve,52.466667,-102.65,CANADA,CA,CAN
New Brunswick [English] / Nouveau-Brunswick [French],,Renous,46.816667,-65.8,CANADA,CA,CAN
Manitoba [English and French],,Rennie,49.85,-95.55,CANADA,CA,CAN
Ontario [English and French],,Woodbridge,43.783333,-79.6,CANADA,CA,CAN
Ontario [English and French],,Victoria Harbour,44.75,-79.766667,CANADA,CA,CAN
Newfoundland and Labrador [English] / Terre Neuve-et-Labrador [French],,Victoria Cove,49.35,-54.516667,CANADA,CA,CAN
Manitoba [English and French],,Victoria Beach,50.7,-96.55,CANADA,CA,CAN
British Columbia [English] / Colombie-Britannique [French],,Victoria,48.433333,-123.35,CANADA,CA,CAN
Nunavut [English and French],,Tavane,62.05,-93.1,CANADA,CA,CAN
Nunavut [English and French],,Tavani,62.05,-93.1,CANADA,CA,CAN
British Columbia [English] / Colombie-Britannique [French],,Tatlayoko Lake,51.65,-124.383333,CANADA,CA,CAN
British Columbia [English] / Colombie-Britannique [French],,Tatlayoka Lake,51.65,-124.383333,CANADA,CA,CAN
Ontario [English and French],,Tamworth,44.466667,-76.983333,CANADA,CA,CAN
Alberta [English and French],,Smith,55.166667,-114.033333,CANADA,CA,CAN
Alberta [English and French],,Mirror Landing,55.166667,-114.033333,CANADA,CA,CAN
British Columbia [English] / Colombie-Britannique [French],,Slocan,49.766667,-117.466667,CANADA,CA,CAN
New Brunswick [English] / Nouveau-Brunswick [French],,Saint Louis de Kent,46.733333,-64.966667,CANADA,CA,CAN
New Brunswick [English] / Nouveau-Brunswick [French],,Saint Louis,46.733333,-64.966667,CANADA,CA,CAN
Saskatchewan [English and French],,Saint Louis,52.916667,-105.8,CANADA,CA,CAN
Quebec [English] / Québec [French],,Saint-Lin,45.85,-73.766667,CANADA,CA,CAN
Quebec [English] / Québec [French],,Saint-Léon-de-Standon,46.483333,-70.616667,CANADA,CA,CAN
Quebec [English] / Québec [French],,Saint-Léonard,45.583333,-73.6,CANADA,CA,CAN
Quebec [English] / Québec [French],,Saint-Léon,48.666667,-71.516667,CANADA,CA,CAN
Manitoba [English and French],,Saint Lazare,50.45,-101.3,CANADA,CA,CAN
Manitoba [English and French],,Lazare,50.45,-101.3,CANADA,CA,CAN
Quebec [English] / Québec [French],,Saint-Lazare,46.65,-70.8,CANADA,CA,CAN
Manitoba [English and French],,Saint-Laurent,50.416667,-97.95,CANADA,CA,CAN
Newfoundland and Labrador [English] / Terre Neuve-et-Labrador [French],,Saint Kyrans,47.433333,-54.466667,CANADA,CA,CAN
Quebec [English] / Québec [French],,Saint-Justin,46.25,-73.083333,CANADA,CA,CAN
Newfoundland and Labrador [English] / Terre Neuve-et-Labrador [French],,Saint Julien’s,51.083333,-55.783333,CANADA,CA,CAN
Newfoundland and Labrador [English] / Terre Neuve-et-Labrador [French],,Saint Julien,51.083333,-55.783333,CANADA,CA,CAN
Newfoundland and Labrador [English] / Terre Neuve-et-Labrador [French],,Saint Julian’s,51.083333,-55.783333,CANADA,CA,CAN
Newfoundland and Labrador [English] / Terre Neuve-et-Labrador [French],,Saint Joseph Harbour,47.383333,-54.783333,CANADA,CA,CAN
Newfoundland and Labrador [English] / Terre Neuve-et-Labrador [French],,Gallows,47.383333,-54.783333,CANADA,CA,CAN
Newfoundland and Labrador [English] / Terre Neuve-et-Labrador [French],,Saint Josephs,47.383333,-54.783333,CANADA,CA,CAN
Newfoundland and Labrador [English] / Terre Neuve-et-Labrador [French],,Saint Josephs,47.116667,-53.516667,CANADA,CA,CAN
Saskatchewan [English and French],,Wolseley,50.416667,-103.266667,CANADA,CA,CAN
Ontario [English and French],,Silver Islet,48.333333,-88.816667,CANADA,CA,CAN
Newfoundland and Labrador [English] / Terre Neuve-et-Labrador [French],,Silverdale,49.683333,-55.983333,CANADA,CA,CAN
Prince Edward Island [English] / Île-du-Prince-Édouard [French],,Victoria,46.216667,-63.483333,CANADA,CA,CAN
Saskatchewan [English and French],,Verwood,49.516667,-105.616667,CANADA,CA,CAN
Ontario [English and French],,Verona,44.483333,-76.683333,CANADA,CA,CAN
Prince Edward Island [English] / Île-du-Prince-Édouard [French],,Vernon River,46.2,-62.833333,CANADA,CA,CAN
Quebec [English] / Québec [French],,Saint-Félix-de-Valois,46.166667,-73.416667,CANADA,CA,CAN
Quebec [English] / Québec [French],,Saint-Fabien,48.283333,-68.866667,CANADA,CA,CAN
Quebec [English] / Québec [French],,Saint-Eustache-sur-le-Lac,45.533333,-73.883333,CANADA,CA,CAN
Quebec [English] / Québec [French],,Deux-Montagnes,45.533333,-73.883333,CANADA,CA,CAN
Quebec [English] / Québec [French],,Saint-Eusèbe,47.533333,-68.916667,CANADA,CA,CAN
Quebec [English] / Québec [French],,Saint-Étienne,46.65,-71.3,CANADA,CA,CAN
Quebec [English] / Québec [French],,Sainte-Thérèse-de-Blainville,45.633333,-73.85,CANADA,CA,CAN
Quebec [English] / Québec [French],,Sainte-Thérèse,45.633333,-73.85,CANADA,CA,CAN
Manitoba [English and French],,Sainte-Rose-du-Lac,51.05,-99.533333,CANADA,CA,CAN
Saskatchewan [English and French],,Outlook,51.5,-107.05,CANADA,CA,CAN
Ontario [English and French],,Ouimet,48.75,-88.583333,CANADA,CA,CAN
Ontario [English and French],,Otter Lake,45.3,-79.933333,CANADA,CA,CAN
Quebec [English] / Québec [French],,Chomedey,45.55,-73.733333,CANADA,CA,CAN
Quebec [English] / Québec [French],,Abord â Plouffe,45.55,-73.733333,CANADA,CA,CAN
Alberta [English and French],,Chisholm Mills,54.916667,-114.166667,CANADA,CA,CAN
Alberta [English and French],,Chisholm,54.916667,-114.166667,CANADA,CA,CAN
Alberta [English and French],,Chipman,53.7,-112.633333,CANADA,CA,CAN
Alberta [English and French],,Chip Lake,53.616667,-115.45,CANADA,CA,CAN
Saskatchewan [English and French],,Bruno,52.266667,-105.516667,CANADA,CA,CAN
Ontario [English and French],,Brûlé Lake Station,45.633333,-78.816667,CANADA,CA,CAN
Ontario [English and French],,Brûlé Lake,45.633333,-78.816667,CANADA,CA,CAN
Ontario [English and French],,Bruce Mines,46.283333,-83.783333,CANADA,CA,CAN
Nova Scotia [English] / Nouvelle-Écosse [French],,Isaacs Harbour,45.183333,-61.666667,CANADA,CA,CAN
British Columbia [English] / Colombie-Britannique [French],,Irvines Landing,49.616667,-124.033333,CANADA,CA,CAN
Alberta [English and French],,Irricana,51.316667,-113.616667,CANADA,CA,CAN
Alberta [English and French],,Irma,52.916667,-111.233333,CANADA,CA,CAN
Ontario [English and French],,Port Credit,43.55,-79.583333,CANADA,CA,CAN
Quebec [English] / Québec [French],,Beebe Plain,45.016667,-72.15,CANADA,CA,CAN
Quebec [English] / Québec [French],,Beebe,45.016667,-72.15,CANADA,CA,CAN
British Columbia [English] / Colombie-Britannique [French],,Bednesti,53.866667,-123.083333,CANADA,CA,CAN
British Columbia [English] / Colombie-Britannique [French],,Halcyon,50.516667,-117.9,CANADA,CA,CAN
British Columbia [English] / Colombie-Britannique [French],,Halcyon Hot Springs,50.516667,-117.9,CANADA,CA,CAN
Yukon [English and French],,Haines Junction,60.75,-137.5,CANADA,CA,CAN
British Columbia [English] / Colombie-Britannique [French],,Haida,53.333333,-131.95,CANADA,CA,CAN
British Columbia [English] / Colombie-Britannique [French],,Hagensborg,52.383333,-126.566667,CANADA,CA,CAN
Saskatchewan [English and French],,Hafford,52.716667,-107.35,CANADA,CA,CAN
Saskatchewan [English and French],,Frobisher,49.2,-102.416667,CANADA,CA,CAN
Newfoundland and Labrador [English] / Terre Neuve-et-Labrador [French],,Open Hole,48.55,-53.483333,CANADA,CA,CAN
Newfoundland and Labrador [English] / Terre Neuve-et-Labrador [French],,Open Hall,48.55,-53.483333,CANADA,CA,CAN
Saskatchewan [English and French],,Meath Park,53.45,-105.366667,CANADA,CA,CAN
Nova Scotia [English] / Nouvelle-Écosse [French],,Meagher Grant,44.916667,-63.233333,CANADA,CA,CAN
Nova Scotia [English] / Nouvelle-Écosse [French],,Meaghers Grant,44.916667,-63.233333,CANADA,CA,CAN
Saskatchewan [English and French],,Meadow Lake,54.129722,-108.434722,CANADA,CA,CAN
New Brunswick [English] / Nouveau-Brunswick [French],,Plaster Rock,46.9,-67.383333,CANADA,CA,CAN
Newfoundland and Labrador [English] / Terre Neuve-et-Labrador [French],,Placentia,47.233333,-53.966667,CANADA,CA,CAN
Ontario [English and French],,Pittsburgh,44.333333,-76.333333,CANADA,CA,CAN
Quebec [English] / Québec [French],,Longueuil,45.533333,-73.516667,CANADA,CA,CAN
Quebec [English] / Québec [French],,Longue-Pointe-de-Mingan,50.266667,-64.15,CANADA,CA,CAN
Quebec [English] / Québec [French],,Longue-Pointe,45.583333,-73.516667,CANADA,CA,CAN
Quebec [English] / Québec [French],,Long Point,45.583333,-73.516667,CANADA,CA,CAN
Ontario [English and French],,Long Sault,45.033333,-74.9,CANADA,CA,CAN
Saskatchewan [English and French],,Broadacres,52.05,-108.966667,CANADA,CA,CAN
Ontario [English and French],,Britt,45.783333,-80.533333,CANADA,CA,CAN
British Columbia [English] / Colombie-Britannique [French],,Britannia Beach,49.633333,-123.183333,CANADA,CA,CAN
Ontario [English and French],,Britannia,45.366667,-75.8,CANADA,CA,CAN
Newfoundland and Labrador [English] / Terre Neuve-et-Labrador [French],,Brigus,47.516667,-53.216667,CANADA,CA,CAN
British Columbia [English] / Colombie-Britannique [French],,Beaver Cove,50.533333,-126.866667,CANADA,CA,CAN
New Brunswick [English] / Nouveau-Brunswick [French],,Beaver Brook Station,47.116667,-65.6,CANADA,CA,CAN
Saskatchewan [English and French],,Lac-la-Plonge,55.15,-107.616667,CANADA,CA,CAN
Saskatchewan [English and French],,La Plonge,55.15,-107.616667,CANADA,CA,CAN
Saskatchewan [English and French],,Beauval,55.15,-107.616667,CANADA,CA,CAN
Saskatchewan [English and French],,Beaual,55.15,-107.616667,CANADA,CA,CAN
Alberta [English and French],,Pocahontas,53.2,-117.916667,CANADA,CA,CAN
Saskatchewan [English and French],,Plunkett,51.9,-105.45,CANADA,CA,CAN
Ontario [English and French],,Wilberforce,45.033333,-78.216667,CANADA,CA,CAN
Yukon [English and French],,Wigan,60.65,-135,CANADA,CA,CAN
British Columbia [English] / Colombie-Britannique [French],,Ucluelet,48.933333,-125.516667,CANADA,CA,CAN
British Columbia [English] / Colombie-Britannique [French],,Surprise,59.616667,-133.416667,CANADA,CA,CAN
British Columbia [English] / Colombie-Britannique [French],,Pavilion,50.866667,-121.833333,CANADA,CA,CAN
Northwest Territories [English] / Territoires du Nord-Ouest [French],,Paulatuk,69.383333,-123.983333,CANADA,CA,CAN
Newfoundland and Labrador [English] / Terre Neuve-et-Labrador [French],,Colinet,47.216667,-53.566667,CANADA,CA,CAN
Saskatchewan [English and French],,Coleville,51.7,-109.233333,CANADA,CA,CAN
Prince Edward Island [English] / Île-du-Prince-Édouard [French],,Coleman,46.683333,-64.183333,CANADA,CA,CAN
British Columbia [English] / Colombie-Britannique [French],,Colebrook,49.1,-122.866667,CANADA,CA,CAN
Ontario [English and French],,Coldwater,44.716667,-79.816667,CANADA,CA,CAN
Ontario [English and French],,Colchester,41.983333,-82.933333,CANADA,CA,CAN
Quebec [English] / Québec [French],,L’Ascension,48.683333,-71.666667,CANADA,CA,CAN
Quebec [English] / Québec [French],,Langlais,48.683333,-71.666667,CANADA,CA,CAN
Quebec [English] / Québec [French],,La Sarre,48.8,-79.2,CANADA,CA,CAN
Manitoba [English and French],,La Salle,49.683333,-97.266667,CANADA,CA,CAN
Nova Scotia [English] / Nouvelle-Écosse [French],,Larrys River,45.216667,-61.366667,CANADA,CA,CAN
Nova Scotia [English] / Nouvelle-Écosse [French],,Larry River,45.216667,-61.366667,CANADA,CA,CAN
Newfoundland and Labrador [English] / Terre Neuve-et-Labrador [French],,Lark Harbour,49.1,-58.366667,CANADA,CA,CAN
Manitoba [English and French],,Saint James,49.9,-97.25,CANADA,CA,CAN
Newfoundland and Labrador [English] / Terre Neuve-et-Labrador [French],,Saint-Jacques,47.5,-55.45,CANADA,CA,CAN
Quebec [English] / Québec [French],,Saint-Isidore d’Auckland,45.266667,-71.516667,CANADA,CA,CAN
Quebec [English] / Québec [French],,Saint Isidore,45.266667,-71.516667,CANADA,CA,CAN
Quebec [English] / Québec [French],,Saint-Irénée,47.566667,-70.2,CANADA,CA,CAN
Quebec [English] / Québec [French],,Saint-Hubert,47.8,-69.15,CANADA,CA,CAN
Quebec [English] / Québec [French],,Saint-Hubert-de-Témiscouata,47.8,-69.15,CANADA,CA,CAN
Quebec [English] / Québec [French],,Saint-Honoré-de-Témiscouata,47.716667,-69.133333,CANADA,CA,CAN
Quebec [English] / Québec [French],,Saint-Honoré,47.716667,-69.133333,CANADA,CA,CAN
Quebec [English] / Québec [French],,Saint Hilarion,47.566667,-70.4,CANADA,CA,CAN
Quebec [English] / Québec [French],,Saint Hilaire Village,45.566667,-73.2,CANADA,CA,CAN
Quebec [English] / Québec [French],,Saint-Hilaire,45.566667,-73.2,CANADA,CA,CAN
Quebec [English] / Québec [French],,Saint-Henri,46.683333,-71.066667,CANADA,CA,CAN
Quebec [English] / Québec [French],,Saint-Henri-de-Lévis,46.683333,-71.066667,CANADA,CA,CAN
Alberta [English and French],,Raymond,49.466667,-112.666667,CANADA,CA,CAN
Ontario [English and French],,Ravensworth,45.6,-79.1,CANADA,CA,CAN
Manitoba [English and French],,Vassar,49.1,-95.833333,CANADA,CA,CAN
Alberta [English and French],,Sylvan Lake,52.3,-114.083333,CANADA,CA,CAN
Nova Scotia [English] / Nouvelle-Écosse [French],,Sydney River,46.116667,-60.216667,CANADA,CA,CAN
Nova Scotia [English] / Nouvelle-Écosse [French],,Sydney Mines,46.233333,-60.216667,CANADA,CA,CAN
Nova Scotia [English] / Nouvelle-Écosse [French],,Sidney Mines,46.233333,-60.216667,CANADA,CA,CAN
Nova Scotia [English] / Nouvelle-Écosse [French],,Sidney,46.15,-60.166667,CANADA,CA,CAN
Nova Scotia [English] / Nouvelle-Écosse [French],,Sydney,46.15,-60.166667,CANADA,CA,CAN
Quebec [English] / Québec [French],,Saint-Germain-de-Grantham,45.833333,-72.566667,CANADA,CA,CAN
British Columbia [English] / Colombie-Britannique [French],,Shushartie,50.85,-127.85,CANADA,CA,CAN
Nova Scotia [English] / Nouvelle-Écosse [French],,Shenacadle,46.016667,-60.65,CANADA,CA,CAN
Nova Scotia [English] / Nouvelle-Écosse [French],,Shenacadie,46.016667,-60.65,CANADA,CA,CAN
Nova Scotia [English] / Nouvelle-Écosse [French],,Shunacadie,46.016667,-60.65,CANADA,CA,CAN
Nova Scotia [English] / Nouvelle-Écosse [French],,Shubenacadie,45.083333,-63.4,CANADA,CA,CAN
Quebec [English] / Québec [French],,Sainte-Rose-du-Dégelé,47.55,-68.65,CANADA,CA,CAN
Quebec [English] / Québec [French],,Sainte-Rose,45.616667,-73.783333,CANADA,CA,CAN
Quebec [English] / Québec [French],,Sainte-Rosalie,45.65,-72.9,CANADA,CA,CAN
Quebec [English] / Québec [French],,Sainte-Martine,45.233333,-73.8,CANADA,CA,CAN
Newfoundland and Labrador [English] / Terre Neuve-et-Labrador [French],,Rattling Brook,49.616667,-56.183333,CANADA,CA,CAN
Saskatchewan [English and French],,Krydor,52.783333,-107.066667,CANADA,CA,CAN
Saskatchewan [English and French],,Fox Valley,50.466667,-109.483333,CANADA,CA,CAN
Manitoba [English and French],,Elgin,49.433333,-100.266667,CANADA,CA,CAN
New Brunswick [English] / Nouveau-Brunswick [French],,Elgin,45.8,-65.116667,CANADA,CA,CAN
Saskatchewan [English and French],,Elbow,51.116667,-106.6,CANADA,CA,CAN
Nova Scotia [English] / Nouvelle-Écosse [French],,Port Clyde,43.6,-65.466667,CANADA,CA,CAN
Quebec [English] / Québec [French],,Shelter Bay,50.016667,-66.866667,CANADA,CA,CAN
Quebec [English] / Québec [French],,Port-Cartier,50.016667,-66.866667,CANADA,CA,CAN
Quebec [English] / Québec [French],,Port-Cariter-Ouest,50.016667,-66.866667,CANADA,CA,CAN
Nunavut [English and French],,Burwell,60.416667,-64.816667,CANADA,CA,CAN
Nunavut [English and French],,Port Burwell,60.416667,-64.816667,CANADA,CA,CAN
Ontario [English and French],,Port Burwell,42.65,-80.816667,CANADA,CA,CAN
Quebec [English] / Québec [French],,Port-au-Saumon,47.766667,-69.95,CANADA,CA,CAN
Newfoundland and Labrador [English] / Terre Neuve-et-Labrador [French],,Port au Port,48.55,-58.733333,CANADA,CA,CAN
Nova Scotia [English] / Nouvelle-Écosse [French],,Portapique,45.4,-63.7,CANADA,CA,CAN
Newfoundland and Labrador [English] / Terre Neuve-et-Labrador [French],,Port Anson,49.533333,-55.833333,CANADA,CA,CAN
Newfoundland and Labrador [English] / Terre Neuve-et-Labrador [French],,Port Albert,49.516667,-54.533333,CANADA,CA,CAN
British Columbia [English] / Colombie-Britannique [French],,Port Alberni,49.233333,-124.8,CANADA,CA,CAN
Manitoba [English and French],,Portage La Prairie,49.966667,-98.3,CANADA,CA,CAN
Alberta [English and French],,Cheadle,51.016667,-113.533333,CANADA,CA,CAN
Alberta [English and French],,Chauvin,52.683333,-110.133333,CANADA,CA,CAN
Ontario [English and French],,Chatsworth,44.45,-80.883333,CANADA,CA,CAN
Ontario [English and French],,Chatham,42.4,-82.183333,CANADA,CA,CAN
Manitoba [English and French],,Chatfield,50.783333,-97.566667,CANADA,CA,CAN
Manitoba [English and French],,Chater,49.866667,-99.916667,CANADA,CA,CAN
Quebec [English] / Québec [French],,Châteauguay Heights,45.383333,-73.75,CANADA,CA,CAN
Quebec [English] / Québec [French],,Châteauguay,45.383333,-73.75,CANADA,CA,CAN
British Columbia [English] / Colombie-Britannique [French],,Ootischenia,49.283333,-117.616667,CANADA,CA,CAN
Quebec [English] / Québec [French],,Beauport,46.85,-71.183333,CANADA,CA,CAN
Quebec [English] / Québec [French],,Beaufort,46.85,-71.183333,CANADA,CA,CAN
Newfoundland and Labrador [English] / Terre Neuve-et-Labrador [French],,Beaumont,49.6,-55.683333,CANADA,CA,CAN
