CountrySubdivision,CountrySubdivisionCode,Municipality,Latitude,Longitude,Country,CountryCode,CountryCode3
Donegal [English] / Dún na nGall [Irish],,Bun Cranncha,55.133333,-7.45,IRELAND,IE,IRL
Donegal [English] / Dún na nGall [Irish],,Buncrana,55.133333,-7.45,IRELAND,IE,IRL
Kerry [English] / Ciarraí [Irish],,Farran,52.190556,-10.429722,IRELAND,IE,IRL
Kerry [English] / Ciarraí [Irish],,Caherbullig,52.1175,-10.403333,IRELAND,IE,IRL
Kerry [English] / Ciarraí [Irish],,Ballylusky,52.194167,-10.359167,IRELAND,IE,IRL
Kerry [English] / Ciarraí [Irish],,Teeravane,52.1575,-10.4425,IRELAND,IE,IRL
Kerry [English] / Ciarraí [Irish],,Feohanagh,52.216111,-10.355556,IRELAND,IE,IRL
Kerry [English] / Ciarraí [Irish],,An Fheothanach,52.216111,-10.355556,IRELAND,IE,IRL
Kerry [English] / Ciarraí [Irish],,Reenconnell,52.184722,-10.315833,IRELAND,IE,IRL
Kerry [English] / Ciarraí [Irish],,Ballinknockane,52.235278,-10.300556,IRELAND,IE,IRL
Kerry [English] / Ciarraí [Irish],,Ballymacquin Upper,52.364722,-9.820556,IRELAND,IE,IRL
Cork [English] / Corcaigh [Irish],,Gallatrim,51.764722,-8.754167,IRELAND,IE,IRL
Cork [English] / Corcaigh [Irish],,Carrigagrenane Cross Roads,51.644722,-9.065556,IRELAND,IE,IRL
Kerry [English] / Ciarraí [Irish],,Carker,52.155556,-9.3825,IRELAND,IE,IRL
Kerry [English] / Ciarraí [Irish],,Cools,51.857778,-10.297222,IRELAND,IE,IRL
Cork [English] / Corcaigh [Irish],,Dromdowney,52.174444,-8.725278,IRELAND,IE,IRL
Cork [English] / Corcaigh [Irish],,Knockansweeny,52.108333,-8.731389,IRELAND,IE,IRL
Cork [English] / Corcaigh [Irish],,Clykeel Leary’s Cross,52.07,-8.218056,IRELAND,IE,IRL
Cork [English] / Corcaigh [Irish],,Togher Bridge,51.776944,-9.170833,IRELAND,IE,IRL
Wexford [English] / Loch Garman [Irish],,Stoneenrath Cross Roads,52.309167,-6.728611,IRELAND,IE,IRL
Cork [English] / Corcaigh [Irish],,Tobernaclougha Cross Roads,52.251944,-9.025278,IRELAND,IE,IRL
Cork [English] / Corcaigh [Irish],,Rossmore,51.679444,-8.990556,IRELAND,IE,IRL
Limerick [English] / Luimneach [Irish],,Caherlane,52.344722,-9.3075,IRELAND,IE,IRL
Cork [English] / Corcaigh [Irish],,Kilmoon,51.47,-9.416389,IRELAND,IE,IRL
Kerry [English] / Ciarraí [Irish],,Lackabaun,51.881389,-9.318333,IRELAND,IE,IRL
Cork [English] / Corcaigh [Irish],,Ballinlegane Cross Roads,51.987222,-8.362222,IRELAND,IE,IRL
Kerry [English] / Ciarraí [Irish],,Glashananinnaun Bridge,51.756944,-9.855,IRELAND,IE,IRL
Cork [English] / Corcaigh [Irish],,Maulmane Bridge,51.691944,-8.721944,IRELAND,IE,IRL
Cork [English] / Corcaigh [Irish],,Glennahulla Cross,52.253056,-8.363611,IRELAND,IE,IRL
Kerry [English] / Ciarraí [Irish],,Cummeen,51.8725,-9.402222,IRELAND,IE,IRL
Cork [English] / Corcaigh [Irish],,Coolclogh,52.136389,-8.956944,IRELAND,IE,IRL
Waterford [English] / Port Láirge [Irish],,Ross Bridge,52.286667,-7.489167,IRELAND,IE,IRL
Cork [English] / Corcaigh [Irish],,Jordan’s Bridge,52.079722,-8.626389,IRELAND,IE,IRL
Limerick [English] / Luimneach [Irish],,Coolygorman,52.363889,-8.996111,IRELAND,IE,IRL
Cork [English] / Corcaigh [Irish],,Ballinoroher,51.646667,-8.834722,IRELAND,IE,IRL
Kerry [English] / Ciarraí [Irish],,Cammeenavrick,51.981667,-9.251944,IRELAND,IE,IRL
Cork [English] / Corcaigh [Irish],,Ballyduvane,51.616944,-8.940278,IRELAND,IE,IRL
Kerry [English] / Ciarraí [Irish],,Fieries,52.208333,-9.428889,IRELAND,IE,IRL
Limerick [English] / Luimneach [Irish],,Tour Bridge,52.368333,-9.144167,IRELAND,IE,IRL
Cork [English] / Corcaigh [Irish],,Larehill Cross Roads,51.879167,-8.858056,IRELAND,IE,IRL
Waterford [English] / Port Láirge [Irish],,Woodhouse Cross Roads,52.079722,-7.799167,IRELAND,IE,IRL
Cork [English] / Corcaigh [Irish],,Thade’s Cross Roads,51.900556,-8.119167,IRELAND,IE,IRL
Cork [English] / Corcaigh [Irish],,Killeagh Cross Roads,51.998889,-8.452222,IRELAND,IE,IRL
Cork [English] / Corcaigh [Irish],,Garrane Cross Roads,52.320278,-8.618611,IRELAND,IE,IRL
Cork [English] / Corcaigh [Irish],,Laragh,52.355,-8.833056,IRELAND,IE,IRL
Kerry [English] / Ciarraí [Irish],,Graigue,52.15,-10.461667,IRELAND,IE,IRL
Cork [English] / Corcaigh [Irish],,Derryvane,51.869444,-9.141111,IRELAND,IE,IRL
Wexford [English] / Loch Garman [Irish],,Cleristown,52.273056,-6.585833,IRELAND,IE,IRL
Cork [English] / Corcaigh [Irish],,Runalunn,51.5875,-9.265556,IRELAND,IE,IRL
Cork [English] / Corcaigh [Irish],,Carrigaclodig Cross Roads,51.922222,-8.897222,IRELAND,IE,IRL
Cork [English] / Corcaigh [Irish],,Butlerstown,51.950556,-8.376111,IRELAND,IE,IRL
Waterford [English] / Port Láirge [Irish],,The Pike,52.126389,-7.561111,IRELAND,IE,IRL
Cork [English] / Corcaigh [Irish],,Ballard,52.215833,-8.188611,IRELAND,IE,IRL
Cork [English] / Corcaigh [Irish],,Driminidy,51.634167,-9.224167,IRELAND,IE,IRL
Waterford [English] / Port Láirge [Irish],,Fox’s Castle Bridge,52.155278,-7.503889,IRELAND,IE,IRL
Kerry [English] / Ciarraí [Irish],,Reen,52.117778,-9.8,IRELAND,IE,IRL
Wexford [English] / Loch Garman [Irish],,Taylorstown Cross Roads,52.266667,-6.799444,IRELAND,IE,IRL
Cork [English] / Corcaigh [Irish],,Dromgarriff,51.990556,-8.540556,IRELAND,IE,IRL
Cork [English] / Corcaigh [Irish],,Kenny’s Cross Roads,52.105278,-8.244722,IRELAND,IE,IRL
Wexford [English] / Loch Garman [Irish],,Rathnageeragh,52.334167,-6.839444,IRELAND,IE,IRL
Cork [English] / Corcaigh [Irish],,Daly’s Cross Roads,52.042222,-8.565556,IRELAND,IE,IRL
Wexford [English] / Loch Garman [Irish],,Boderan Cross Roads,52.264722,-6.916389,IRELAND,IE,IRL
Wexford [English] / Loch Garman [Irish],,Aughboy Bridge,52.324722,-6.885556,IRELAND,IE,IRL
Cork [English] / Corcaigh [Irish],,Ardrah,51.743333,-9.348333,IRELAND,IE,IRL
Cork [English] / Corcaigh [Irish],,Warner’s Cross Roads,51.830556,-8.585278,IRELAND,IE,IRL
Waterford [English] / Port Láirge [Irish],,Ballynaclash,52.017778,-7.8525,IRELAND,IE,IRL
"Laois [English, Irish]",,Drumagh,52.851667,-7.092778,IRELAND,IE,IRL
Kerry [English] / Ciarraí [Irish],,Caherboshina,52.145278,-10.337778,IRELAND,IE,IRL
Kerry [English] / Ciarraí [Irish],,Gweestin Bridge,52.094444,-9.694444,IRELAND,IE,IRL
Cork [English] / Corcaigh [Irish],,Carrahaly,51.865833,-8.787222,IRELAND,IE,IRL
Kerry [English] / Ciarraí [Irish],,Caherbarnagh,51.850833,-10.124722,IRELAND,IE,IRL
Waterford [English] / Port Láirge [Irish],,Lowry’s Bridge,52.285278,-7.384167,IRELAND,IE,IRL
Kerry [English] / Ciarraí [Irish],,Gortbrack,52.230556,-9.65,IRELAND,IE,IRL
Kerry [English] / Ciarraí [Irish],,Gearha,51.9,-9.779722,IRELAND,IE,IRL
Kerry [English] / Ciarraí [Irish],,Cappagh,52.250556,-10.164167,IRELAND,IE,IRL
Cork [English] / Corcaigh [Irish],,Fornaght,51.982222,-8.694444,IRELAND,IE,IRL
Cork [English] / Corcaigh [Irish],,Gowlane North,52.031111,-8.768889,IRELAND,IE,IRL
Cork [English] / Corcaigh [Irish],,Nohavaldaly,52.095833,-9.180556,IRELAND,IE,IRL
Cork [English] / Corcaigh [Irish],,Crooked Bridge,51.563889,-9.413611,IRELAND,IE,IRL
Cork [English] / Corcaigh [Irish],,Garryduff,52.190833,-8.769722,IRELAND,IE,IRL
Cork [English] / Corcaigh [Irish],,Kean Bridge,52.0475,-8.408333,IRELAND,IE,IRL
Wexford [English] / Loch Garman [Irish],,Gorteens,52.216944,-6.836944,IRELAND,IE,IRL
Waterford [English] / Port Láirge [Irish],,Adamstown,52.228056,-7.234167,IRELAND,IE,IRL
Offaly [English] / Uíbh Fhailí [Irish],,Gorteen Bridge,53.2025,-7.488333,IRELAND,IE,IRL
"Laois [English, Irish]",,Huntington,53.127778,-7.168056,IRELAND,IE,IRL
"Laois [English, Irish]",,Raheenaniska,53.050833,-7.125278,IRELAND,IE,IRL
Wicklow [English] / Cill Mhantáin [Irish],,Ballynerrin,53.128333,-6.075,IRELAND,IE,IRL
Wicklow [English] / Cill Mhantáin [Irish],,Carrigeershinnagh,53.060556,-6.289444,IRELAND,IE,IRL
Kilkenny [English] / Cill Chainnigh [Irish],,Coolaghflags,52.500833,-7.383611,IRELAND,IE,IRL
Wexford [English] / Loch Garman [Irish],,Davidstown,52.337778,-6.556944,IRELAND,IE,IRL
Cavan [English] / An Cabhán [Irish],,Killyvally,53.987778,-7.442222,IRELAND,IE,IRL
Kerry [English] / Ciarraí [Irish],,Shrone Bridge,52.476944,-9.505,IRELAND,IE,IRL
Mayo [English] / Maigh Eo [Irish],,Clooneen,54.263333,-10.011667,IRELAND,IE,IRL
Monaghan [English] / Muineachán [Irish],,McNally’s Cross Roads,54.148611,-6.845,IRELAND,IE,IRL
Donegal [English] / Dún na nGall [Irish],,Figart,54.857222,-7.6325,IRELAND,IE,IRL
Donegal [English] / Dún na nGall [Irish],,Dunmuckrum,54.486111,-8.214722,IRELAND,IE,IRL
Donegal [English] / Dún na nGall [Irish],,Rossbrackan,54.951667,-7.637222,IRELAND,IE,IRL
Limerick [English] / Luimneach [Irish],,Clogh,52.540278,-8.907222,IRELAND,IE,IRL
Monaghan [English] / Muineachán [Irish],,Nart,54.235833,-7.139167,IRELAND,IE,IRL
Monaghan [English] / Muineachán [Irish],,Derrygola,54.339167,-7.009167,IRELAND,IE,IRL
Clare [English] / An Clár [Irish],,New Bridge,52.653889,-9.235,IRELAND,IE,IRL
Donegal [English] / Dún na nGall [Irish],,Ardmeen,54.977778,-8.26,IRELAND,IE,IRL
Leitrim [English] / Liatroim [Irish],,Annagh Upper,54.183333,-8.045556,IRELAND,IE,IRL
Leitrim [English] / Liatroim [Irish],,Tullycorka,54.132778,-8.118333,IRELAND,IE,IRL
Roscommon [English] / Ros Comáin [Irish],,Rooty Cross,53.323611,-8.100278,IRELAND,IE,IRL
Galway [English] / Gaillimh [Irish],,Gortaboy,53.152222,-8.896111,IRELAND,IE,IRL
Kildare [English] / Cill Dara [Irish],,Russellstown Cross Roads,53.008333,-6.94,IRELAND,IE,IRL
Mayo [English] / Maigh Eo [Irish],,Tanregee,53.949167,-9.865278,IRELAND,IE,IRL
Kilkenny [English] / Cill Chainnigh [Irish],,Shunbagh,52.384722,-7.000833,IRELAND,IE,IRL
Kilkenny [English] / Cill Chainnigh [Irish],,Kiltown Cross Roads,52.451944,-6.978889,IRELAND,IE,IRL
Sligo [English] / Sligeach [Irish],,Corray,54.038333,-8.873333,IRELAND,IE,IRL
Cavan [English] / An Cabhán [Irish],,Aubawn,54.022222,-7.543056,IRELAND,IE,IRL
Sligo [English] / Sligeach [Irish],,Rue Cross Roads,54.040833,-8.76,IRELAND,IE,IRL
Wexford [English] / Loch Garman [Irish],,Boldereen Cross Roads,52.580833,-6.405833,IRELAND,IE,IRL
Carlow [English] / Ceatharlach [Irish],,Ballytarsha Cross Roads,52.749167,-6.874722,IRELAND,IE,IRL
Donegal [English] / Dún na nGall [Irish],,Meennaraha,54.576111,-7.963889,IRELAND,IE,IRL
Donegal [English] / Dún na nGall [Irish],,Tullylinn,54.625278,-7.715556,IRELAND,IE,IRL
Clare [English] / An Clár [Irish],,Athlunkard Bridge,52.681111,-8.609722,IRELAND,IE,IRL
Galway [English] / Gaillimh [Irish],,Lisnascreena,53.401667,-8.351389,IRELAND,IE,IRL
Leitrim [English] / Liatroim [Irish],,Kilnamaddyroe,54.089722,-7.833333,IRELAND,IE,IRL
Leitrim [English] / Liatroim [Irish],,Tully,54.349167,-8.251389,IRELAND,IE,IRL
Offaly [English] / Uíbh Fhailí [Irish],,Ballymullen,53.301667,-7.315556,IRELAND,IE,IRL
Galway [English] / Gaillimh [Irish],,The Fishpond Cross Roads,53.164444,-8.673333,IRELAND,IE,IRL
Galway [English] / Gaillimh [Irish],,Killilan Bridge,53.223889,-8.627222,IRELAND,IE,IRL
Offaly [English] / Uíbh Fhailí [Irish],,Coolaghansglaster,53.136944,-7.970556,IRELAND,IE,IRL
Galway [English] / Gaillimh [Irish],,Liscune,53.363333,-8.445833,IRELAND,IE,IRL
Wexford [English] / Loch Garman [Irish],,Kyle Cross Roads,52.384444,-6.520556,IRELAND,IE,IRL
Carlow [English] / Ceatharlach [Irish],,Knocksquire,52.624444,-6.865278,IRELAND,IE,IRL
Carlow [English] / Ceatharlach [Irish],,Knockscur,52.624444,-6.865278,IRELAND,IE,IRL
Limerick [English] / Luimneach [Irish],,Ballyvalode,52.5525,-8.271944,IRELAND,IE,IRL
Donegal [English] / Dún na nGall [Irish],,Killindarragh,54.818611,-7.5125,IRELAND,IE,IRL
Donegal [English] / Dún na nGall [Irish],,Priesttown,54.815833,-7.956944,IRELAND,IE,IRL
Sligo [English] / Sligeach [Irish],,Glackbaun,54.308333,-8.389167,IRELAND,IE,IRL
Leitrim [English] / Liatroim [Irish],,Edentinny,54.039167,-7.833889,IRELAND,IE,IRL
"Laois [English, Irish]",,Kilcolnanbane,53.002778,-7.261667,IRELAND,IE,IRL
Roscommon [English] / Ros Comáin [Irish],,Pike,53.375278,-8.068333,IRELAND,IE,IRL
Roscommon [English] / Ros Comáin [Irish],,Carrickynaghtan,53.396667,-7.975556,IRELAND,IE,IRL
Westmeath [English] / An Iarmhí [Irish],,Creggan,53.407222,-7.884167,IRELAND,IE,IRL
Wicklow [English] / Cill Mhantáin [Irish],,Ballyellis Cross Roads,52.711111,-6.470278,IRELAND,IE,IRL
Donegal [English] / Dún na nGall [Irish],,Shannagh,54.592778,-8.054167,IRELAND,IE,IRL
Donegal [English] / Dún na nGall [Irish],,Rossmore,54.626111,-8.118889,IRELAND,IE,IRL
Donegal [English] / Dún na nGall [Irish],,Meenybraddan,54.719722,-8.301667,IRELAND,IE,IRL
"Laois [English, Irish]",,Graigueavoice,52.815556,-7.467222,IRELAND,IE,IRL
Louth [English] / Lú [Irish],,Little Ash,53.976111,-6.523889,IRELAND,IE,IRL
Mayo [English] / Maigh Eo [Irish],,Tierna,53.901111,-9.691111,IRELAND,IE,IRL
Monaghan [English] / Muineachán [Irish],,Cashlan,54.016111,-6.742778,IRELAND,IE,IRL
Leitrim [English] / Liatroim [Irish],,Altakeeran,54.116389,-7.905,IRELAND,IE,IRL
Clare [English] / An Clár [Irish],,Shanvally,53.125833,-9.045556,IRELAND,IE,IRL
Offaly [English] / Uíbh Fhailí [Irish],,Five Roads Cross,53.171389,-7.944444,IRELAND,IE,IRL
Cavan [English] / An Cabhán [Irish],,Corgreagh,54.029722,-7.146944,IRELAND,IE,IRL
Cavan [English] / An Cabhán [Irish],,Drumbar,54.178889,-7.666111,IRELAND,IE,IRL
Donegal [English] / Dún na nGall [Irish],,Meentullynagarn,54.699444,-8.404167,IRELAND,IE,IRL
Donegal [English] / Dún na nGall [Irish],,Manner’s Town,55.021389,-7.404444,IRELAND,IE,IRL
Sligo [English] / Sligeach [Irish],,Charlesfort,54.249167,-8.861667,IRELAND,IE,IRL
Sligo [English] / Sligeach [Irish],,Carrowmably,54.2625,-8.881111,IRELAND,IE,IRL
Westmeath [English] / An Iarmhí [Irish],,Clongowly,53.350833,-7.523333,IRELAND,IE,IRL
Kildare [English] / Cill Dara [Irish],,Brownstown Cross Roads,53.125833,-6.8475,IRELAND,IE,IRL
Galway [English] / Gaillimh [Irish],,Oldstreet,53.144444,-8.224167,IRELAND,IE,IRL
Cavan [English] / An Cabhán [Irish],,Dernakesh,54.021389,-7.043611,IRELAND,IE,IRL
Donegal [English] / Dún na nGall [Irish],,Aighe,54.737222,-8.430833,IRELAND,IE,IRL
Roscommon [English] / Ros Comáin [Irish],,Drumboylan,54.008333,-8.097222,IRELAND,IE,IRL
Wicklow [English] / Cill Mhantáin [Irish],,Boley,52.938889,-6.680278,IRELAND,IE,IRL
Westmeath [English] / An Iarmhí [Irish],,Killinlahan,53.415556,-7.476389,IRELAND,IE,IRL
Carlow [English] / Ceatharlach [Irish],,Flander’s Cross Roads,52.655,-6.863611,IRELAND,IE,IRL
Donegal [English] / Dún na nGall [Irish],,Shalwy,54.624167,-8.531389,IRELAND,IE,IRL
Wicklow [English] / Cill Mhantáin [Irish],,Knockatemple,53.058333,-6.191389,IRELAND,IE,IRL
Donegal [English] / Dún na nGall [Irish],,Keenagh,55.345,-7.314444,IRELAND,IE,IRL
Wicklow [English] / Cill Mhantáin [Irish],,Knockloe Bridge,52.803333,-6.700556,IRELAND,IE,IRL
Donegal [English] / Dún na nGall [Irish],,Crohy,54.911944,-8.441944,IRELAND,IE,IRL
"Laois [English, Irish]",,Glasha Cross Roads,52.833333,-7.593333,IRELAND,IE,IRL
Monaghan [English] / Muineachán [Irish],,Drumnagrella,53.99,-6.605278,IRELAND,IE,IRL
Wicklow [English] / Cill Mhantáin [Irish],,Tober Cross Roads,53.075556,-6.673889,IRELAND,IE,IRL
"Laois [English, Irish]",,Rearyvalley,53.172778,-7.475,IRELAND,IE,IRL
"Laois [English, Irish]",,Clonygark,53.172778,-7.475,IRELAND,IE,IRL
Wicklow [English] / Cill Mhantáin [Irish],,Ballyfolan,53.210278,-6.431944,IRELAND,IE,IRL
Kilkenny [English] / Cill Chainnigh [Irish],,Bearstown,52.356389,-7.005556,IRELAND,IE,IRL
Monaghan [English] / Muineachán [Irish],,Radrum,54.181389,-6.954722,IRELAND,IE,IRL
Wicklow [English] / Cill Mhantáin [Irish],,Knockanree Upper,52.869444,-6.196944,IRELAND,IE,IRL
Kildare [English] / Cill Dara [Irish],,Drumsru,53.26,-6.933889,IRELAND,IE,IRL
Kildare [English] / Cill Dara [Irish],,Rathernan,53.240833,-6.818889,IRELAND,IE,IRL
Westmeath [English] / An Iarmhí [Irish],,Rahincuill,53.391667,-7.331111,IRELAND,IE,IRL
Galway [English] / Gaillimh [Irish],,Prospect,53.1875,-8.15,IRELAND,IE,IRL
Kildare [English] / Cill Dara [Irish],,Watch House Cross Roads,53.186389,-6.644444,IRELAND,IE,IRL
Mayo [English] / Maigh Eo [Irish],,Cloonlarhan,54.010556,-8.660278,IRELAND,IE,IRL
Offaly [English] / Uíbh Fhailí [Irish],,Mannion’s Cross Roads,53.325556,-7.883056,IRELAND,IE,IRL
Offaly [English] / Uíbh Fhailí [Irish],,Kilcormac,53.174167,-7.725556,IRELAND,IE,IRL
Offaly [English] / Uíbh Fhailí [Irish],,Cill Chormaic,53.174167,-7.725556,IRELAND,IE,IRL
"Laois [English, Irish]",,The Great Heath of Maryborough,53.062222,-7.227778,IRELAND,IE,IRL
Kildare [English] / Cill Dara [Irish],,Brockagh,53.288889,-6.844167,IRELAND,IE,IRL
Wicklow [English] / Cill Mhantáin [Irish],,Aurora,53.19,-6.2875,IRELAND,IE,IRL
Donegal [English] / Dún na nGall [Irish],,Cashelnagor,55.083889,-8.096389,IRELAND,IE,IRL
Donegal [English] / Dún na nGall [Irish],,Lackan,54.640278,-8.055,IRELAND,IE,IRL
Kildare [English] / Cill Dara [Irish],,Courtown Bridge,53.396944,-6.681944,IRELAND,IE,IRL
Wicklow [English] / Cill Mhantáin [Irish],,Ballylug,52.977222,-6.272778,IRELAND,IE,IRL
Louth [English] / Lú [Irish],,Hackett’s Cross,53.801667,-6.255556,IRELAND,IE,IRL
Louth [English] / Lú [Irish],,Cruisetown,53.816389,-6.273611,IRELAND,IE,IRL
Louth [English] / Lú [Irish],,Dillonstown Cross,53.866389,-6.341389,IRELAND,IE,IRL
Wexford [English] / Loch Garman [Irish],,The Deeps,52.380833,-6.561389,IRELAND,IE,IRL
Donegal [English] / Dún na nGall [Irish],,Edernishfree,54.991111,-8.431389,IRELAND,IE,IRL
Roscommon [English] / Ros Comáin [Irish],,Tullytawen,54.077222,-8.175556,IRELAND,IE,IRL
Kildare [English] / Cill Dara [Irish],,Hortland,53.3775,-6.786111,IRELAND,IE,IRL
Wicklow [English] / Cill Mhantáin [Irish],,Donaghmore,52.995556,-6.639444,IRELAND,IE,IRL
"Laois [English, Irish]",,Ballyruin,52.960833,-7.313333,IRELAND,IE,IRL
"Laois [English, Irish]",,Gorteen,53.015556,-7.397778,IRELAND,IE,IRL
Mayo [English] / Maigh Eo [Irish],,Cullin,53.992222,-9.029722,IRELAND,IE,IRL
Wexford [English] / Loch Garman [Irish],,Aughnacrow Bridge,52.488056,-6.639444,IRELAND,IE,IRL
Wexford [English] / Loch Garman [Irish],,Old Town,52.532778,-6.759444,IRELAND,IE,IRL
Wicklow [English] / Cill Mhantáin [Irish],,Drumgoff Bridge,52.954167,-6.359167,IRELAND,IE,IRL
Mayo [English] / Maigh Eo [Irish],,Furnace,53.921111,-9.563889,IRELAND,IE,IRL
Wexford [English] / Loch Garman [Irish],,Churchtown,52.2525,-6.403056,IRELAND,IE,IRL
Wicklow [English] / Cill Mhantáin [Irish],,Clogga,52.755833,-6.147222,IRELAND,IE,IRL
Sligo [English] / Sligeach [Irish],,Ballaghnatrillick,54.416667,-8.390278,IRELAND,IE,IRL
Mayo [English] / Maigh Eo [Irish],,Cloongullaun,53.958611,-8.990833,IRELAND,IE,IRL
Offaly [English] / Uíbh Fhailí [Irish],,Inckaroe Cross Roads,53.113056,-7.678889,IRELAND,IE,IRL
Donegal [English] / Dún na nGall [Irish],,Ellistrin,54.996389,-7.73,IRELAND,IE,IRL
Donegal [English] / Dún na nGall [Irish],,Drumabodan,55.042778,-7.738333,IRELAND,IE,IRL
Monaghan [English] / Muineachán [Irish],,Tullylougherny,53.951111,-6.777222,IRELAND,IE,IRL
Sligo [English] / Sligeach [Irish],,Tullylin,54.196389,-9.023056,IRELAND,IE,IRL
Limerick [English] / Luimneach [Irish],,Saint Joseph’s,52.542222,-9.076667,IRELAND,IE,IRL
Wicklow [English] / Cill Mhantáin [Irish],,Freynestown,53.008611,-6.693333,IRELAND,IE,IRL
Wicklow [English] / Cill Mhantáin [Irish],,Rampere Cross Roads,52.965278,-6.723056,IRELAND,IE,IRL
Wicklow [English] / Cill Mhantáin [Irish],,Drummin,53.039444,-6.287778,IRELAND,IE,IRL
Kilkenny [English] / Cill Chainnigh [Irish],,Glenballyvally,52.44,-7.030278,IRELAND,IE,IRL
Limerick [English] / Luimneach [Irish],,Clogghanduff Bridge,52.505556,-8.703333,IRELAND,IE,IRL
Louth [English] / Lú [Irish],,Spellickanee,54.038889,-6.267778,IRELAND,IE,IRL
Cavan [English] / An Cabhán [Irish],,Raleagh,54.031111,-7.626389,IRELAND,IE,IRL
Monaghan [English] / Muineachán [Irish],,Creeran,54.120833,-7.161111,IRELAND,IE,IRL
Monaghan [English] / Muineachán [Irish],,Carraskea,54.146111,-7.250556,IRELAND,IE,IRL
Donegal [English] / Dún na nGall [Irish],,Fallask,55.179722,-7.406944,IRELAND,IE,IRL
Kerry [English] / Ciarraí [Irish],,Crompaun Bridge,52.4125,-9.683611,IRELAND,IE,IRL
Donegal [English] / Dún na nGall [Irish],,Lettermore,54.711667,-8.242222,IRELAND,IE,IRL
Donegal [English] / Dún na nGall [Irish],,Ballybegly,54.990556,-7.586944,IRELAND,IE,IRL
Leitrim [English] / Liatroim [Irish],,Arderry,54.004444,-7.7325,IRELAND,IE,IRL
Monaghan [English] / Muineachán [Irish],,Tamlat,54.27,-6.871944,IRELAND,IE,IRL
Donegal [English] / Dún na nGall [Irish],,Claggan,55.263889,-7.487222,IRELAND,IE,IRL
Monaghan [English] / Muineachán [Irish],,Lisnadarragh,54.015833,-6.886667,IRELAND,IE,IRL
Leitrim [English] / Liatroim [Irish],,Loughtown,53.969167,-7.961944,IRELAND,IE,IRL
Leitrim [English] / Liatroim [Irish],,Drumboher,53.95,-7.831944,IRELAND,IE,IRL
Wexford [English] / Loch Garman [Irish],,Glenbough,52.404444,-6.399167,IRELAND,IE,IRL
"Laois [English, Irish]",,Pollmounty Bridge,52.467778,-6.899167,IRELAND,IE,IRL
Donegal [English] / Dún na nGall [Irish],,Cloghorn,55.285278,-7.369167,IRELAND,IE,IRL
Donegal [English] / Dún na nGall [Irish],,Craigtown,55.241667,-7.229167,IRELAND,IE,IRL
Monaghan [English] / Muineachán [Irish],,Lattacrom,54.066944,-6.842778,IRELAND,IE,IRL
Sligo [English] / Sligeach [Irish],,Kilmorgan,54.103333,-8.4575,IRELAND,IE,IRL
Galway [English] / Gaillimh [Irish],,Ballyboggan,53.314444,-8.680278,IRELAND,IE,IRL
"Laois [English, Irish]",,Baunogemeely,52.923333,-7.206667,IRELAND,IE,IRL
Limerick [English] / Luimneach [Irish],,Ballynoe Bridge,52.438611,-8.935556,IRELAND,IE,IRL
Donegal [English] / Dún na nGall [Irish],,Rossblaney,55.182222,-7.692778,IRELAND,IE,IRL
Westmeath [English] / An Iarmhí [Irish],,Kilaarvan Bridge,53.383333,-7.862222,IRELAND,IE,IRL
Limerick [English] / Luimneach [Irish],,Loghill,52.479722,-8.991111,IRELAND,IE,IRL
Monaghan [English] / Muineachán [Irish],,Drumacreeve,54.137222,-7.026667,IRELAND,IE,IRL
Donegal [English] / Dún na nGall [Irish],,Luddan,55.116111,-7.451111,IRELAND,IE,IRL
Donegal [English] / Dún na nGall [Irish],,Srath,55.145833,-7.287222,IRELAND,IE,IRL
Donegal [English] / Dún na nGall [Irish],,Drumbarnet,54.981389,-7.561111,IRELAND,IE,IRL
Donegal [English] / Dún na nGall [Irish],,Tober,54.956389,-7.501389,IRELAND,IE,IRL
Offaly [English] / Uíbh Fhailí [Irish],,Brackagh,53.306944,-7.711389,IRELAND,IE,IRL
Wexford [English] / Loch Garman [Irish],,Bunn Bridge,52.546389,-6.540278,IRELAND,IE,IRL
Limerick [English] / Luimneach [Irish],,Downey’s Cross Roads,52.610556,-8.455833,IRELAND,IE,IRL
Limerick [English] / Luimneach [Irish],,Kilmurry,52.384722,-8.463056,IRELAND,IE,IRL
Limerick [English] / Luimneach [Irish],,Fort Middle,52.391111,-8.755833,IRELAND,IE,IRL
Donegal [English] / Dún na nGall [Irish],,Cloontagh,55.248611,-7.370556,IRELAND,IE,IRL
Cavan [English] / An Cabhán [Irish],,Knockbride,53.986389,-6.995556,IRELAND,IE,IRL
Kildare [English] / Cill Dara [Irish],,Mucklon,53.370278,-6.833611,IRELAND,IE,IRL
Kildare [English] / Cill Dara [Irish],,Dunfierth Cross Roads,53.391667,-6.834444,IRELAND,IE,IRL
Kildare [English] / Cill Dara [Irish],,Kilwarden,53.251111,-6.568056,IRELAND,IE,IRL
Wicklow [English] / Cill Mhantáin [Irish],,Newrath Bridge,53.001111,-6.085,IRELAND,IE,IRL
Clare [English] / An Clár [Irish],,Derryfadda,53.017222,-8.688333,IRELAND,IE,IRL
Galway [English] / Gaillimh [Irish],,Caranavoodaun,53.185278,-8.825833,IRELAND,IE,IRL
Galway [English] / Gaillimh [Irish],,Roevehagh,53.217222,-8.836111,IRELAND,IE,IRL
"Laois [English, Irish]",,Clonincurragh,53.005,-7.523889,IRELAND,IE,IRL
Carlow [English] / Ceatharlach [Irish],,Reddy’s Cross Roads,52.709167,-7.021944,IRELAND,IE,IRL
Cavan [English] / An Cabhán [Irish],,Boagh,54.045,-7.0125,IRELAND,IE,IRL
Sligo [English] / Sligeach [Irish],,Carrowntawy,54.13,-8.569722,IRELAND,IE,IRL
Sligo [English] / Sligeach [Irish],,Kilshalvy,54.018333,-8.524167,IRELAND,IE,IRL
Leitrim [English] / Liatroim [Irish],,Lisconor,54.012222,-8.017778,IRELAND,IE,IRL
Leitrim [English] / Liatroim [Irish],,Shass,54.198889,-8.051944,IRELAND,IE,IRL
Cavan [English] / An Cabhán [Irish],,Mully,54.203056,-7.902222,IRELAND,IE,IRL
"Laois [English, Irish]",,Modubeagh,52.900833,-7.109444,IRELAND,IE,IRL
Sligo [English] / Sligeach [Irish],,Cabragh,54.105,-8.264722,IRELAND,IE,IRL
"Laois [English, Irish]",,Shanahoe,52.925278,-7.424722,IRELAND,IE,IRL
"Laois [English, Irish]",,New Bridge,52.939167,-7.443611,IRELAND,IE,IRL
Offaly [English] / Uíbh Fhailí [Irish],,Ryan’s Cross Roads,52.943056,-7.918056,IRELAND,IE,IRL
Wicklow [English] / Cill Mhantáin [Irish],,Raheen,53.048056,-6.257222,IRELAND,IE,IRL
Mayo [English] / Maigh Eo [Irish],,Leckee,53.961111,-9.113611,IRELAND,IE,IRL
Carlow [English] / Ceatharlach [Irish],,Swinn Cross Roads,52.695,-6.894167,IRELAND,IE,IRL
Donegal [English] / Dún na nGall [Irish],,Tully Beg,54.804167,-8.380556,IRELAND,IE,IRL
Donegal [English] / Dún na nGall [Irish],,Galdonagh,54.943056,-7.571944,IRELAND,IE,IRL
Donegal [English] / Dún na nGall [Irish],,Knockletteragh,54.836389,-8.071389,IRELAND,IE,IRL
Sligo [English] / Sligeach [Irish],,Belladrihid,54.221389,-8.499722,IRELAND,IE,IRL
Sligo [English] / Sligeach [Irish],,Ballydrenid,54.221389,-8.499722,IRELAND,IE,IRL
Mayo [English] / Maigh Eo [Irish],,Derrynameel,54.2075,-9.895833,IRELAND,IE,IRL
Cork [English] / Corcaigh [Irish],,Kilcorney,52.081111,-8.971667,IRELAND,IE,IRL
Donegal [English] / Dún na nGall [Irish],,Upper Town,55.159722,-7.6625,IRELAND,IE,IRL
Kilkenny [English] / Cill Chainnigh [Irish],,Stonyford,52.536389,-7.22,IRELAND,IE,IRL
Wicklow [English] / Cill Mhantáin [Irish],,Coolattin,52.747778,-6.499722,IRELAND,IE,IRL
Wexford [English] / Loch Garman [Irish],,Killinick,52.252778,-6.450556,IRELAND,IE,IRL
Donegal [English] / Dún na nGall [Irish],,Dún na nGall,54.65,-8.116667,IRELAND,IE,IRL
Donegal [English] / Dún na nGall [Irish],,Donegal,54.65,-8.116667,IRELAND,IE,IRL
Kildare [English] / Cill Dara [Irish],,Clonsast,53.381944,-6.681944,IRELAND,IE,IRL
Mayo [English] / Maigh Eo [Irish],,Doohooma,54.071944,-9.940556,IRELAND,IE,IRL
Monaghan [English] / Muineachán [Irish],,Drumsmat Bridge,54.222778,-7.052778,IRELAND,IE,IRL
Donegal [English] / Dún na nGall [Irish],,Glenvar,55.156111,-7.599167,IRELAND,IE,IRL
Clare [English] / An Clár [Irish],,Flagmount,52.985833,-8.643889,IRELAND,IE,IRL
Donegal [English] / Dún na nGall [Irish],,Mossedge,55.329167,-7.309722,IRELAND,IE,IRL
Donegal [English] / Dún na nGall [Irish],,Glenoughty,54.921389,-7.741944,IRELAND,IE,IRL
Leitrim [English] / Liatroim [Irish],,Glan Cross Roads,53.951944,-7.656667,IRELAND,IE,IRL
Sligo [English] / Sligeach [Irish],,Skreen,54.243333,-8.731111,IRELAND,IE,IRL
Kerry [English] / Ciarraí [Irish],,Collorus,51.766667,-9.85,IRELAND,IE,IRL
Offaly [English] / Uíbh Fhailí [Irish],,Newtown,53.4,-7.638889,IRELAND,IE,IRL
Cork [English] / Corcaigh [Irish],,Glenatlucky,52.239444,-8.268333,IRELAND,IE,IRL
Wexford [English] / Loch Garman [Irish],,Eakin’s Cross Roads,52.306944,-6.7125,IRELAND,IE,IRL
Wicklow [English] / Cill Mhantáin [Irish],,Grange Con,52.998611,-6.751111,IRELAND,IE,IRL
Cork [English] / Corcaigh [Irish],,Doonasleen,52.151111,-9.163611,IRELAND,IE,IRL
"Laois [English, Irish]",,Clondarrig,53.050556,-7.375278,IRELAND,IE,IRL
Kerry [English] / Ciarraí [Irish],,Kilmalkedar,52.185278,-10.338056,IRELAND,IE,IRL
Louth [English] / Lú [Irish],,Lú,53.948611,-6.541389,IRELAND,IE,IRL
Louth [English] / Lú [Irish],,Lubhaidh,53.948611,-6.541389,IRELAND,IE,IRL
Louth [English] / Lú [Irish],,Louth,53.948611,-6.541389,IRELAND,IE,IRL
Offaly [English] / Uíbh Fhailí [Irish],,Lumcloon Cross Roads,53.223889,-7.821667,IRELAND,IE,IRL
Monaghan [English] / Muineachán [Irish],,Bananimma,54.074444,-6.8975,IRELAND,IE,IRL
Mayo [English] / Maigh Eo [Irish],,Camport,53.917778,-10.016389,IRELAND,IE,IRL
Kerry [English] / Ciarraí [Irish],,Castleshannon,52.433333,-9.791944,IRELAND,IE,IRL
Galway [English] / Gaillimh [Irish],,Ahascragh,53.395556,-8.329444,IRELAND,IE,IRL
Galway [English] / Gaillimh [Irish],,Áth Eascrach,53.395556,-8.329444,IRELAND,IE,IRL
Kerry [English] / Ciarraí [Irish],,Aghatubrid Bridge,51.881111,-10.196389,IRELAND,IE,IRL
Kerry [English] / Ciarraí [Irish],,Aghatubrid,51.881111,-10.196389,IRELAND,IE,IRL
Wexford [English] / Loch Garman [Irish],,Barracks Cross Roads,52.226944,-6.345833,IRELAND,IE,IRL
Cork [English] / Corcaigh [Irish],,Currabeha Cross Roads,51.834444,-8.877222,IRELAND,IE,IRL
Cork [English] / Corcaigh [Irish],,Gortavadda Bridge,51.895556,-7.946667,IRELAND,IE,IRL
"Laois [English, Irish]",,Coolanagh Cross Roads,52.8975,-6.983056,IRELAND,IE,IRL
Monaghan [English] / Muineachán [Irish],,Dundrannan Cross Roads,54.145278,-6.991944,IRELAND,IE,IRL
Wexford [English] / Loch Garman [Irish],,Buffer’s Alley Cross Roads,52.561667,-6.373056,IRELAND,IE,IRL
Leitrim [English] / Liatroim [Irish],,Lismoyle,53.944722,-8.005,IRELAND,IE,IRL
Clare [English] / An Clár [Irish],,Aughboy,52.739167,-8.540278,IRELAND,IE,IRL
Cork [English] / Corcaigh [Irish],,Moanflugh,51.967778,-8.9825,IRELAND,IE,IRL
Cork [English] / Corcaigh [Irish],,Ballymadog,51.921111,-7.913333,IRELAND,IE,IRL
Wexford [English] / Loch Garman [Irish],,Bull Ring,52.634722,-6.498611,IRELAND,IE,IRL
Monaghan [English] / Muineachán [Irish],,Corvally,53.994722,-6.852222,IRELAND,IE,IRL
Cavan [English] / An Cabhán [Irish],,Cartronnagilta,54.111389,-7.771667,IRELAND,IE,IRL
Donegal [English] / Dún na nGall [Irish],,Old Town,54.941944,-7.741111,IRELAND,IE,IRL
Longford [English] / An Longfort [Irish],,Newtown Forbes,53.766667,-7.833333,IRELAND,IE,IRL
Longford [English] / An Longfort [Irish],,An Lios Breac,53.766667,-7.833333,IRELAND,IE,IRL
Cork [English] / Corcaigh [Irish],,Ballymakeera,51.933333,-9.133333,IRELAND,IE,IRL
Cork [English] / Corcaigh [Irish],,Baile Mhic Íre,51.933333,-9.133333,IRELAND,IE,IRL
Cork [English] / Corcaigh [Irish],,Ballymakeery,51.933333,-9.133333,IRELAND,IE,IRL
Meath [English] / An Mhí [Irish],,Trim,53.555,-6.791667,IRELAND,IE,IRL
Meath [English] / An Mhí [Irish],,Baile Átha Troim,53.555,-6.791667,IRELAND,IE,IRL
Kerry [English] / Ciarraí [Irish],,Moorestown,52.219167,-10.341111,IRELAND,IE,IRL
Cork [English] / Corcaigh [Irish],,Canalough,51.598889,-10.035833,IRELAND,IE,IRL
Galway [English] / Gaillimh [Irish],,Knockakilleen,53.166667,-9.0025,IRELAND,IE,IRL
Kildare [English] / Cill Dara [Irish],,Morristown Upper,53.203889,-6.778611,IRELAND,IE,IRL
Donegal [English] / Dún na nGall [Irish],,Knockfola,55.142222,-8.28,IRELAND,IE,IRL
Offaly [English] / Uíbh Fhailí [Irish],,Ballycommon,53.293611,-7.363333,IRELAND,IE,IRL
Cork [English] / Corcaigh [Irish],,The Hatters Cross Roads,51.732222,-8.953889,IRELAND,IE,IRL
Cork [English] / Corcaigh [Irish],,Roskeen Bridge,52.141389,-8.812222,IRELAND,IE,IRL
Donegal [English] / Dún na nGall [Irish],,An Bun Beag,55.059722,-8.300278,IRELAND,IE,IRL
Donegal [English] / Dún na nGall [Irish],,Bunbeg,55.059722,-8.300278,IRELAND,IE,IRL
Donegal [English] / Dún na nGall [Irish],,Doocharry,54.906389,-8.209444,IRELAND,IE,IRL
Donegal [English] / Dún na nGall [Irish],,An Dúchoraidh,54.906389,-8.209444,IRELAND,IE,IRL
Donegal [English] / Dún na nGall [Irish],,Doochary,54.906389,-8.209444,IRELAND,IE,IRL
Cork [English] / Corcaigh [Irish],,Quakers Cross Roads,51.601944,-9.018611,IRELAND,IE,IRL
Kilkenny [English] / Cill Chainnigh [Irish],,Baurscoob,52.5,-7.316667,IRELAND,IE,IRL
Cork [English] / Corcaigh [Irish],,Clashatrake Bridge,52.073056,-8.996944,IRELAND,IE,IRL
Waterford [English] / Port Láirge [Irish],,Frankeen’s Cross Roads,52.189167,-7.258611,IRELAND,IE,IRL
Wexford [English] / Loch Garman [Irish],,Aiden’s Cross Roads,52.655556,-6.556944,IRELAND,IE,IRL
Monaghan [English] / Muineachán [Irish],,Lisnagreeve,54.169722,-6.750278,IRELAND,IE,IRL
Kilkenny [English] / Cill Chainnigh [Irish],,Crutt,52.866944,-7.208056,IRELAND,IE,IRL
Donegal [English] / Dún na nGall [Irish],,Largy,54.629444,-8.512778,IRELAND,IE,IRL
"Laois [English, Irish]",,Baile an Chaisleáin,52.976389,-7.4925,IRELAND,IE,IRL
"Laois [English, Irish]",,Castletown,52.976389,-7.4925,IRELAND,IE,IRL
Wexford [English] / Loch Garman [Irish],,Grange,52.267222,-6.949722,IRELAND,IE,IRL
Cork [English] / Corcaigh [Irish],,Tooreendermot,52.243333,-9.101944,IRELAND,IE,IRL
"Laois [English, Irish]",,Srahcullen,53.139444,-7.523333,IRELAND,IE,IRL
Offaly [English] / Uíbh Fhailí [Irish],,Clonarrow,53.285278,-7.256944,IRELAND,IE,IRL
Offaly [English] / Uíbh Fhailí [Irish],,Riverlyons,53.285278,-7.256944,IRELAND,IE,IRL
Leitrim [English] / Liatroim [Irish],,Tarmon,54.125556,-8.084722,IRELAND,IE,IRL
Kildare [English] / Cill Dara [Irish],,Pluckerstown Bridge,53.235,-6.883056,IRELAND,IE,IRL
Mayo [English] / Maigh Eo [Irish],,Lissaniska,54.022778,-9.140278,IRELAND,IE,IRL
Cork [English] / Corcaigh [Irish],,Glounthaune,51.9,-8.333333,IRELAND,IE,IRL
Galway [English] / Gaillimh [Irish],,Kylesa,53.353056,-9.707778,IRELAND,IE,IRL
Galway [English] / Gaillimh [Irish],,Kylesalia,53.353056,-9.707778,IRELAND,IE,IRL
Kildare [English] / Cill Dara [Irish],,Inchaquire,53.0275,-6.799444,IRELAND,IE,IRL
Cork [English] / Corcaigh [Irish],,Ballymacandrick,51.830556,-8.143333,IRELAND,IE,IRL
Kilkenny [English] / Cill Chainnigh [Irish],,Rathgarvan,52.644722,-7.149722,IRELAND,IE,IRL
Kilkenny [English] / Cill Chainnigh [Irish],,Clifden,52.644722,-7.149722,IRELAND,IE,IRL
Kildare [English] / Cill Dara [Irish],,Dunmanoge,52.890833,-6.919722,IRELAND,IE,IRL
Wicklow [English] / Cill Mhantáin [Irish],,Greystones,53.140833,-6.063056,IRELAND,IE,IRL
Wicklow [English] / Cill Mhantáin [Irish],,Na Clocha Liatha,53.140833,-6.063056,IRELAND,IE,IRL
Donegal [English] / Dún na nGall [Irish],,Drumdoo,54.681944,-8.384722,IRELAND,IE,IRL
"Laois [English, Irish]",,Ballycrossal,53.121944,-7.233611,IRELAND,IE,IRL
Offaly [English] / Uíbh Fhailí [Irish],,Rabbitburrow,53.254167,-7.651944,IRELAND,IE,IRL
Mayo [English] / Maigh Eo [Irish],,Barnatra,54.220833,-9.843611,IRELAND,IE,IRL
Sligo [English] / Sligeach [Irish],,Willsborough,54.294167,-8.440833,IRELAND,IE,IRL
Wicklow [English] / Cill Mhantáin [Irish],,Athgreany,53.071111,-6.630556,IRELAND,IE,IRL
Kildare [English] / Cill Dara [Irish],,Stacumny,53.336111,-6.515278,IRELAND,IE,IRL
Cavan [English] / An Cabhán [Irish],,Baile Shéamais Dhuibh,53.865278,-7.202778,IRELAND,IE,IRL
Cavan [English] / An Cabhán [Irish],,Ballyjamesduff,53.865278,-7.202778,IRELAND,IE,IRL
Kerry [English] / Ciarraí [Irish],,Mastergeehy,51.885833,-10.096111,IRELAND,IE,IRL
Carlow [English] / Ceatharlach [Irish],,Gowlin,52.542222,-6.858056,IRELAND,IE,IRL
Kerry [English] / Ciarraí [Irish],,Derreen,51.898056,-10.242778,IRELAND,IE,IRL
Waterford [English] / Port Láirge [Irish],,Colligan Bridge,52.133056,-7.677778,IRELAND,IE,IRL
Donegal [English] / Dún na nGall [Irish],,Moress,55.073056,-7.482778,IRELAND,IE,IRL
Donegal [English] / Dún na nGall [Irish],,Keelogs,54.641389,-8.356389,IRELAND,IE,IRL
Galway [English] / Gaillimh [Irish],,Springvale,53.144167,-8.390833,IRELAND,IE,IRL
Donegal [English] / Dún na nGall [Irish],,Kildoney,54.523056,-8.255833,IRELAND,IE,IRL
Longford [English] / An Longfort [Irish],,Caonach,53.616667,-7.8,IRELAND,IE,IRL
Longford [English] / An Longfort [Irish],,Keenagh,53.616667,-7.8,IRELAND,IE,IRL
"Laois [English, Irish]",,Doonane,52.855833,-7.131667,IRELAND,IE,IRL
Meath [English] / An Mhí [Irish],,Crosskeel,53.713056,-7.018333,IRELAND,IE,IRL
Meath [English] / An Mhí [Irish],,Crossakeel,53.713056,-7.018333,IRELAND,IE,IRL
Donegal [English] / Dún na nGall [Irish],,Drumgowan,55.039722,-7.485833,IRELAND,IE,IRL
Kerry [English] / Ciarraí [Irish],,Gortagowan,51.853056,-9.8275,IRELAND,IE,IRL
Monaghan [English] / Muineachán [Irish],,Alkill,54.250556,-6.860833,IRELAND,IE,IRL
Leitrim [English] / Liatroim [Irish],,Cromlin,54.083889,-7.834722,IRELAND,IE,IRL
"Laois [English, Irish]",,Yellowpit Cross Roads,53.046667,-7.156111,IRELAND,IE,IRL
Kerry [English] / Ciarraí [Irish],,Knockroe,51.939444,-10.035556,IRELAND,IE,IRL
Donegal [English] / Dún na nGall [Irish],,Stravally,54.729444,-8.547778,IRELAND,IE,IRL
Kildare [English] / Cill Dara [Irish],,Kingsbog,53.128056,-6.9475,IRELAND,IE,IRL
Westmeath [English] / An Iarmhí [Irish],,Frevanagh,53.335,-7.473889,IRELAND,IE,IRL
Louth [English] / Lú [Irish],,Anaglog Cross Roads,53.824167,-6.531111,IRELAND,IE,IRL
Louth [English] / Lú [Irish],,Anaglog Cross,53.824167,-6.531111,IRELAND,IE,IRL
"Laois [English, Irish]",,Bealady Cross Roads,52.863056,-7.606944,IRELAND,IE,IRL
Clare [English] / An Clár [Irish],,Bunratty,52.696667,-8.815556,IRELAND,IE,IRL
Cork [English] / Corcaigh [Irish],,Cúirt Mhic Shéafraidh,51.631944,-8.713056,IRELAND,IE,IRL
Cork [English] / Corcaigh [Irish],,Courtmacsherry,51.631944,-8.713056,IRELAND,IE,IRL
Wexford [English] / Loch Garman [Irish],,Kildermot Cross Roads,52.690833,-6.211389,IRELAND,IE,IRL
Sligo [English] / Sligeach [Irish],,Keelty,54.349444,-8.480833,IRELAND,IE,IRL
Offaly [English] / Uíbh Fhailí [Irish],,Barna,52.927778,-7.949444,IRELAND,IE,IRL
Louth [English] / Lú [Irish],,Mansfieldstown,53.905,-6.495833,IRELAND,IE,IRL
Longford [English] / An Longfort [Irish],,Drumlish,53.816667,-7.766667,IRELAND,IE,IRL
Longford [English] / An Longfort [Irish],,Droim Lis,53.816667,-7.766667,IRELAND,IE,IRL
Galway [English] / Gaillimh [Irish],,Gorteeny,53.015556,-8.359722,IRELAND,IE,IRL
Carlow [English] / Ceatharlach [Irish],,Ashlane Cross Roads,52.839444,-6.859722,IRELAND,IE,IRL
Limerick [English] / Luimneach [Irish],,Blane Bridge,52.493333,-9.2875,IRELAND,IE,IRL
Donegal [English] / Dún na nGall [Irish],,Ray,55.074167,-7.597222,IRELAND,IE,IRL
Offaly [English] / Uíbh Fhailí [Irish],,Garr,53.392778,-7.210556,IRELAND,IE,IRL
Cork [English] / Corcaigh [Irish],,Gortafludig,51.855556,-9.283889,IRELAND,IE,IRL
Kilkenny [English] / Cill Chainnigh [Irish],,Ballygorteen,52.713889,-7.088056,IRELAND,IE,IRL
Sligo [English] / Sligeach [Irish],,Ardkeeran,54.053333,-8.525556,IRELAND,IE,IRL
Wicklow [English] / Cill Mhantáin [Irish],,Annacurragh,52.838889,-6.358611,IRELAND,IE,IRL
"Laois [English, Irish]",,Aghreena,52.854167,-7.11,IRELAND,IE,IRL
Donegal [English] / Dún na nGall [Irish],,Imlick,54.971389,-7.416389,IRELAND,IE,IRL
Cork [English] / Corcaigh [Irish],,Aghavrin Cross Roads,51.932222,-8.811389,IRELAND,IE,IRL
Waterford [English] / Port Láirge [Irish],,Knocknagat Cross Roads,52.164444,-7.306667,IRELAND,IE,IRL
Cork [English] / Corcaigh [Irish],,Barrack,52.050278,-8.5975,IRELAND,IE,IRL
Carlow [English] / Ceatharlach [Irish],,Ballaghmore Cross Roads,52.71,-6.791667,IRELAND,IE,IRL
Mayo [English] / Maigh Eo [Irish],,Shrule,53.516812,-9.089021,IRELAND,IE,IRL
Mayo [English] / Maigh Eo [Irish],,Shruthair,53.516812,-9.089021,IRELAND,IE,IRL
Mayo [English] / Maigh Eo [Irish],,Sruthair,53.516812,-9.089021,IRELAND,IE,IRL
Galway [English] / Gaillimh [Irish],,Foxhall,53.587041,-9.001288,IRELAND,IE,IRL
,,Lisduff Bridge,52.690556,-7.536389,IRELAND,IE,IRL
Kilkenny [English] / Cill Chainnigh [Irish],,Graigue,52.6,-7.416667,IRELAND,IE,IRL
,,Cregg Bridge,52.373333,-7.391389,IRELAND,IE,IRL
Donegal [English] / Dún na nGall [Irish],,Lettermacaward,54.848056,-8.316389,IRELAND,IE,IRL
Donegal [English] / Dún na nGall [Irish],,Leitir Mhic an Bhaird,54.848056,-8.316389,IRELAND,IE,IRL
Donegal [English] / Dún na nGall [Irish],,Derrylough,54.873333,-8.336111,IRELAND,IE,IRL
Kildare [English] / Cill Dara [Irish],,Bull Ring Cross Roads,53.216667,-6.902778,IRELAND,IE,IRL
Offaly [English] / Uíbh Fhailí [Irish],,Walshisland,53.251944,-7.220556,IRELAND,IE,IRL
"Laois [English, Irish]",,Raheenabrogue,52.931389,-7.345,IRELAND,IE,IRL
Offaly [English] / Uíbh Fhailí [Irish],,Clonroosk,53.25,-7.068056,IRELAND,IE,IRL
Offaly [English] / Uíbh Fhailí [Irish],,Ballyhugh,53.309722,-7.234444,IRELAND,IE,IRL
Offaly [English] / Uíbh Fhailí [Irish],,Newtown,53.303056,-7.786111,IRELAND,IE,IRL
Galway [English] / Gaillimh [Irish],,Lissagurraun,53.295556,-9.159167,IRELAND,IE,IRL
Louth [English] / Lú [Irish],,Tullyallen,53.736111,-6.422778,IRELAND,IE,IRL
Clare [English] / An Clár [Irish],,Baile Uí Bheoláin,52.930556,-8.425833,IRELAND,IE,IRL
Clare [English] / An Clár [Irish],,Mountshannon,52.930556,-8.425833,IRELAND,IE,IRL
Kilkenny [English] / Cill Chainnigh [Irish],,Mount Pleasant,52.797778,-7.583056,IRELAND,IE,IRL
Mayo [English] / Maigh Eo [Irish],,Belmullet,54.225,-9.990833,IRELAND,IE,IRL
Mayo [English] / Maigh Eo [Irish],,Béal an Mhuirthead,54.225,-9.990833,IRELAND,IE,IRL
Mayo [English] / Maigh Eo [Irish],,Belmuliet,54.225,-9.990833,IRELAND,IE,IRL
Donegal [English] / Dún na nGall [Irish],,Straruddan,55.250556,-7.149722,IRELAND,IE,IRL
Sligo [English] / Sligeach [Irish],,Mullaghroe,53.980278,-8.461111,IRELAND,IE,IRL
Donegal [English] / Dún na nGall [Irish],,Claragh,55.029167,-7.686667,IRELAND,IE,IRL
Sligo [English] / Sligeach [Irish],,Formoyle,54.293889,-8.371111,IRELAND,IE,IRL
Kilkenny [English] / Cill Chainnigh [Irish],,Sevensisters,52.734722,-7.530556,IRELAND,IE,IRL
Kilkenny [English] / Cill Chainnigh [Irish],,Gattabaun,52.766944,-7.470833,IRELAND,IE,IRL
Galway [English] / Gaillimh [Irish],,Bullaun,53.246944,-8.551667,IRELAND,IE,IRL
Wexford [English] / Loch Garman [Irish],,Brownswood,52.466667,-6.55,IRELAND,IE,IRL
Kerry [English] / Ciarraí [Irish],,Cathair Saidhbhín,51.948611,-10.222222,IRELAND,IE,IRL
Kerry [English] / Ciarraí [Irish],,Cahersween,51.948611,-10.222222,IRELAND,IE,IRL
Kerry [English] / Ciarraí [Irish],,Cahersiveen,51.948611,-10.222222,IRELAND,IE,IRL
Kerry [English] / Ciarraí [Irish],,Glen Ellen,52.146111,-9.701389,IRELAND,IE,IRL
Cork [English] / Corcaigh [Irish],,Derryfineen,51.896944,-9.205556,IRELAND,IE,IRL
Cork [English] / Corcaigh [Irish],,Sraleigh,51.85,-8.582778,IRELAND,IE,IRL
Waterford [English] / Port Láirge [Irish],,Carrickahilla Cross Roads,52.144167,-7.473611,IRELAND,IE,IRL
Cork [English] / Corcaigh [Irish],,Lackareagh,51.764722,-9.894167,IRELAND,IE,IRL
Kerry [English] / Ciarraí [Irish],,Duagh,52.412778,-9.389444,IRELAND,IE,IRL
Kerry [English] / Ciarraí [Irish],,Dubháth,52.412778,-9.389444,IRELAND,IE,IRL
Limerick [English] / Luimneach [Irish],,Cloonteen,52.628611,-8.292222,IRELAND,IE,IRL
Limerick [English] / Luimneach [Irish],,Oola,52.529722,-8.258333,IRELAND,IE,IRL
Limerick [English] / Luimneach [Irish],,Úlla,52.529722,-8.258333,IRELAND,IE,IRL
Kerry [English] / Ciarraí [Irish],,Lauragh,51.75,-9.766667,IRELAND,IE,IRL
Kerry [English] / Ciarraí [Irish],,An Láithreach,51.75,-9.766667,IRELAND,IE,IRL
Cork [English] / Corcaigh [Irish],,Dungourney,51.968333,-8.097222,IRELAND,IE,IRL
,,Pettigoe,54.55,-7.833333,IRELAND,IE,IRL
,,Paiteagó,54.55,-7.833333,IRELAND,IE,IRL
,,Pettigoe,54.55,-7.833333,IRELAND,IE,IRL
,,Pettigo,54.55,-7.833333,IRELAND,IE,IRL
Kildare [English] / Cill Dara [Irish],,Graney,52.897778,-6.790556,IRELAND,IE,IRL
Wexford [English] / Loch Garman [Irish],,Milltown,52.586667,-6.473889,IRELAND,IE,IRL
Donegal [English] / Dún na nGall [Irish],,Baile na nGallóglach,55.088056,-7.698889,IRELAND,IE,IRL
Donegal [English] / Dún na nGall [Irish],,Millford,55.088056,-7.698889,IRELAND,IE,IRL
Donegal [English] / Dún na nGall [Irish],,Milford,55.088056,-7.698889,IRELAND,IE,IRL
Donegal [English] / Dún na nGall [Irish],,Bunacrick,55.276944,-7.424444,IRELAND,IE,IRL
Cavan [English] / An Cabhán [Irish],,Lisagoan,53.949444,-6.873056,IRELAND,IE,IRL
Donegal [English] / Dún na nGall [Irish],,Laheen,54.537778,-8.138889,IRELAND,IE,IRL
Cork [English] / Corcaigh [Irish],,Redgate,52.103889,-8.905833,IRELAND,IE,IRL
Kerry [English] / Ciarraí [Irish],,Caherbreagh,52.260278,-9.658611,IRELAND,IE,IRL
Clare [English] / An Clár [Irish],,Derroran Bridge,52.961111,-8.424722,IRELAND,IE,IRL
"Laois [English, Irish]",,Dunrally Bridge,53.063056,-7.057222,IRELAND,IE,IRL
Louth [English] / Lú [Irish],,Ballakelly Cross Roads,53.966944,-6.571667,IRELAND,IE,IRL
Leitrim [English] / Liatroim [Irish],,Greagh Cross Roads,53.991111,-7.787778,IRELAND,IE,IRL
Galway [English] / Gaillimh [Irish],,Ballyvoneen,53.371389,-8.506389,IRELAND,IE,IRL
Sligo [English] / Sligeach [Irish],,Highwood,54.072222,-8.278611,IRELAND,IE,IRL
Limerick [English] / Luimneach [Irish],,Cloghane Bridge,52.588611,-8.601389,IRELAND,IE,IRL
Sligo [English] / Sligeach [Irish],,Knocknacross,54.111389,-8.358056,IRELAND,IE,IRL
Kildare [English] / Cill Dara [Irish],,Taghadoe Cross Roads,53.351389,-6.6,IRELAND,IE,IRL
Roscommon [English] / Ros Comáin [Irish],,Bellimeny,53.405,-8.145833,IRELAND,IE,IRL
"Laois [English, Irish]",,Summer Grove,53.121389,-7.375,IRELAND,IE,IRL
Westmeath [English] / An Iarmhí [Irish],,Drumman,53.538056,-7.220278,IRELAND,IE,IRL
Sligo [English] / Sligeach [Irish],,Powellsborough Cross Roads,54.048056,-8.6875,IRELAND,IE,IRL
Sligo [English] / Sligeach [Irish],,Powellsborough,54.048056,-8.6875,IRELAND,IE,IRL
Donegal [English] / Dún na nGall [Irish],,Crolly,55.025,-8.260833,IRELAND,IE,IRL
Donegal [English] / Dún na nGall [Irish],,Croithlí,55.025,-8.260833,IRELAND,IE,IRL
Waterford [English] / Port Láirge [Irish],,Carrickphilip,52.200833,-7.3,IRELAND,IE,IRL
Offaly [English] / Uíbh Fhailí [Irish],,Shannon Harbour,53.220556,-7.948333,IRELAND,IE,IRL
Meath [English] / An Mhí [Irish],,Hays,53.676667,-6.6125,IRELAND,IE,IRL
Meath [English] / An Mhí [Irish],,Hay’s Bridge,53.676667,-6.6125,IRELAND,IE,IRL
Cork [English] / Corcaigh [Irish],,Béal Átha Fhínín,51.736944,-8.956944,IRELAND,IE,IRL
Cork [English] / Corcaigh [Irish],,Ballineen,51.736944,-8.956944,IRELAND,IE,IRL
Cork [English] / Corcaigh [Irish],,Ballyneen,51.736944,-8.956944,IRELAND,IE,IRL
Kerry [English] / Ciarraí [Irish],,Ardamore,52.203056,-10.365833,IRELAND,IE,IRL
Roscommon [English] / Ros Comáin [Irish],,Kilcashel,53.362778,-8.115556,IRELAND,IE,IRL
Cavan [English] / An Cabhán [Irish],,Waterloo,53.933333,-7.130278,IRELAND,IE,IRL
Cavan [English] / An Cabhán [Irish],,Cill na Seanrátha,54.016667,-7.533333,IRELAND,IE,IRL
Cavan [English] / An Cabhán [Irish],,Killeshandra,54.016667,-7.533333,IRELAND,IE,IRL
Cavan [English] / An Cabhán [Irish],,Killashandra,54.016667,-7.533333,IRELAND,IE,IRL
Kilkenny [English] / Cill Chainnigh [Irish],,Killamery,52.475833,-7.445278,IRELAND,IE,IRL
Mayo [English] / Maigh Eo [Irish],,Mulrany,53.903889,-9.789722,IRELAND,IE,IRL
Mayo [English] / Maigh Eo [Irish],,Mallaranny,53.903889,-9.789722,IRELAND,IE,IRL
Westmeath [English] / An Iarmhí [Irish],,Ballynahown,53.351111,-7.846111,IRELAND,IE,IRL
Cork [English] / Corcaigh [Irish],,Glasheenanargid,52.250278,-9.148889,IRELAND,IE,IRL
Wexford [English] / Loch Garman [Irish],,Ring,52.190556,-6.370556,IRELAND,IE,IRL
Cork [English] / Corcaigh [Irish],,Spital Bridge,51.635,-8.776111,IRELAND,IE,IRL
Kildare [English] / Cill Dara [Irish],,Athy,52.991389,-6.980278,IRELAND,IE,IRL
Kildare [English] / Cill Dara [Irish],,Baile Átha Í,52.991389,-6.980278,IRELAND,IE,IRL
"Laois [English, Irish]",,Ballintubbert,52.981389,-7.089444,IRELAND,IE,IRL
Meath [English] / An Mhí [Irish],,Cill Dhéagláin,53.510833,-6.427222,IRELAND,IE,IRL
Meath [English] / An Mhí [Irish],,Ashbourne,53.510833,-6.427222,IRELAND,IE,IRL
Galway [English] / Gaillimh [Irish],,Ballydavid,53.201389,-8.467222,IRELAND,IE,IRL
Cavan [English] / An Cabhán [Irish],,Clifferna,53.957778,-7.174722,IRELAND,IE,IRL
Donegal [English] / Dún na nGall [Irish],,Drumfergus,54.779722,-7.6725,IRELAND,IE,IRL
Donegal [English] / Dún na nGall [Irish],,Thompsons Town,55.078056,-7.306111,IRELAND,IE,IRL
Louth [English] / Lú [Irish],,Newtown,53.731667,-6.337778,IRELAND,IE,IRL
Louth [English] / Lú [Irish],,Primatepark,53.761111,-6.3075,IRELAND,IE,IRL
Kildare [English] / Cill Dara [Irish],,Baile Riobaird,53.274167,-6.817778,IRELAND,IE,IRL
Kildare [English] / Cill Dara [Irish],,Robertstown,53.274167,-6.817778,IRELAND,IE,IRL
Cork [English] / Corcaigh [Irish],,Riverstick,51.7775,-8.497778,IRELAND,IE,IRL
Kerry [English] / Ciarraí [Irish],,Trá Lí,52.266667,-9.716667,IRELAND,IE,IRL
Kerry [English] / Ciarraí [Irish],,Tralee,52.266667,-9.716667,IRELAND,IE,IRL
Offaly [English] / Uíbh Fhailí [Irish],,Jonestown Cross Roads,53.354722,-7.055556,IRELAND,IE,IRL
Galway [English] / Gaillimh [Irish],,Leagaun,53.353611,-9.158611,IRELAND,IE,IRL
"Laois [English, Irish]",,Ballinfulla,53.1575,-7.591944,IRELAND,IE,IRL
Offaly [English] / Uíbh Fhailí [Irish],,Ballykilleen,53.297778,-7.092222,IRELAND,IE,IRL
Kildare [English] / Cill Dara [Irish],,Kilnabooley,53.233333,-7.048889,IRELAND,IE,IRL
Kildare [English] / Cill Dara [Irish],,Bostoncommon,53.233056,-6.951944,IRELAND,IE,IRL
Kildare [English] / Cill Dara [Irish],,Killinagh,53.397778,-7.025278,IRELAND,IE,IRL
Limerick [English] / Luimneach [Irish],,Knockatanvally,52.464444,-9.254167,IRELAND,IE,IRL
Sligo [English] / Sligeach [Irish],,Tobercurry,54.05,-8.733333,IRELAND,IE,IRL
Sligo [English] / Sligeach [Irish],,Tubbercurry,54.05,-8.733333,IRELAND,IE,IRL
Sligo [English] / Sligeach [Irish],,Tobar an Choire,54.05,-8.733333,IRELAND,IE,IRL
Carlow [English] / Ceatharlach [Irish],,Ballymartin,52.629167,-6.909167,IRELAND,IE,IRL
Kildare [English] / Cill Dara [Irish],,Castletown,53.352222,-6.526944,IRELAND,IE,IRL
Kerry [English] / Ciarraí [Irish],,Reenard,51.929722,-10.26,IRELAND,IE,IRL
Wexford [English] / Loch Garman [Irish],,The Little Crosses,52.585556,-6.244444,IRELAND,IE,IRL
Monaghan [English] / Muineachán [Irish],,Swans Cross Roads,54.146389,-7.009722,IRELAND,IE,IRL
Kerry [English] / Ciarraí [Irish],,Ballyrechan Bridge,52.382778,-9.589444,IRELAND,IE,IRL
Leitrim [English] / Liatroim [Irish],,Fingreagh,54.186111,-8.099722,IRELAND,IE,IRL
Donegal [English] / Dún na nGall [Irish],,Parknatomogard,54.969722,-8.338889,IRELAND,IE,IRL
Galway [English] / Gaillimh [Irish],,Cloonnasee,53.127778,-8.946667,IRELAND,IE,IRL
Wicklow [English] / Cill Mhantáin [Irish],,Áth na Sceire,53.1925,-6.169167,IRELAND,IE,IRL
Wicklow [English] / Cill Mhantáin [Irish],,Enniskerry,53.1925,-6.169167,IRELAND,IE,IRL
Kilkenny [English] / Cill Chainnigh [Irish],,Listerlin,52.415278,-7.0525,IRELAND,IE,IRL
Offaly [English] / Uíbh Fhailí [Irish],,Ferbane,53.269444,-7.826944,IRELAND,IE,IRL
Offaly [English] / Uíbh Fhailí [Irish],,An Féar Bán,53.269444,-7.826944,IRELAND,IE,IRL
Kerry [English] / Ciarraí [Irish],,Kilshannig,52.311667,-10.016944,IRELAND,IE,IRL
Kerry [English] / Ciarraí [Irish],,Reenrone,51.801944,-9.983611,IRELAND,IE,IRL
Waterford [English] / Port Láirge [Irish],,Knocknahoola,52.048611,-7.702778,IRELAND,IE,IRL
Cork [English] / Corcaigh [Irish],,Ballyshanock,52.256111,-8.471667,IRELAND,IE,IRL
Cork [English] / Corcaigh [Irish],,Ballinluska,51.789722,-8.294167,IRELAND,IE,IRL
Cork [English] / Corcaigh [Irish],,Cromwella Bridge,51.759167,-9.553056,IRELAND,IE,IRL
Cork [English] / Corcaigh [Irish],,Insnasallagh,52.1575,-8.276111,IRELAND,IE,IRL
Cork [English] / Corcaigh [Irish],,Butlerstown,51.597222,-8.726944,IRELAND,IE,IRL
Cork [English] / Corcaigh [Irish],,Dromcummer More,52.146389,-8.880833,IRELAND,IE,IRL
Cork [English] / Corcaigh [Irish],,Tanyara Bridge,51.7925,-8.837778,IRELAND,IE,IRL
Cork [English] / Corcaigh [Irish],,Old Port House,51.792778,-8.788333,IRELAND,IE,IRL
Cork [English] / Corcaigh [Irish],,Barna Cross Roads,51.631389,-9.328611,IRELAND,IE,IRL
Cork [English] / Corcaigh [Irish],,Shantullig North,51.583889,-9.541389,IRELAND,IE,IRL
Kerry [English] / Ciarraí [Irish],,Boherboy,52.229167,-10.179722,IRELAND,IE,IRL
Wicklow [English] / Cill Mhantáin [Irish],,Kilmurry,53.148333,-6.141667,IRELAND,IE,IRL
Leitrim [English] / Liatroim [Irish],,Pottore,54.095,-7.876944,IRELAND,IE,IRL
Leitrim [English] / Liatroim [Irish],,Drumcoura,54.021389,-7.757778,IRELAND,IE,IRL
Galway [English] / Gaillimh [Irish],,Keeraunbeg,53.246389,-9.612778,IRELAND,IE,IRL
Wicklow [English] / Cill Mhantáin [Irish],,Kilmacurragh,52.925556,-6.18,IRELAND,IE,IRL
Cavan [English] / An Cabhán [Irish],,Glengevlin,54.194722,-7.89,IRELAND,IE,IRL
Cavan [English] / An Cabhán [Irish],,Glangevlin,54.194722,-7.89,IRELAND,IE,IRL
Cavan [English] / An Cabhán [Irish],,Glengavlen,54.194722,-7.89,IRELAND,IE,IRL
Cavan [English] / An Cabhán [Irish],,Glangavlen,54.194722,-7.89,IRELAND,IE,IRL
Clare [English] / An Clár [Irish],,Cill an Dísirt,52.671667,-9.106389,IRELAND,IE,IRL
Clare [English] / An Clár [Irish],,Kildysart,52.671667,-9.106389,IRELAND,IE,IRL
Clare [English] / An Clár [Irish],,Killadysert,52.671667,-9.106389,IRELAND,IE,IRL
Cork [English] / Corcaigh [Irish],,Ballynacallagh,51.606111,-10.175,IRELAND,IE,IRL
Wexford [English] / Loch Garman [Irish],,Whitechurch,52.317778,-6.966111,IRELAND,IE,IRL
Donegal [English] / Dún na nGall [Irish],,Cloghan,54.8425,-7.933611,IRELAND,IE,IRL
Kilkenny [English] / Cill Chainnigh [Irish],,Kilfane,52.556389,-7.124167,IRELAND,IE,IRL
Sligo [English] / Sligeach [Irish],,Lahanagh,54.239167,-8.423611,IRELAND,IE,IRL
Galway [English] / Gaillimh [Irish],,Newtown,53.324167,-8.82,IRELAND,IE,IRL
Galway [English] / Gaillimh [Irish],,Corrafaireen,53.3975,-8.745,IRELAND,IE,IRL
Mayo [English] / Maigh Eo [Irish],,Cloghmore,53.874444,-9.951111,IRELAND,IE,IRL
Cork [English] / Corcaigh [Irish],,Vicarstown Cross Roads,51.933333,-8.65,IRELAND,IE,IRL
Cork [English] / Corcaigh [Irish],,Vicarstown,51.933333,-8.65,IRELAND,IE,IRL
Cork [English] / Corcaigh [Irish],,Kilcredan,51.881944,-7.981111,IRELAND,IE,IRL
"Laois [English, Irish]",,Rosenallis,53.134444,-7.404444,IRELAND,IE,IRL
Wexford [English] / Loch Garman [Irish],,Rosbercon,52.399722,-6.947778,IRELAND,IE,IRL
Kilkenny [English] / Cill Chainnigh [Irish],,Cloghpook,52.733333,-7.191389,IRELAND,IE,IRL
Limerick [English] / Luimneach [Irish],,Pallas Grean,52.547222,-8.3525,IRELAND,IE,IRL
Limerick [English] / Luimneach [Irish],,Old Pallas,52.547222,-8.3525,IRELAND,IE,IRL
Limerick [English] / Luimneach [Irish],,Pallasgreen,52.547222,-8.3525,IRELAND,IE,IRL
Kerry [English] / Ciarraí [Irish],,Maine Bridge,52.197222,-9.571667,IRELAND,IE,IRL
Limerick [English] / Luimneach [Irish],,Dromresna Bridge,52.3575,-9.209722,IRELAND,IE,IRL
Kerry [English] / Ciarraí [Irish],,Morley’s Bridge,51.921111,-9.386111,IRELAND,IE,IRL
Cork [English] / Corcaigh [Irish],,Loughane East,51.950278,-8.614167,IRELAND,IE,IRL
Kerry [English] / Ciarraí [Irish],,Knockmanagh,52.079444,-9.434722,IRELAND,IE,IRL
Limerick [English] / Luimneach [Irish],,Cloonlahard Bridge,52.544167,-9.203056,IRELAND,IE,IRL
Mayo [English] / Maigh Eo [Irish],,Knockshanbo,54.25,-9.928611,IRELAND,IE,IRL
Louth [English] / Lú [Irish],,Roadstown,53.858611,-6.253056,IRELAND,IE,IRL
Louth [English] / Lú [Irish],,Clonmore,53.843333,-6.335278,IRELAND,IE,IRL
Kilkenny [English] / Cill Chainnigh [Irish],,Cranroe,52.709444,-7.046389,IRELAND,IE,IRL
Donegal [English] / Dún na nGall [Irish],,Leifear,54.831944,-7.483611,IRELAND,IE,IRL
Donegal [English] / Dún na nGall [Irish],,Lifford,54.831944,-7.483611,IRELAND,IE,IRL
Galway [English] / Gaillimh [Irish],,Cloonoolish,53.189722,-8.265556,IRELAND,IE,IRL
Galway [English] / Gaillimh [Irish],,Saint Brendan’s,53.393889,-8.988333,IRELAND,IE,IRL
Offaly [English] / Uíbh Fhailí [Irish],,Gahagan’s Village,53.287778,-7.905278,IRELAND,IE,IRL
Kildare [English] / Cill Dara [Irish],,Belaghstown Cross Roads,53.311667,-6.720278,IRELAND,IE,IRL
"Laois [English, Irish]",,Annagh Bridge,52.989722,-7.567222,IRELAND,IE,IRL
Offaly [English] / Uíbh Fhailí [Irish],,Bolart Bridge,53.341389,-7.648889,IRELAND,IE,IRL
Meath [English] / An Mhí [Irish],,Rathkenny,53.747778,-6.646111,IRELAND,IE,IRL
Louth [English] / Lú [Irish],,Castlebellingham,53.900833,-6.390278,IRELAND,IE,IRL
Louth [English] / Lú [Irish],,Baile an Ghearlánaigh,53.900833,-6.390278,IRELAND,IE,IRL
Limerick [English] / Luimneach [Irish],,Cappagh,52.556389,-8.906944,IRELAND,IE,IRL
Limerick [English] / Luimneach [Irish],,Cappach,52.556389,-8.906944,IRELAND,IE,IRL
Meath [English] / An Mhí [Irish],,Carnaross,53.751111,-6.954167,IRELAND,IE,IRL
Donegal [English] / Dún na nGall [Irish],,Kindrum More,55.223889,-7.699722,IRELAND,IE,IRL
Donegal [English] / Dún na nGall [Irish],,Kindrum,55.223889,-7.699722,IRELAND,IE,IRL
Wexford [English] / Loch Garman [Irish],,Rathnure,52.498889,-6.763056,IRELAND,IE,IRL
Cork [English] / Corcaigh [Irish],,Templebodan,51.998611,-8.245833,IRELAND,IE,IRL
Donegal [English] / Dún na nGall [Irish],,Ballintra,54.979167,-8.501389,IRELAND,IE,IRL
Donegal [English] / Dún na nGall [Irish],,Drumadowan,54.914722,-7.656667,IRELAND,IE,IRL
Donegal [English] / Dún na nGall [Irish],,Red Bridges,54.664722,-8.130556,IRELAND,IE,IRL
Donegal [English] / Dún na nGall [Irish],,Altahalla,55.246389,-7.407778,IRELAND,IE,IRL
Donegal [English] / Dún na nGall [Irish],,Carrick,54.610278,-8.108333,IRELAND,IE,IRL
Cavan [English] / An Cabhán [Irish],,Toberlyan,54.074444,-7.636944,IRELAND,IE,IRL
Kerry [English] / Ciarraí [Irish],,Tooreen,52.380278,-9.424444,IRELAND,IE,IRL
Offaly [English] / Uíbh Fhailí [Irish],,Newtown,53.151111,-8.0125,IRELAND,IE,IRL
Cork [English] / Corcaigh [Irish],,Farsid,51.846389,-8.204722,IRELAND,IE,IRL
Donegal [English] / Dún na nGall [Irish],,Cashelmore,55.138889,-7.915556,IRELAND,IE,IRL
Cork [English] / Corcaigh [Irish],,Mitchelstown,52.265833,-8.268056,IRELAND,IE,IRL
Cork [English] / Corcaigh [Irish],,Baile Mhistéala,52.265833,-8.268056,IRELAND,IE,IRL
Cork [English] / Corcaigh [Irish],,Ballymacask,51.959167,-7.896944,IRELAND,IE,IRL
Cork [English] / Corcaigh [Irish],,Kilcor,52.062778,-8.208333,IRELAND,IE,IRL
Roscommon [English] / Ros Comáin [Irish],,Killeglan,53.416389,-8.183333,IRELAND,IE,IRL
Donegal [English] / Dún na nGall [Irish],,Carrickmore Lower,54.883333,-7.45,IRELAND,IE,IRL
Donegal [English] / Dún na nGall [Irish],,Carrickmore,54.883333,-7.45,IRELAND,IE,IRL
Cork [English] / Corcaigh [Irish],,Ballynoe,51.553333,-8.912222,IRELAND,IE,IRL
Limerick [English] / Luimneach [Irish],,Ballagh,52.373889,-9.078056,IRELAND,IE,IRL
Limerick [English] / Luimneach [Irish],,Ballyvoodane,52.351389,-8.5775,IRELAND,IE,IRL
Mayo [English] / Maigh Eo [Irish],,Carrowteige,54.312222,-9.812778,IRELAND,IE,IRL
Limerick [English] / Luimneach [Irish],,Boher,52.62,-8.461111,IRELAND,IE,IRL
"Laois [English, Irish]",,Cleanagh,52.908333,-7.214167,IRELAND,IE,IRL
Galway [English] / Gaillimh [Irish],,Droichead an Chláirín,53.228611,-8.8775,IRELAND,IE,IRL
Galway [English] / Gaillimh [Irish],,Clarinbridge,53.228611,-8.8775,IRELAND,IE,IRL
Cork [English] / Corcaigh [Irish],,Garryvoe,51.875556,-8.000278,IRELAND,IE,IRL
Cork [English] / Corcaigh [Irish],,Garryduff,52.016667,-8.116667,IRELAND,IE,IRL
Offaly [English] / Uíbh Fhailí [Irish],,Derryclure,53.237778,-7.476389,IRELAND,IE,IRL
Cavan [English] / An Cabhán [Irish],,Cavan,53.990833,-7.360556,IRELAND,IE,IRL
Cavan [English] / An Cabhán [Irish],,An Cabhán,53.990833,-7.360556,IRELAND,IE,IRL
Carlow [English] / Ceatharlach [Irish],,Ballymoon,52.700833,-6.921667,IRELAND,IE,IRL
Wexford [English] / Loch Garman [Irish],,Mount George,52.576111,-6.423333,IRELAND,IE,IRL
Meath [English] / An Mhí [Irish],,Clogherstown,53.5925,-6.363333,IRELAND,IE,IRL
Cork [English] / Corcaigh [Irish],,Gleann Maghair,51.915833,-8.399722,IRELAND,IE,IRL
Cork [English] / Corcaigh [Irish],,Glanmire,51.915833,-8.399722,IRELAND,IE,IRL
Mayo [English] / Maigh Eo [Irish],,Kilgarvan,54.091944,-9.038611,IRELAND,IE,IRL
Sligo [English] / Sligeach [Irish],,Drumfin,54.129167,-8.441944,IRELAND,IE,IRL
Louth [English] / Lú [Irish],,Kilsaran,53.890556,-6.388889,IRELAND,IE,IRL
Donegal [English] / Dún na nGall [Irish],,Gleneely,54.766667,-7.683333,IRELAND,IE,IRL
Leitrim [English] / Liatroim [Irish],,Largydonnell,54.411111,-8.319444,IRELAND,IE,IRL
Kerry [English] / Ciarraí [Irish],,Waterville,51.833333,-10.166667,IRELAND,IE,IRL
Kerry [English] / Ciarraí [Irish],,An Coireán,51.833333,-10.166667,IRELAND,IE,IRL
Leitrim [English] / Liatroim [Irish],,Johnstons Bridge,53.833333,-7.866667,IRELAND,IE,IRL
Leitrim [English] / Liatroim [Irish],,Johnstownbridge,53.833333,-7.866667,IRELAND,IE,IRL
Donegal [English] / Dún na nGall [Irish],,Dunfanaghy,55.183333,-7.966667,IRELAND,IE,IRL
Donegal [English] / Dún na nGall [Irish],,Dún Fionnachaidh,55.183333,-7.966667,IRELAND,IE,IRL
Meath [English] / An Mhí [Irish],,Grangegeeth Cross Roads,53.754167,-6.554167,IRELAND,IE,IRL
Meath [English] / An Mhí [Irish],,Grange Cross Roads,53.754167,-6.554167,IRELAND,IE,IRL
Meath [English] / An Mhí [Irish],,Grange,53.754167,-6.554167,IRELAND,IE,IRL
Kildare [English] / Cill Dara [Irish],,Millicent Cross Roads,53.278889,-6.6975,IRELAND,IE,IRL
Kildare [English] / Cill Dara [Irish],,Windmill Cross Roads,53.335278,-6.931944,IRELAND,IE,IRL
Kildare [English] / Cill Dara [Irish],,Mylerstown Cross Roads,53.083611,-6.945833,IRELAND,IE,IRL
Offaly [English] / Uíbh Fhailí [Irish],,Derrygawny,53.411111,-7.201111,IRELAND,IE,IRL
Sligo [English] / Sligeach [Irish],,Toberawnaun,54.257778,-8.722222,IRELAND,IE,IRL
Clare [English] / An Clár [Irish],,Gilloge Bridge,52.685833,-8.574444,IRELAND,IE,IRL
Cork [English] / Corcaigh [Irish],,Bloomfield Cross Roads,52.138333,-8.396667,IRELAND,IE,IRL
Donegal [English] / Dún na nGall [Irish],,Deningornan Bridge,54.678056,-8.104722,IRELAND,IE,IRL
Kerry [English] / Ciarraí [Irish],,Faha,52.239722,-10.208056,IRELAND,IE,IRL
Kilkenny [English] / Cill Chainnigh [Irish],,Massford Bridge,52.842222,-7.172222,IRELAND,IE,IRL
Cork [English] / Corcaigh [Irish],,Kilcoran,52.123056,-8.086111,IRELAND,IE,IRL
Cork [English] / Corcaigh [Irish],,Glandart,51.695833,-9.345278,IRELAND,IE,IRL
Donegal [English] / Dún na nGall [Irish],,Meenacross,54.907778,-8.382222,IRELAND,IE,IRL
Wicklow [English] / Cill Mhantáin [Irish],,Mullan Cross Roads,52.909444,-6.502222,IRELAND,IE,IRL
Galway [English] / Gaillimh [Irish],,Ryehill,53.382222,-8.716667,IRELAND,IE,IRL
Kildare [English] / Cill Dara [Irish],,Red Hills,53.18,-6.957778,IRELAND,IE,IRL
Mayo [English] / Maigh Eo [Irish],,Leamadartaun,54.003333,-9.538056,IRELAND,IE,IRL
Waterford [English] / Port Láirge [Irish],,Ballynaclogh,52.184722,-7.190833,IRELAND,IE,IRL
Wicklow [English] / Cill Mhantáin [Irish],,Lugnagun Great,53.15,-6.475556,IRELAND,IE,IRL
Kerry [English] / Ciarraí [Irish],,Ballahantouragh,52.146111,-9.375556,IRELAND,IE,IRL
Wicklow [English] / Cill Mhantáin [Irish],,Ballyduff Cross Roads,53.044167,-6.16,IRELAND,IE,IRL
Galway [English] / Gaillimh [Irish],,Aillenacally,53.421667,-9.905556,IRELAND,IE,IRL
Mayo [English] / Maigh Eo [Irish],,Srahgraddy,54.133889,-9.752222,IRELAND,IE,IRL
"Laois [English, Irish]",,Inchanisky,53.057222,-7.551111,IRELAND,IE,IRL
Leitrim [English] / Liatroim [Irish],,Drumgownagh,54.089444,-7.798056,IRELAND,IE,IRL
Wicklow [English] / Cill Mhantáin [Irish],,Knockaderry Cross Roads,52.9725,-6.611667,IRELAND,IE,IRL
Wexford [English] / Loch Garman [Irish],,Ballyanne,52.425278,-6.915556,IRELAND,IE,IRL
Cavan [English] / An Cabhán [Irish],,Drumconnick,53.988056,-7.386667,IRELAND,IE,IRL
Cork [English] / Corcaigh [Irish],,Strawhall Cross Roads,51.824722,-8.807778,IRELAND,IE,IRL
Cork [English] / Corcaigh [Irish],,Cullenagh Bridge,51.815278,-9.298333,IRELAND,IE,IRL
Offaly [English] / Uíbh Fhailí [Irish],,Toberdaly Bridge,53.331389,-7.213611,IRELAND,IE,IRL
Offaly [English] / Uíbh Fhailí [Irish],,Newtown,53.205,-7.880556,IRELAND,IE,IRL
"Laois [English, Irish]",,Grange Beg,52.909444,-7.604722,IRELAND,IE,IRL
Kildare [English] / Cill Dara [Irish],,Newtown,53.365833,-6.767778,IRELAND,IE,IRL
Donegal [English] / Dún na nGall [Irish],,Tievelough,54.809722,-8.150833,IRELAND,IE,IRL
Cavan [English] / An Cabhán [Irish],,Milltown,53.981944,-6.913056,IRELAND,IE,IRL
Cavan [English] / An Cabhán [Irish],,Money,53.981944,-6.913056,IRELAND,IE,IRL
Cork [English] / Corcaigh [Irish],,Millstreet,52.066667,-9.066667,IRELAND,IE,IRL
Cork [English] / Corcaigh [Irish],,Sráid an Mhuilinn,52.066667,-9.066667,IRELAND,IE,IRL
Cork [English] / Corcaigh [Irish],,Banteer,52.116667,-8.9,IRELAND,IE,IRL
Cork [English] / Corcaigh [Irish],,Bántir,52.116667,-8.9,IRELAND,IE,IRL
Wicklow [English] / Cill Mhantáin [Irish],,Ballinagore,52.805278,-6.296944,IRELAND,IE,IRL
Sligo [English] / Sligeach [Irish],,Béal an Átha Fada,54.0275,-8.337222,IRELAND,IE,IRL
Sligo [English] / Sligeach [Irish],,Ballinafad,54.0275,-8.337222,IRELAND,IE,IRL
Wexford [English] / Loch Garman [Irish],,Ballaghkeen,52.479722,-6.42,IRELAND,IE,IRL
Louth [English] / Lú [Irish],,Greenore,54.033333,-6.133333,IRELAND,IE,IRL
Louth [English] / Lú [Irish],,An Grianfort,54.033333,-6.133333,IRELAND,IE,IRL
"Laois [English, Irish]",,Gortahile,52.816667,-7.075556,IRELAND,IE,IRL
Cork [English] / Corcaigh [Irish],,Moyny,51.6825,-9.2975,IRELAND,IE,IRL
Kildare [English] / Cill Dara [Irish],,Maynooth,53.385,-6.593611,IRELAND,IE,IRL
Kildare [English] / Cill Dara [Irish],,Maigh Nuad,53.385,-6.593611,IRELAND,IE,IRL
"Laois [English, Irish]",,Crockaun,52.83,-6.973056,IRELAND,IE,IRL
Limerick [English] / Luimneach [Irish],,Creggaun,52.6625,-8.755,IRELAND,IE,IRL
Donegal [English] / Dún na nGall [Irish],,Maghery,54.929444,-8.441944,IRELAND,IE,IRL
Donegal [English] / Dún na nGall [Irish],,Béal Átha Seanaidh,54.5,-8.183333,IRELAND,IE,IRL
Donegal [English] / Dún na nGall [Irish],,Ballyshannon,54.5,-8.183333,IRELAND,IE,IRL
Cork [English] / Corcaigh [Irish],,Ballyre,51.995278,-8.036389,IRELAND,IE,IRL
Kildare [English] / Cill Dara [Irish],,Timahoe,53.335,-6.838611,IRELAND,IE,IRL
Cavan [English] / An Cabhán [Irish],,Cargagh,53.898889,-7.086389,IRELAND,IE,IRL
Galway [English] / Gaillimh [Irish],,Cappataggle,53.276389,-8.403611,IRELAND,IE,IRL
Wexford [English] / Loch Garman [Irish],,Ballymurn,52.441111,-6.474722,IRELAND,IE,IRL
Wexford [English] / Loch Garman [Irish],,Clongeen,52.294444,-6.765,IRELAND,IE,IRL
Donegal [English] / Dún na nGall [Irish],,Falcarragh,55.133333,-8.1,IRELAND,IE,IRL
Donegal [English] / Dún na nGall [Irish],,Crossroads,55.133333,-8.1,IRELAND,IE,IRL
Donegal [English] / Dún na nGall [Irish],,An Fál Carrach,55.133333,-8.1,IRELAND,IE,IRL
Donegal [English] / Dún na nGall [Irish],,Falcaragh,55.133333,-8.1,IRELAND,IE,IRL
Meath [English] / An Mhí [Irish],,The Cross Guns,53.900556,-6.695278,IRELAND,IE,IRL
Cork [English] / Corcaigh [Irish],,Pedlars Cross Roads,51.692778,-8.860556,IRELAND,IE,IRL
Offaly [English] / Uíbh Fhailí [Irish],,Moneygall,52.880278,-7.958611,IRELAND,IE,IRL
Offaly [English] / Uíbh Fhailí [Irish],,Muine Gall,52.880278,-7.958611,IRELAND,IE,IRL
Wexford [English] / Loch Garman [Irish],,Monaseed,52.721667,-6.391667,IRELAND,IE,IRL
Limerick [English] / Luimneach [Irish],,Barrigone,52.6,-9.05,IRELAND,IE,IRL
Carlow [English] / Ceatharlach [Irish],,Tinnahinch,52.538611,-6.948056,IRELAND,IE,IRL
Cork [English] / Corcaigh [Irish],,Derrynacaheragh,51.7625,-9.19,IRELAND,IE,IRL
Waterford [English] / Port Láirge [Irish],,Abbeyside,52.093889,-7.611389,IRELAND,IE,IRL
Monaghan [English] / Muineachán [Irish],,Drumscor,54.305556,-7.079722,IRELAND,IE,IRL
Kerry [English] / Ciarraí [Irish],,Finuge,52.429167,-9.541111,IRELAND,IE,IRL
Kerry [English] / Ciarraí [Irish],,Fionnúig,52.429167,-9.541111,IRELAND,IE,IRL
Galway [English] / Gaillimh [Irish],,Killimor,53.163333,-8.284722,IRELAND,IE,IRL
Galway [English] / Gaillimh [Irish],,Cill Íomair,53.163333,-8.284722,IRELAND,IE,IRL
Cork [English] / Corcaigh [Irish],,Belvelly,51.883056,-8.303056,IRELAND,IE,IRL
Kilkenny [English] / Cill Chainnigh [Irish],,Móin Choinn,52.289444,-7.248333,IRELAND,IE,IRL
Kilkenny [English] / Cill Chainnigh [Irish],,Mooncoin,52.289444,-7.248333,IRELAND,IE,IRL
Kerry [English] / Ciarraí [Irish],,Kilmurry,52.125,-10.115,IRELAND,IE,IRL
Meath [English] / An Mhí [Irish],,Culmullin Cross Roads,53.485278,-6.611389,IRELAND,IE,IRL
Meath [English] / An Mhí [Irish],,Culmullin,53.485278,-6.611389,IRELAND,IE,IRL
Donegal [English] / Dún na nGall [Irish],,Ballymagan,55.154167,-7.426667,IRELAND,IE,IRL
Cork [English] / Corcaigh [Irish],,Lyre,51.675278,-8.941389,IRELAND,IE,IRL
Cork [English] / Corcaigh [Irish],,Crookstown,51.847778,-8.841944,IRELAND,IE,IRL
"Laois [English, Irish]",,Luggacurren,52.946667,-7.129722,IRELAND,IE,IRL
Mayo [English] / Maigh Eo [Irish],,Aghleam,54.115833,-10.102222,IRELAND,IE,IRL
Kerry [English] / Ciarraí [Irish],,Ardfert,52.333333,-9.783333,IRELAND,IE,IRL
Kerry [English] / Ciarraí [Irish],,Ard Fhearta,52.333333,-9.783333,IRELAND,IE,IRL
Louth [English] / Lú [Irish],,Annagassan,53.886111,-6.344444,IRELAND,IE,IRL
Wicklow [English] / Cill Mhantáin [Irish],,Ráth Droma,52.926389,-6.235556,IRELAND,IE,IRL
Wicklow [English] / Cill Mhantáin [Irish],,Rathdrum,52.926389,-6.235556,IRELAND,IE,IRL
Donegal [English] / Dún na nGall [Irish],,Doirí Beaga,55.083333,-8.289444,IRELAND,IE,IRL
Donegal [English] / Dún na nGall [Irish],,Derrybeg,55.083333,-8.289444,IRELAND,IE,IRL
Offaly [English] / Uíbh Fhailí [Irish],,Ballyboy,53.173056,-7.696111,IRELAND,IE,IRL
Westmeath [English] / An Iarmhí [Irish],,Drumcree,53.633333,-7.1625,IRELAND,IE,IRL
Westmeath [English] / An Iarmhí [Irish],,Drumcre,53.633333,-7.1625,IRELAND,IE,IRL
Limerick [English] / Luimneach [Irish],,Creeves,52.561667,-9.032222,IRELAND,IE,IRL
"Laois [English, Irish]",,Mountmellick,53.113611,-7.32,IRELAND,IE,IRL
"Laois [English, Irish]",,Móinteach Mílic,53.113611,-7.32,IRELAND,IE,IRL
Waterford [English] / Port Láirge [Irish],,Mount Druid,52.228889,-7.040278,IRELAND,IE,IRL
Cavan [English] / An Cabhán [Irish],,Bellanacargy,54.041667,-7.249167,IRELAND,IE,IRL
Kilkenny [English] / Cill Chainnigh [Irish],,Whitechurch,52.371389,-7.393056,IRELAND,IE,IRL
Cork [English] / Corcaigh [Irish],,West Village,51.883333,-8.6,IRELAND,IE,IRL
Kerry [English] / Ciarraí [Irish],,Cloghane,52.235833,-10.185556,IRELAND,IE,IRL
Westmeath [English] / An Iarmhí [Irish],,Kinnegad,53.452222,-7.099722,IRELAND,IE,IRL
Westmeath [English] / An Iarmhí [Irish],,Cionn Átha Gad,53.452222,-7.099722,IRELAND,IE,IRL
Kerry [English] / Ciarraí [Irish],,Kinard,52.133333,-10.2,IRELAND,IE,IRL
Waterford [English] / Port Láirge [Irish],,Kilmeadan,52.243333,-7.241667,IRELAND,IE,IRL
Mayo [English] / Maigh Eo [Irish],,Attimachugh,54.006389,-9.028056,IRELAND,IE,IRL
Cavan [English] / An Cabhán [Irish],,Dowra,54.191111,-8.015,IRELAND,IE,IRL
Wicklow [English] / Cill Mhantáin [Irish],,Redcross,52.885833,-6.145833,IRELAND,IE,IRL
Wicklow [English] / Cill Mhantáin [Irish],,An Chrois Dhearg,52.885833,-6.145833,IRELAND,IE,IRL
Cavan [English] / An Cabhán [Irish],,Kill,54.033056,-7.110278,IRELAND,IE,IRL
Kilkenny [English] / Cill Chainnigh [Irish],,Ballyquin,52.369444,-7.128333,IRELAND,IE,IRL
Kildare [English] / Cill Dara [Irish],,Castledermot,52.908889,-6.842222,IRELAND,IE,IRL
Kildare [English] / Cill Dara [Irish],,Díseart Diarmada,52.908889,-6.842222,IRELAND,IE,IRL
,,Tievemore,54.583333,-7.766667,IRELAND,IE,IRL
,,Termonbarry,53.75,-7.916667,IRELAND,IE,IRL
Limerick [English] / Luimneach [Irish],,Ballingarry,52.472778,-8.863889,IRELAND,IE,IRL
Limerick [English] / Luimneach [Irish],,Baile an Gharraí,52.472778,-8.863889,IRELAND,IE,IRL
Limerick [English] / Luimneach [Irish],,Ballingary,52.472778,-8.863889,IRELAND,IE,IRL
Cork [English] / Corcaigh [Irish],,Baile an Chollaigh,51.883333,-8.583333,IRELAND,IE,IRL
Cork [English] / Corcaigh [Irish],,Ballincollig,51.883333,-8.583333,IRELAND,IE,IRL
Meath [English] / An Mhí [Irish],,Kiltale,53.528611,-6.658333,IRELAND,IE,IRL
Wexford [English] / Loch Garman [Irish],,Boleyvogue,52.553056,-6.431389,IRELAND,IE,IRL
Offaly [English] / Uíbh Fhailí [Irish],,Blue Ball,53.224444,-7.613889,IRELAND,IE,IRL
Westmeath [English] / An Iarmhí [Irish],,Tyrrellspass,53.388889,-7.373611,IRELAND,IE,IRL
Westmeath [English] / An Iarmhí [Irish],,Bealach an Tirialaigh,53.388889,-7.373611,IRELAND,IE,IRL
Westmeath [English] / An Iarmhí [Irish],,Tyrrelspass,53.388889,-7.373611,IRELAND,IE,IRL
Limerick [English] / Luimneach [Irish],,Rockhill,52.416944,-8.714167,IRELAND,IE,IRL
Carlow [English] / Ceatharlach [Irish],,Graiguealug,52.75,-6.85,IRELAND,IE,IRL
Carlow [English] / Ceatharlach [Irish],,Graiguelug,52.75,-6.85,IRELAND,IE,IRL
Sligo [English] / Sligeach [Irish],,Ballyconnell,54.363056,-8.651667,IRELAND,IE,IRL
Sligo [English] / Sligeach [Irish],,Ballyconnel,54.363056,-8.651667,IRELAND,IE,IRL
Kildare [English] / Cill Dara [Irish],,Rathangan,53.221389,-6.995,IRELAND,IE,IRL
Kildare [English] / Cill Dara [Irish],,Ráth Iomgháin,53.221389,-6.995,IRELAND,IE,IRL
Donegal [English] / Dún na nGall [Irish],,An Cheathrú Chaol,55.133333,-7.65,IRELAND,IE,IRL
Donegal [English] / Dún na nGall [Irish],,Carrowkeel,55.133333,-7.65,IRELAND,IE,IRL
Donegal [English] / Dún na nGall [Irish],,Kerrykeel,55.133333,-7.65,IRELAND,IE,IRL
Kerry [English] / Ciarraí [Irish],,Dawros Bridge,51.861389,-9.630556,IRELAND,IE,IRL
Kilkenny [English] / Cill Chainnigh [Irish],,Ballyfoyle,52.723611,-7.230278,IRELAND,IE,IRL
Kerry [English] / Ciarraí [Irish],,An Baile Dubh,52.451389,-9.6625,IRELAND,IE,IRL
Kerry [English] / Ciarraí [Irish],,Ballyduff,52.451389,-9.6625,IRELAND,IE,IRL
Cork [English] / Corcaigh [Irish],,Ballydesmond,52.183333,-9.233333,IRELAND,IE,IRL
Cork [English] / Corcaigh [Irish],,Baile Deasumhan,52.183333,-9.233333,IRELAND,IE,IRL
Cork [English] / Corcaigh [Irish],,Kingwilliamstown,52.183333,-9.233333,IRELAND,IE,IRL
Wexford [English] / Loch Garman [Irish],,Ballycullane,52.274444,-6.830278,IRELAND,IE,IRL
Kerry [English] / Ciarraí [Irish],,Glanfahan,52.103056,-10.433056,IRELAND,IE,IRL
Kerry [English] / Ciarraí [Irish],,Fahan,52.103056,-10.433056,IRELAND,IE,IRL
Cork [English] / Corcaigh [Irish],,Gyleen,51.797778,-8.1875,IRELAND,IE,IRL
Westmeath [English] / An Iarmhí [Irish],,Auburn,53.5,-7.816667,IRELAND,IE,IRL
Westmeath [English] / An Iarmhí [Irish],,Lissoy,53.5,-7.816667,IRELAND,IE,IRL
Westmeath [English] / An Iarmhí [Irish],,Lishoy,53.5,-7.816667,IRELAND,IE,IRL
Limerick [English] / Luimneach [Irish],,Patrickswell,52.597222,-8.708889,IRELAND,IE,IRL
Limerick [English] / Luimneach [Irish],,Tobar Phádraig,52.597222,-8.708889,IRELAND,IE,IRL
Limerick [English] / Luimneach [Irish],,Saint Patrickswell,52.597222,-8.708889,IRELAND,IE,IRL
Cork [English] / Corcaigh [Irish],,Creagh,51.601389,-8.958889,IRELAND,IE,IRL
Donegal [English] / Dún na nGall [Irish],,Cranford,55.143889,-7.696389,IRELAND,IE,IRL
Cork [English] / Corcaigh [Irish],,Lislevane,51.608333,-8.779444,IRELAND,IE,IRL
Offaly [English] / Uíbh Fhailí [Irish],,Clonavoe,53.258056,-7.151667,IRELAND,IE,IRL
Mayo [English] / Maigh Eo [Irish],,Clogher,54.126944,-10.086667,IRELAND,IE,IRL
Waterford [English] / Port Láirge [Irish],,Feagarrid,52.181389,-7.981111,IRELAND,IE,IRL
Kerry [English] / Ciarraí [Irish],,Farranfore,52.166667,-9.55,IRELAND,IE,IRL
Kerry [English] / Ciarraí [Irish],,An Fearann Fuar,52.166667,-9.55,IRELAND,IE,IRL
Cork [English] / Corcaigh [Irish],,Hayes Bridge,51.666667,-8.75,IRELAND,IE,IRL
Cork [English] / Corcaigh [Irish],,Glanworth,52.186667,-8.3575,IRELAND,IE,IRL
Cork [English] / Corcaigh [Irish],,Gleannúir,52.186667,-8.3575,IRELAND,IE,IRL
Cork [English] / Corcaigh [Irish],,Enniskeen,51.741667,-8.938056,IRELAND,IE,IRL
Cork [English] / Corcaigh [Irish],,Enniskean,51.741667,-8.938056,IRELAND,IE,IRL
Cork [English] / Corcaigh [Irish],,Inis Céin,51.741667,-8.938056,IRELAND,IE,IRL
Monaghan [English] / Muineachán [Irish],,Doohamlet,54.126389,-6.821944,IRELAND,IE,IRL
Monaghan [English] / Muineachán [Irish],,Doohamlat,54.126389,-6.821944,IRELAND,IE,IRL
Kerry [English] / Ciarraí [Irish],,Cill Airne,52.05,-9.516667,IRELAND,IE,IRL
Kerry [English] / Ciarraí [Irish],,Killarney,52.05,-9.516667,IRELAND,IE,IRL
Clare [English] / An Clár [Irish],,Ballylaun,52.946667,-9.458333,IRELAND,IE,IRL
Clare [English] / An Clár [Irish],,Ballylaan,52.946667,-9.458333,IRELAND,IE,IRL
"Laois [English, Irish]",,Stradbally,53.015556,-7.152778,IRELAND,IE,IRL
"Laois [English, Irish]",,An Sráidbhaile,53.015556,-7.152778,IRELAND,IE,IRL
Monaghan [English] / Muineachán [Irish],,Stone Bridge,54.2,-7.166667,IRELAND,IE,IRL
Louth [English] / Lú [Irish],,Essexford,53.9725,-6.638056,IRELAND,IE,IRL
"Laois [English, Irish]",,Errill,52.858889,-7.685278,IRELAND,IE,IRL
Mayo [English] / Maigh Eo [Irish],,Keenaghbeg,54.034722,-9.498611,IRELAND,IE,IRL
Mayo [English] / Maigh Eo [Irish],,Keenagh,54.034722,-9.498611,IRELAND,IE,IRL
Roscommon [English] / Ros Comáin [Irish],,Keadew,54.049444,-8.134444,IRELAND,IE,IRL
Roscommon [English] / Ros Comáin [Irish],,Céideadh,54.049444,-8.134444,IRELAND,IE,IRL
Monaghan [English] / Muineachán [Irish],,Shantonagh,54.050278,-6.850556,IRELAND,IE,IRL
Kerry [English] / Ciarraí [Irish],,Newtown Sandes,52.500556,-9.371389,IRELAND,IE,IRL
Kerry [English] / Ciarraí [Irish],,Maigh Mheáin,52.500556,-9.371389,IRELAND,IE,IRL
Wexford [English] / Loch Garman [Irish],,Bridgetown,52.228056,-6.544167,IRELAND,IE,IRL
Wexford [English] / Loch Garman [Irish],,Baile an Droichid,52.228056,-6.544167,IRELAND,IE,IRL
Cavan [English] / An Cabhán [Irish],,Cloverhill,54.080556,-7.367778,IRELAND,IE,IRL
Waterford [English] / Port Láirge [Irish],,Durrow Cross Roads,52.144444,-7.517778,IRELAND,IE,IRL
Waterford [English] / Port Láirge [Irish],,Durrow,52.144444,-7.517778,IRELAND,IE,IRL
Wicklow [English] / Cill Mhantáin [Irish],,Oldcourt,53.175556,-6.470556,IRELAND,IE,IRL
Kilkenny [English] / Cill Chainnigh [Irish],,Bishopshall,52.315,-7.120833,IRELAND,IE,IRL
Mayo [English] / Maigh Eo [Irish],,Binghamstown,54.203889,-10.036111,IRELAND,IE,IRL
Mayo [English] / Maigh Eo [Irish],,An Geata Mór,54.203889,-10.036111,IRELAND,IE,IRL
Wexford [English] / Loch Garman [Irish],,Churchtown,52.131389,-6.919722,IRELAND,IE,IRL
Kilkenny [English] / Cill Chainnigh [Irish],,Tullaghought,52.421944,-7.361667,IRELAND,IE,IRL
Donegal [English] / Dún na nGall [Irish],,Carrickmore,54.883333,-7.466667,IRELAND,IE,IRL
Donegal [English] / Dún na nGall [Irish],,Carrickmore Upper,54.883333,-7.466667,IRELAND,IE,IRL
Waterford [English] / Port Láirge [Irish],,Clooncogaile,52.183333,-7.716667,IRELAND,IE,IRL
Kerry [English] / Ciarraí [Irish],,Ducalla,51.783333,-10.333333,IRELAND,IE,IRL
Mayo [English] / Maigh Eo [Irish],,Burrishoole Bridge,53.9,-9.574722,IRELAND,IE,IRL
Mayo [English] / Maigh Eo [Irish],,Bunnahowen,54.190556,-9.905,IRELAND,IE,IRL
Mayo [English] / Maigh Eo [Irish],,Bunmahowen,54.190556,-9.905,IRELAND,IE,IRL
Cork [English] / Corcaigh [Irish],,Rossbrin,51.535278,-9.483611,IRELAND,IE,IRL
Waterford [English] / Port Láirge [Irish],,Glenard,51.991667,-7.616389,IRELAND,IE,IRL
Kerry [English] / Ciarraí [Irish],,Lisselton,52.495833,-9.575833,IRELAND,IE,IRL
Wicklow [English] / Cill Mhantáin [Irish],,Bri Chualann,53.202778,-6.098333,IRELAND,IE,IRL
Wicklow [English] / Cill Mhantáin [Irish],,Bray,53.202778,-6.098333,IRELAND,IE,IRL
Wicklow [English] / Cill Mhantáin [Irish],,Bré,53.202778,-6.098333,IRELAND,IE,IRL
Kildare [English] / Cill Dara [Irish],,Palatine,52.863889,-6.878889,IRELAND,IE,IRL
Wexford [English] / Loch Garman [Irish],,Ferns,52.588333,-6.499722,IRELAND,IE,IRL
Wexford [English] / Loch Garman [Irish],,Alder Trees,52.588333,-6.499722,IRELAND,IE,IRL
Wexford [English] / Loch Garman [Irish],,Fearna,52.588333,-6.499722,IRELAND,IE,IRL
Waterford [English] / Port Láirge [Irish],,Fennor,52.1575,-7.226389,IRELAND,IE,IRL
Louth [English] / Lú [Irish],,Mullacrew,53.936111,-6.540278,IRELAND,IE,IRL
Kerry [English] / Ciarraí [Irish],,Drommartin,52.428056,-9.699722,IRELAND,IE,IRL
Limerick [English] / Luimneach [Irish],,Drom Collachair,52.333333,-8.916667,IRELAND,IE,IRL
Limerick [English] / Luimneach [Irish],,Drumcollogher,52.333333,-8.916667,IRELAND,IE,IRL
Limerick [English] / Luimneach [Irish],,Dromcolliher,52.333333,-8.916667,IRELAND,IE,IRL
Limerick [English] / Luimneach [Irish],,Drumcolliher,52.333333,-8.916667,IRELAND,IE,IRL
Kilkenny [English] / Cill Chainnigh [Irish],,Kilmacow,52.306111,-7.171667,IRELAND,IE,IRL
Kilkenny [English] / Cill Chainnigh [Irish],,Cill Mhic Bhúith,52.306111,-7.171667,IRELAND,IE,IRL
Cork [English] / Corcaigh [Irish],,Ballynascarty,51.933889,-8.096111,IRELAND,IE,IRL
Cork [English] / Corcaigh [Irish],,An Seanbhaile Mór,52.220278,-8.501389,IRELAND,IE,IRL
Cork [English] / Corcaigh [Irish],,Shanballymore,52.220278,-8.501389,IRELAND,IE,IRL
Wexford [English] / Loch Garman [Irish],,Nethertown,52.180556,-6.359444,IRELAND,IE,IRL
Donegal [English] / Dún na nGall [Irish],,Dunglow,54.951111,-8.359167,IRELAND,IE,IRL
Donegal [English] / Dún na nGall [Irish],,Dungloe,54.951111,-8.359167,IRELAND,IE,IRL
Donegal [English] / Dún na nGall [Irish],,An Clochán Liath,54.951111,-8.359167,IRELAND,IE,IRL
Wexford [English] / Loch Garman [Irish],,Hilltown,52.274722,-6.706389,IRELAND,IE,IRL
Clare [English] / An Clár [Irish],,Cappagh,52.633333,-9.5,IRELAND,IE,IRL
Kerry [English] / Ciarraí [Irish],,Spa,52.283333,-9.783333,IRELAND,IE,IRL
Kerry [English] / Ciarraí [Irish],,Letterfinish,51.866667,-9.816667,IRELAND,IE,IRL
Donegal [English] / Dún na nGall [Irish],,Bundoran,54.466667,-8.283333,IRELAND,IE,IRL
Donegal [English] / Dún na nGall [Irish],,Bun Dobhráin,54.466667,-8.283333,IRELAND,IE,IRL
Limerick [English] / Luimneach [Irish],,Coonagh,52.663056,-8.689444,IRELAND,IE,IRL
Leitrim [English] / Liatroim [Irish],,Newtown Gore,54.043056,-7.673056,IRELAND,IE,IRL
Galway [English] / Gaillimh [Irish],,Newtown,53.258889,-8.453611,IRELAND,IE,IRL
Kerry [English] / Ciarraí [Irish],,Loghill,52.594444,-9.194722,IRELAND,IE,IRL
Clare [English] / An Clár [Irish],,Caher,52.964722,-8.645278,IRELAND,IE,IRL
Kilkenny [English] / Cill Chainnigh [Irish],,Byrnesgrove,52.806944,-7.285278,IRELAND,IE,IRL
Wexford [English] / Loch Garman [Irish],,Duncannon,52.220278,-6.916944,IRELAND,IE,IRL
Wexford [English] / Loch Garman [Irish],,Dún Canann,52.220278,-6.916944,IRELAND,IE,IRL
Donegal [English] / Dún na nGall [Irish],,Dún Damh,55.266667,-7.5,IRELAND,IE,IRL
Donegal [English] / Dún na nGall [Irish],,Dunaff,55.266667,-7.5,IRELAND,IE,IRL
Cork [English] / Corcaigh [Irish],,Cnocán na Biolraí,52.011389,-8.344167,IRELAND,IE,IRL
Cork [English] / Corcaigh [Irish],,Watergrasshill,52.011389,-8.344167,IRELAND,IE,IRL
Donegal [English] / Dún na nGall [Irish],,Glinsk,55.208611,-7.781944,IRELAND,IE,IRL
Cork [English] / Corcaigh [Irish],,Bandon,51.746944,-8.7425,IRELAND,IE,IRL
Cork [English] / Corcaigh [Irish],,Droichead na Bandon,51.746944,-8.7425,IRELAND,IE,IRL
Cork [English] / Corcaigh [Irish],,Baile Bhuirne,51.933333,-9.166667,IRELAND,IE,IRL
Cork [English] / Corcaigh [Irish],,Ballyvourney,51.933333,-9.166667,IRELAND,IE,IRL
"Laois [English, Irish]",,Camross,53.003611,-7.590556,IRELAND,IE,IRL
"Laois [English, Irish]",,Ballylehane Upper,52.895278,-7.121667,IRELAND,IE,IRL
Louth [English] / Lú [Irish],,Dunany,53.858056,-6.279167,IRELAND,IE,IRL
Kildare [English] / Cill Dara [Irish],,Shee Bridge,53.284167,-6.880833,IRELAND,IE,IRL
Offaly [English] / Uíbh Fhailí [Irish],,Cloneen,53.346944,-7.35,IRELAND,IE,IRL
Westmeath [English] / An Iarmhí [Irish],,Judgeville,53.348056,-7.381111,IRELAND,IE,IRL
Kildare [English] / Cill Dara [Irish],,Clonkeen Cross Roads,53.348611,-6.998056,IRELAND,IE,IRL
Offaly [English] / Uíbh Fhailí [Irish],,Derrybrat,53.201667,-7.7775,IRELAND,IE,IRL
Offaly [English] / Uíbh Fhailí [Irish],,Cappanageeragh,53.272222,-7.366944,IRELAND,IE,IRL
Galway [English] / Gaillimh [Irish],,Dooveher,53.332222,-9.886111,IRELAND,IE,IRL
Galway [English] / Gaillimh [Irish],,Drimmavohaun,53.344444,-9.205833,IRELAND,IE,IRL
Kildare [English] / Cill Dara [Irish],,Churchtown,53.005833,-7.050833,IRELAND,IE,IRL
Kildare [English] / Cill Dara [Irish],,Oldcourt,53.029167,-6.985278,IRELAND,IE,IRL
Galway [English] / Gaillimh [Irish],,Aughrus More,53.546667,-10.171667,IRELAND,IE,IRL
Kildare [English] / Cill Dara [Irish],,Coolaght,53.250833,-6.818056,IRELAND,IE,IRL
"Laois [English, Irish]",,Kylegrove,53.023611,-7.334167,IRELAND,IE,IRL
Offaly [English] / Uíbh Fhailí [Irish],,Taylor’s Cross,53.161667,-7.951389,IRELAND,IE,IRL
"Laois [English, Irish]",,Quaker’s Bridge,52.934444,-7.659167,IRELAND,IE,IRL
Offaly [English] / Uíbh Fhailí [Irish],,Ballyfarrell,53.235278,-7.643056,IRELAND,IE,IRL
Kildare [English] / Cill Dara [Irish],,Sherlockstown,53.261667,-6.651667,IRELAND,IE,IRL
Kildare [English] / Cill Dara [Irish],,Roseborough,53.236667,-6.6575,IRELAND,IE,IRL
Westmeath [English] / An Iarmhí [Irish],,Cumminstown,53.376667,-7.462778,IRELAND,IE,IRL
Galway [English] / Gaillimh [Irish],,Fiddaun,53.169444,-8.735833,IRELAND,IE,IRL
Meath [English] / An Mhí [Irish],,Summerseat,53.407222,-6.447222,IRELAND,IE,IRL
Mayo [English] / Maigh Eo [Irish],,Valley,54.013056,-9.961111,IRELAND,IE,IRL
Galway [English] / Gaillimh [Irish],,Ballynahallia,53.359167,-9.1575,IRELAND,IE,IRL
Roscommon [English] / Ros Comáin [Irish],,Old Town,53.298611,-8.122222,IRELAND,IE,IRL
"Laois [English, Irish]",,Tubbrid,52.977222,-7.69,IRELAND,IE,IRL
Wicklow [English] / Cill Mhantáin [Irish],,Coolnakilly,52.979444,-6.138056,IRELAND,IE,IRL
Wicklow [English] / Cill Mhantáin [Irish],,Eldon Bridge,52.955,-6.7025,IRELAND,IE,IRL
"Laois [English, Irish]",,Pimlico,52.956111,-7.061111,IRELAND,IE,IRL
Roscommon [English] / Ros Comáin [Irish],,Cornaveagh,53.299722,-8.070556,IRELAND,IE,IRL
Offaly [English] / Uíbh Fhailí [Irish],,Highstreet,53.251111,-7.941667,IRELAND,IE,IRL
Offaly [English] / Uíbh Fhailí [Irish],,Letter Cross Roads,53.088889,-7.624167,IRELAND,IE,IRL
Kildare [English] / Cill Dara [Irish],,Moatfield Cross Roads,53.019167,-6.908333,IRELAND,IE,IRL
Offaly [English] / Uíbh Fhailí [Irish],,Barnaboy,53.315556,-7.368056,IRELAND,IE,IRL
Wicklow [English] / Cill Mhantáin [Irish],,Ballintober,53.098889,-6.572222,IRELAND,IE,IRL
"Laois [English, Irish]",,Derrygile,53.094444,-7.329444,IRELAND,IE,IRL
Sligo [English] / Sligeach [Irish],,Killanly,54.168333,-9.125278,IRELAND,IE,IRL
Wicklow [English] / Cill Mhantáin [Irish],,Lockstown Upper,53.066667,-6.532778,IRELAND,IE,IRL
Mayo [English] / Maigh Eo [Irish],,Derreens,54.203056,-9.819167,IRELAND,IE,IRL
Clare [English] / An Clár [Irish],,Furnace,52.942222,-8.388333,IRELAND,IE,IRL
"Laois [English, Irish]",,New Inn Cross Roads,53.088333,-7.188611,IRELAND,IE,IRL
Offaly [English] / Uíbh Fhailí [Irish],,Kenned’s Cross Roads,53.113889,-7.890278,IRELAND,IE,IRL
Galway [English] / Gaillimh [Irish],,Leagaun,53.525278,-10.124722,IRELAND,IE,IRL
"Laois [English, Irish]",,Ballycarnan,52.998333,-7.303889,IRELAND,IE,IRL
Kildare [English] / Cill Dara [Irish],,Abbot’s Cross Roads,52.913889,-6.822778,IRELAND,IE,IRL
Offaly [English] / Uíbh Fhailí [Irish],,Rockfield,53.206667,-7.455,IRELAND,IE,IRL
Wicklow [English] / Cill Mhantáin [Irish],,Coolinarrig,52.947222,-6.674444,IRELAND,IE,IRL
Wicklow [English] / Cill Mhantáin [Irish],,Ballinteskin Cross Roads,52.9425,-6.075,IRELAND,IE,IRL
Offaly [English] / Uíbh Fhailí [Irish],,Ballybrin,53.005,-7.796389,IRELAND,IE,IRL
"Laois [English, Irish]",,Boley,52.925278,-7.117222,IRELAND,IE,IRL
Offaly [English] / Uíbh Fhailí [Irish],,Ballykilleen Cross Roads,53.316389,-7.1075,IRELAND,IE,IRL
Galway [English] / Gaillimh [Irish],,Drumatober,53.189167,-8.372222,IRELAND,IE,IRL
Galway [English] / Gaillimh [Irish],,Laughil,53.306389,-9.212778,IRELAND,IE,IRL
Wicklow [English] / Cill Mhantáin [Irish],,Cloghleagh,53.189167,-6.461389,IRELAND,IE,IRL
Louth [English] / Lú [Irish],,Murrays Cross,53.81,-6.297222,IRELAND,IE,IRL
Mayo [English] / Maigh Eo [Irish],,Cloonduff,53.926389,-9.459722,IRELAND,IE,IRL
Galway [English] / Gaillimh [Irish],,Tarrea,53.164444,-8.931389,IRELAND,IE,IRL
Kildare [English] / Cill Dara [Irish],,Woodlands,53.234167,-7.030833,IRELAND,IE,IRL
Offaly [English] / Uíbh Fhailí [Irish],,Derryharney,53.300833,-7.950833,IRELAND,IE,IRL
Wicklow [English] / Cill Mhantáin [Irish],,Carrig,53.151667,-6.518056,IRELAND,IE,IRL
Offaly [English] / Uíbh Fhailí [Irish],,Clonlack,53.3325,-7.192222,IRELAND,IE,IRL
Offaly [English] / Uíbh Fhailí [Irish],,Ballybryan,53.359167,-7.148889,IRELAND,IE,IRL
Wicklow [English] / Cill Mhantáin [Irish],,Knockadreet,53.036667,-6.183889,IRELAND,IE,IRL
Mayo [English] / Maigh Eo [Irish],,Croaghaun,54.096667,-9.765556,IRELAND,IE,IRL
Mayo [English] / Maigh Eo [Irish],,Knockmoyleen,54.044722,-9.836944,IRELAND,IE,IRL
Offaly [English] / Uíbh Fhailí [Irish],,Attinkee,53.208333,-7.923611,IRELAND,IE,IRL
Galway [English] / Gaillimh [Irish],,Bushfield,53.231944,-8.552778,IRELAND,IE,IRL
Galway [English] / Gaillimh [Irish],,Carra,53.259167,-8.504444,IRELAND,IE,IRL
"Laois [English, Irish]",,Mullaghanard Cross Roads,53.122778,-7.374722,IRELAND,IE,IRL
Offaly [English] / Uíbh Fhailí [Irish],,Ballard,53.250556,-7.507222,IRELAND,IE,IRL
Offaly [English] / Uíbh Fhailí [Irish],,Red Gate,53.2625,-7.505278,IRELAND,IE,IRL
"Laois [English, Irish]",,Sallyford Cross Roads,53.092222,-7.092222,IRELAND,IE,IRL
"Laois [English, Irish]",,Killenard,53.133056,-7.148611,IRELAND,IE,IRL
Roscommon [English] / Ros Comáin [Irish],,Duggarry,53.386667,-8.073611,IRELAND,IE,IRL
Roscommon [English] / Ros Comáin [Irish],,Mounthussey,53.387778,-8.023333,IRELAND,IE,IRL
Wicklow [English] / Cill Mhantáin [Irish],,Ballynabarny,52.976667,-6.116944,IRELAND,IE,IRL
Mayo [English] / Maigh Eo [Irish],,Mweelin,53.941944,-10.023889,IRELAND,IE,IRL
"Laois [English, Irish]",,Wolfhill,52.903056,-7.118611,IRELAND,IE,IRL
Offaly [English] / Uíbh Fhailí [Irish],,Reask,53.225833,-7.98,IRELAND,IE,IRL
Mayo [English] / Maigh Eo [Irish],,Tooreen,53.903333,-9.759167,IRELAND,IE,IRL
Louth [English] / Lú [Irish],,Philipstown,53.752778,-6.363889,IRELAND,IE,IRL
Mayo [English] / Maigh Eo [Irish],,Knocknalina,54.250278,-9.901389,IRELAND,IE,IRL
Offaly [English] / Uíbh Fhailí [Irish],,Idle Corner,53.210833,-7.650833,IRELAND,IE,IRL
Galway [English] / Gaillimh [Irish],,Meeneen,53.157778,-8.1575,IRELAND,IE,IRL
Westmeath [English] / An Iarmhí [Irish],,Toortisnamore,53.398611,-7.509444,IRELAND,IE,IRL
Westmeath [English] / An Iarmhí [Irish],,Tullaghanmore,53.407778,-7.543056,IRELAND,IE,IRL
Kildare [English] / Cill Dara [Irish],,Oldgrange,53.037778,-6.866111,IRELAND,IE,IRL
Kildare [English] / Cill Dara [Irish],,Broomfield Cross Roads,52.985,-6.857778,IRELAND,IE,IRL
"Laois [English, Irish]",,Pike of Rush Hall,52.950556,-7.5525,IRELAND,IE,IRL
Offaly [English] / Uíbh Fhailí [Irish],,Coole,53.329722,-7.253611,IRELAND,IE,IRL
Wicklow [English] / Cill Mhantáin [Irish],,Kilnacoo,52.889722,-6.199167,IRELAND,IE,IRL
Wicklow [English] / Cill Mhantáin [Irish],,Tullytusk,52.920556,-6.183333,IRELAND,IE,IRL
,,Ballyboggan Bridge,53.411389,-7.041944,IRELAND,IE,IRL
Kildare [English] / Cill Dara [Irish],,Clonagh,53.378333,-6.8175,IRELAND,IE,IRL
Galway [English] / Gaillimh [Irish],,Gortgar,53.289722,-9.23,IRELAND,IE,IRL
Offaly [English] / Uíbh Fhailí [Irish],,Limekiln,53.194722,-7.747222,IRELAND,IE,IRL
Galway [English] / Gaillimh [Irish],,Ballygarriff,53.235833,-8.815556,IRELAND,IE,IRL
"Laois [English, Irish]",,Brennanshill,52.922778,-7.173056,IRELAND,IE,IRL
Galway [English] / Gaillimh [Irish],,Ballydoogan,53.191111,-8.478056,IRELAND,IE,IRL
Westmeath [English] / An Iarmhí [Irish],,Moate,53.393889,-7.717222,IRELAND,IE,IRL
Westmeath [English] / An Iarmhí [Irish],,An Móta,53.393889,-7.717222,IRELAND,IE,IRL
Westmeath [English] / An Iarmhí [Irish],,Moneen,53.370556,-7.761944,IRELAND,IE,IRL
Wicklow [English] / Cill Mhantáin [Irish],,Milltown,53.054722,-6.719722,IRELAND,IE,IRL
Wicklow [English] / Cill Mhantáin [Irish],,Ath na Fuinseoige,53.008333,-6.111389,IRELAND,IE,IRL
Wicklow [English] / Cill Mhantáin [Irish],,Ashford,53.008333,-6.111389,IRELAND,IE,IRL
Cork [English] / Corcaigh [Irish],,Coolnagillagh,52.068611,-9.026667,IRELAND,IE,IRL
Cork [English] / Corcaigh [Irish],,Greenhall,52.213333,-8.803333,IRELAND,IE,IRL
Kerry [English] / Ciarraí [Irish],,Mill Bridge,52.066667,-9.537222,IRELAND,IE,IRL
Kerry [English] / Ciarraí [Irish],,Glenfleak,52.013333,-9.357222,IRELAND,IE,IRL
Cork [English] / Corcaigh [Irish],,Lissardagh,51.86,-8.88,IRELAND,IE,IRL
Kerry [English] / Ciarraí [Irish],,Aghnanus Bridge,51.953889,-9.390833,IRELAND,IE,IRL
Cork [English] / Corcaigh [Irish],,Black Cross Roads,51.845,-8.701111,IRELAND,IE,IRL
Cork [English] / Corcaigh [Irish],,Ballynatrideen,52.311111,-8.704444,IRELAND,IE,IRL
Cork [English] / Corcaigh [Irish],,Boolard,52.324722,-8.765278,IRELAND,IE,IRL
Cork [English] / Corcaigh [Irish],,Derreeny Bridge,51.613056,-9.266111,IRELAND,IE,IRL
Kerry [English] / Ciarraí [Irish],,O’Connell Bridge,52.182778,-9.535278,IRELAND,IE,IRL
Waterford [English] / Port Láirge [Irish],,Westtown,52.139444,-7.174444,IRELAND,IE,IRL
Cork [English] / Corcaigh [Irish],,Tooreen Beg,51.686111,-9.8475,IRELAND,IE,IRL
Kerry [English] / Ciarraí [Irish],,Kilsarkan,52.150833,-9.430556,IRELAND,IE,IRL
Kerry [English] / Ciarraí [Irish],,Rice Bridge,52.170833,-9.373056,IRELAND,IE,IRL
Cork [English] / Corcaigh [Irish],,Farran,51.874444,-8.737778,IRELAND,IE,IRL
Cork [English] / Corcaigh [Irish],,Luskin’s Bridge,51.936389,-8.77,IRELAND,IE,IRL
Cork [English] / Corcaigh [Irish],,Bedlnamorive,51.932222,-8.857222,IRELAND,IE,IRL
Cork [English] / Corcaigh [Irish],,Aghnamarroge Cross Roads,51.836389,-8.748333,IRELAND,IE,IRL
Kerry [English] / Ciarraí [Irish],,Ballysheen,52.358333,-9.710556,IRELAND,IE,IRL
Cork [English] / Corcaigh [Irish],,Templemichael Bridge,51.969722,-8.439167,IRELAND,IE,IRL
Cork [English] / Corcaigh [Irish],,Kippagh Bridge,51.663056,-9.074444,IRELAND,IE,IRL
Kerry [English] / Ciarraí [Irish],,Brackloon,51.855833,-9.847778,IRELAND,IE,IRL
Kerry [English] / Ciarraí [Irish],,Gortnaprocess,52.097222,-9.285,IRELAND,IE,IRL
Waterford [English] / Port Láirge [Irish],,Lyon’s Cross Roads,52.135278,-8.042778,IRELAND,IE,IRL
Cork [English] / Corcaigh [Irish],,Currabeha,52.1225,-8.133056,IRELAND,IE,IRL
Kerry [English] / Ciarraí [Irish],,Derrymore,52.240278,-9.8425,IRELAND,IE,IRL
Cork [English] / Corcaigh [Irish],,Killeens Cross,51.924722,-8.516389,IRELAND,IE,IRL
Cork [English] / Corcaigh [Irish],,Curragh,51.701944,-9.652222,IRELAND,IE,IRL
Cork [English] / Corcaigh [Irish],,Ballymacwilliam,51.612222,-8.855833,IRELAND,IE,IRL
Kerry [English] / Ciarraí [Irish],,Ballynahallia,52.218889,-9.416667,IRELAND,IE,IRL
Cork [English] / Corcaigh [Irish],,Cornahinch Cross Roads,52.211111,-8.603889,IRELAND,IE,IRL
Cork [English] / Corcaigh [Irish],,Lyrenageeha,51.873611,-9.280833,IRELAND,IE,IRL
Cork [English] / Corcaigh [Irish],,Dough,51.472778,-9.768889,IRELAND,IE,IRL
Cork [English] / Corcaigh [Irish],,Graig Upper,52.26,-8.498056,IRELAND,IE,IRL
Cork [English] / Corcaigh [Irish],,Oldcastletown,52.259167,-8.428611,IRELAND,IE,IRL
Cork [English] / Corcaigh [Irish],,Ballincourlea,51.882222,-8.020556,IRELAND,IE,IRL
Cork [English] / Corcaigh [Irish],,Kilmona,51.992778,-8.570833,IRELAND,IE,IRL
Cork [English] / Corcaigh [Irish],,East Grove,51.870833,-8.206944,IRELAND,IE,IRL
Kerry [English] / Ciarraí [Irish],,Gortacareen,52.03,-9.291667,IRELAND,IE,IRL
Waterford [English] / Port Láirge [Irish],,Bohernamuck Cross Roads,52.147222,-7.342778,IRELAND,IE,IRL
Cork [English] / Corcaigh [Irish],,Barleyhill,52.241111,-8.986944,IRELAND,IE,IRL
Cork [English] / Corcaigh [Irish],,Aldworth’s Bridge,52.217778,-9.021389,IRELAND,IE,IRL
Cork [English] / Corcaigh [Irish],,Ballynavar Bridge,51.616389,-8.978611,IRELAND,IE,IRL
Cork [English] / Corcaigh [Irish],,Duneen,51.5775,-8.881667,IRELAND,IE,IRL
Cork [English] / Corcaigh [Irish],,White’s Cross,51.9375,-8.449167,IRELAND,IE,IRL
Cork [English] / Corcaigh [Irish],,Kilcronan,51.959444,-8.525,IRELAND,IE,IRL
Kerry [English] / Ciarraí [Irish],,Killowen,51.886389,-9.561667,IRELAND,IE,IRL
Cork [English] / Corcaigh [Irish],,Pigeonhill Cross Roads,51.961389,-8.294444,IRELAND,IE,IRL
Donegal [English] / Dún na nGall [Irish],,Crumlin,54.760556,-8.455556,IRELAND,IE,IRL
"Laois [English, Irish]",,Commons,53.171944,-7.380556,IRELAND,IE,IRL
"Laois [English, Irish]",,Laught,53.171944,-7.380556,IRELAND,IE,IRL
Wexford [English] / Loch Garman [Irish],,Ballyeden Bridge,52.443611,-6.673889,IRELAND,IE,IRL
Donegal [English] / Dún na nGall [Irish],,Tullyvoos,54.615833,-8.277778,IRELAND,IE,IRL
Kilkenny [English] / Cill Chainnigh [Irish],,Dinin Bridge,52.716389,-7.291111,IRELAND,IE,IRL
Donegal [English] / Dún na nGall [Irish],,Cloghfin,54.794167,-7.551944,IRELAND,IE,IRL
Donegal [English] / Dún na nGall [Irish],,Bungosteen Bridge,54.6725,-8.420556,IRELAND,IE,IRL
Donegal [English] / Dún na nGall [Irish],,Meentullynagarn Bridge,54.692778,-8.400278,IRELAND,IE,IRL
Leitrim [English] / Liatroim [Irish],,Gradoge,53.951667,-7.703611,IRELAND,IE,IRL
Waterford [English] / Port Láirge [Irish],,Grallagh Bridge,52.008056,-7.755556,IRELAND,IE,IRL
Waterford [English] / Port Láirge [Irish],,Gates,52.0075,-7.623333,IRELAND,IE,IRL
Kerry [English] / Ciarraí [Irish],,Reenard Cross,51.934722,-10.241111,IRELAND,IE,IRL
Mayo [English] / Maigh Eo [Irish],,Dooyork,54.105556,-9.943611,IRELAND,IE,IRL
Kilkenny [English] / Cill Chainnigh [Irish],,Ballytarsney,52.2975,-7.246667,IRELAND,IE,IRL
Donegal [English] / Dún na nGall [Irish],,Cavan,54.8225,-7.698333,IRELAND,IE,IRL
Donegal [English] / Dún na nGall [Irish],,Gay Town,55.106389,-8.135833,IRELAND,IE,IRL
Donegal [English] / Dún na nGall [Irish],,Three Trees,55.113611,-7.2125,IRELAND,IE,IRL
Donegal [English] / Dún na nGall [Irish],,Gortaway,55.034167,-7.588333,IRELAND,IE,IRL
Louth [English] / Lú [Irish],,Rogans Cross Roads,54.004444,-6.177222,IRELAND,IE,IRL
Kilkenny [English] / Cill Chainnigh [Irish],,Rosconnell Bridge,52.851111,-7.328889,IRELAND,IE,IRL
Donegal [English] / Dún na nGall [Irish],,Bunnamayne,55.030278,-7.388611,IRELAND,IE,IRL
Cork [English] / Corcaigh [Irish],,Coolcoulagata,51.610278,-9.515,IRELAND,IE,IRL
Cork [English] / Corcaigh [Irish],,Behagh,51.756389,-9.054722,IRELAND,IE,IRL
Cork [English] / Corcaigh [Irish],,Brinny,51.789444,-8.703889,IRELAND,IE,IRL
Kerry [English] / Ciarraí [Irish],,Bucslikane Bridge,51.815833,-10.158333,IRELAND,IE,IRL
Kerry [English] / Ciarraí [Irish],,Curracitty,52.159167,-9.501111,IRELAND,IE,IRL
Kerry [English] / Ciarraí [Irish],,Carrigcannon,52.332778,-9.5025,IRELAND,IE,IRL
Cork [English] / Corcaigh [Irish],,Barrel Cross Roads,51.684444,-8.572778,IRELAND,IE,IRL
Donegal [English] / Dún na nGall [Irish],,Meenacung,55.045556,-8.191944,IRELAND,IE,IRL
Limerick [English] / Luimneach [Irish],,Daar Bridge,52.471389,-9.067222,IRELAND,IE,IRL
Donegal [English] / Dún na nGall [Irish],,Raws Lower,54.760556,-7.601111,IRELAND,IE,IRL
Sligo [English] / Sligeach [Irish],,Clonnkeelaun,54.160833,-8.994444,IRELAND,IE,IRL
Monaghan [English] / Muineachán [Irish],,Cavan,54.399444,-7.039444,IRELAND,IE,IRL
Donegal [English] / Dún na nGall [Irish],,Jackstown,55.028611,-8.271111,IRELAND,IE,IRL
Kilkenny [English] / Cill Chainnigh [Irish],,Cappanagh,52.537778,-7.050278,IRELAND,IE,IRL
Monaghan [English] / Muineachán [Irish],,Feegavla,54.008611,-6.656389,IRELAND,IE,IRL
Monaghan [English] / Muineachán [Irish],,Culloville,54.052222,-6.666111,IRELAND,IE,IRL
Monaghan [English] / Muineachán [Irish],,Shanco,53.996111,-6.836944,IRELAND,IE,IRL
Mayo [English] / Maigh Eo [Irish],,Tomboholla,53.945278,-8.821389,IRELAND,IE,IRL
Cork [English] / Corcaigh [Irish],,Knockoura,51.646667,-9.981111,IRELAND,IE,IRL
Cork [English] / Corcaigh [Irish],,Tooreenavuscaun,52.170833,-9.117222,IRELAND,IE,IRL
Cork [English] / Corcaigh [Irish],,Bantigeen Cross Roads,52.253889,-8.606944,IRELAND,IE,IRL
Mayo [English] / Maigh Eo [Irish],,Cushleeka,53.896111,-9.794167,IRELAND,IE,IRL
Mayo [English] / Maigh Eo [Irish],,Cushlecka,53.896111,-9.794167,IRELAND,IE,IRL
Donegal [English] / Dún na nGall [Irish],,Baylet,55.054722,-7.461667,IRELAND,IE,IRL
Donegal [English] / Dún na nGall [Irish],,Tieveborne,55.064444,-7.429167,IRELAND,IE,IRL
Donegal [English] / Dún na nGall [Irish],,Ture,55.085556,-7.247778,IRELAND,IE,IRL
Galway [English] / Gaillimh [Irish],,Derreen,53.0325,-8.727778,IRELAND,IE,IRL
Sligo [English] / Sligeach [Irish],,Doonally,54.183056,-8.419444,IRELAND,IE,IRL
Sligo [English] / Sligeach [Irish],,Doonflin Lower,54.239444,-8.7575,IRELAND,IE,IRL
Waterford [English] / Port Láirge [Irish],,Spaville,52.347222,-7.693611,IRELAND,IE,IRL
Kilkenny [English] / Cill Chainnigh [Irish],,Dansefort Cross Roads,52.583056,-7.235,IRELAND,IE,IRL
Carlow [English] / Ceatharlach [Irish],,Knockballystine Cross Roads,52.829444,-6.642222,IRELAND,IE,IRL
Kilkenny [English] / Cill Chainnigh [Irish],,Ryan’s Cross Roads,52.806111,-7.163056,IRELAND,IE,IRL
Wexford [English] / Loch Garman [Irish],,Holmestown,52.3475,-6.578333,IRELAND,IE,IRL
