CountrySubdivision,CountrySubdivisionCode,Municipality,Latitude,Longitude,Country,CountryCode,CountryCode3
Benguet,,Yapdue,16.438056,120.6275,PHILIPPINES,PH,PHL
Leyte,,Yapad,11.107222,124.886944,PHILIPPINES,PH,PHL
Nueva Vizcaya,,Yangiran,16.2,120.95,PHILIPPINES,PH,PHL
Basilan,,Yacan,6.572222,122.191111,PHILIPPINES,PH,PHL
Iloilo,,Yabun,10.95,122.5,PHILIPPINES,PH,PHL
Samar,,Ya-bon,11.709167,125.097222,PHILIPPINES,PH,PHL
Camarines Sur,,Yabo,13.733333,123.25,PHILIPPINES,PH,PHL
Cebu,,Zapatera,10.3,123.883333,PHILIPPINES,PH,PHL
Davao,,Ventura,7.209722,125.385556,PHILIPPINES,PH,PHL
Misamis Oriental,,Ven Colony,8.743056,125.039167,PHILIPPINES,PH,PHL
Ilocos Norte,,Zapang,18.283333,120.716667,PHILIPPINES,PH,PHL
Southern Leyte,,Zamora,10.35,124.95,PHILIPPINES,PH,PHL
Leyte,,Ylandoguia,11.183333,124.8,PHILIPPINES,PH,PHL
Maguindanao,,Zamboangan,6.883333,124.7,PHILIPPINES,PH,PHL
Maguindanao,,Zamboagan,6.883333,124.7,PHILIPPINES,PH,PHL
Leyte,,Zabala,11.148611,124.775,PHILIPPINES,PH,PHL
Leyte,,Yuro,11.318611,124.832222,PHILIPPINES,PH,PHL
Albay,,Yentucan,13.033333,123.733333,PHILIPPINES,PH,PHL
Leyte,,Ibag,11.315,124.823611,PHILIPPINES,PH,PHL
Leyte,,Ybag,11.315,124.823611,PHILIPPINES,PH,PHL
Quezon,,Yaugin,13.983333,121.7,PHILIPPINES,PH,PHL
Samar,,Yawa,12.066667,124.983333,PHILIPPINES,PH,PHL
Samar,,Yaua,12.066667,124.983333,PHILIPPINES,PH,PHL
Capiz,,Yating,11.412778,123.0225,PHILIPPINES,PH,PHL
Davao del Sur,,Wines,7.193889,125.389167,PHILIPPINES,PH,PHL
Cavite,,Welfareville,14.577778,121.033611,PHILIPPINES,PH,PHL
Abra,,Wayangan,17.2,120.683333,PHILIPPINES,PH,PHL
Benguet,,Zig Zag Gate,16.366667,120.6,PHILIPPINES,PH,PHL
Iloilo,,Zerrudo,11.227778,123.023056,PHILIPPINES,PH,PHL
Iloilo,,Zarrague,10.933333,122.633333,PHILIPPINES,PH,PHL
Iloilo,,Zarraga,10.819722,122.608056,PHILIPPINES,PH,PHL
Iloilo,,Zarrago,10.819722,122.608056,PHILIPPINES,PH,PHL
Sorsogon,,Zaragoza,12.873056,124.083333,PHILIPPINES,PH,PHL
Iloilo,,Zaragoza,11.466667,123.083333,PHILIPPINES,PH,PHL
Leyte,,Zaragoza,10.3,124.8,PHILIPPINES,PH,PHL
Cebu,,Zaragosa,9.866667,123.4,PHILIPPINES,PH,PHL
Cebu,,Zaragoza,9.866667,123.4,PHILIPPINES,PH,PHL
Pampanga,,Zapote,15.083333,120.7,PHILIPPINES,PH,PHL
Misamis Oriental,,Ysalina,8.661389,124.823056,PHILIPPINES,PH,PHL
Leyte,,Ypad,11.131667,124.863333,PHILIPPINES,PH,PHL
Ilocos Sur,,San Miguel de Puro,17.508056,120.400833,PHILIPPINES,PH,PHL
Ilocos Sur,,Poro,17.508056,120.400833,PHILIPPINES,PH,PHL
Ilocos Sur,,San Miguel de Poro,17.508056,120.400833,PHILIPPINES,PH,PHL
Ilocos Norte,,San Miguel,18.25,120.6,PHILIPPINES,PH,PHL
Agusan del Sur,,Sibagat Viejo,8.8225,125.6975,PHILIPPINES,PH,PHL
Agusan del Sur,,Sibagat,8.8225,125.6975,PHILIPPINES,PH,PHL
Bataan,,Sibacan,14.7,120.55,PHILIPPINES,PH,PHL
Zamboanga del Sur,,Siay,7.741667,122.178889,PHILIPPINES,PH,PHL
Occidental Mindoro,,Salahan,12.983333,120.85,PHILIPPINES,PH,PHL
Misamis Oriental,,Salagsag,8.9,124.826111,PHILIPPINES,PH,PHL
Camarines Norte,,Santa Cruz,14.15,122.833333,PHILIPPINES,PH,PHL
Laguna,,Santa Cruz,14.116667,121.283333,PHILIPPINES,PH,PHL
Camarines Sur,,Santa Cruz,13.816667,123.316667,PHILIPPINES,PH,PHL
Naga,,Santa Cruz,13.616667,123.183333,PHILIPPINES,PH,PHL
Albay,,Santa Cruz,13.233333,123.516667,PHILIPPINES,PH,PHL
Sorsogon,,Santa Cruz,13.040833,124.012778,PHILIPPINES,PH,PHL
Sorsogon,,Taboc,12.841111,123.981389,PHILIPPINES,PH,PHL
Eastern Samar,,Tabok,11.419167,125.543611,PHILIPPINES,PH,PHL
Eastern Samar,,Taboc,11.419167,125.543611,PHILIPPINES,PH,PHL
Danao,,Tabok,10.533333,124.016667,PHILIPPINES,PH,PHL
Danao,,Taboc,10.533333,124.016667,PHILIPPINES,PH,PHL
Leyte,,Tabok,10.433333,124.733333,PHILIPPINES,PH,PHL
Leyte,,Taboc,10.433333,124.733333,PHILIPPINES,PH,PHL
Romblon,,Taboboan,12.35,121.983333,PHILIPPINES,PH,PHL
Rizal,,Subay,14.483333,121.233333,PHILIPPINES,PH,PHL
Cavite,,Tambu,14.192222,120.8625,PHILIPPINES,PH,PHL
Cavite,,Tambo,14.192222,120.8625,PHILIPPINES,PH,PHL
Southern Leyte,,Tambo,10.05,125.016667,PHILIPPINES,PH,PHL
Lanao del Norte,,Tambo,8.079722,124.051944,PHILIPPINES,PH,PHL
Lanao del Sur,,Tambo,8.033333,124.266667,PHILIPPINES,PH,PHL
Maguindanao,,Tambo,7.366667,124.266667,PHILIPPINES,PH,PHL
Nueva Ecija,,Tulat,15.783333,121,PHILIPPINES,PH,PHL
Bohol,,Tulang,10.15,124.233333,PHILIPPINES,PH,PHL
Cebu,,Tulang,9.929722,123.512222,PHILIPPINES,PH,PHL
Cebu,,Tulon,9.929722,123.512222,PHILIPPINES,PH,PHL
Sulu,,Tulag,5.516667,120.816667,PHILIPPINES,PH,PHL
Samar,,Tulac,11.566667,124.933333,PHILIPPINES,PH,PHL
Samar,,Tolac,11.566667,124.933333,PHILIPPINES,PH,PHL
Samar,,Tola,11.885278,125.246111,PHILIPPINES,PH,PHL
Samar,,Tula,11.885278,125.246111,PHILIPPINES,PH,PHL
Davao del Sur,,Tukulan,6.302778,125.601111,PHILIPPINES,PH,PHL
Pangasinan,,Tuktuk,15.9,120.383333,PHILIPPINES,PH,PHL
Agusan del Norte,,Santa Ana,9.192778,125.564444,PHILIPPINES,PH,PHL
Bukidnon,,Santa Ana,8.536944,124.801944,PHILIPPINES,PH,PHL
Agusan del Sur,,Santa Ana,8.506111,125.976667,PHILIPPINES,PH,PHL
Negros Oriental,,San Isidro,9.683333,123.15,PHILIPPINES,PH,PHL
Cebu,,Simala,9.970833,123.616389,PHILIPPINES,PH,PHL
South Cotabato,,Silway 8,6.198056,125.081389,PHILIPPINES,PH,PHL
South Cotabato,,Silway,6.198056,125.081389,PHILIPPINES,PH,PHL
South Cotabato,,Silway Eight,6.198056,125.081389,PHILIPPINES,PH,PHL
South Cotabato,,Silway Walo,6.198056,125.081389,PHILIPPINES,PH,PHL
Cebu,,Sayaw,10.3,123.9,PHILIPPINES,PH,PHL
Cebu,,Sayao,10.424444,123.856389,PHILIPPINES,PH,PHL
Maguindanao,,Tamang,7.15,124.1,PHILIPPINES,PH,PHL
Sultan Kudarat,,Tamaneg,6.65,124.85,PHILIPPINES,PH,PHL
Aklan,,Tamalagon,11.716667,122.283333,PHILIPPINES,PH,PHL
Ilocos Sur,,Tamag,17.566667,120.383333,PHILIPPINES,PH,PHL
Iloilo,,Ulayan,11.116667,122.616667,PHILIPPINES,PH,PHL
Basilan,,Tiputipu,6.5,122.066667,PHILIPPINES,PH,PHL
Isabela,,San Juan,17.345556,121.695556,PHILIPPINES,PH,PHL
Cebu,,Sangi,10.3,123.883333,PHILIPPINES,PH,PHL
Cebu,,Sangi,10.166667,123.716667,PHILIPPINES,PH,PHL
Davao del Sur,,Sanghai,7.102778,125.453611,PHILIPPINES,PH,PHL
Iloilo,,San Geronimo,11.05,122.85,PHILIPPINES,PH,PHL
Bukidnon,,Sangaya,8.059722,124.778889,PHILIPPINES,PH,PHL
Sultan Kudarat,,Sañgay,6.445,124.044444,PHILIPPINES,PH,PHL
Quezon,,Silañgang Mayao,13.933333,121.6,PHILIPPINES,PH,PHL
Quezon,,Silañsang Isabang,13.966667,121.566667,PHILIPPINES,PH,PHL
Quezon,,Silañgang Isabang,13.966667,121.566667,PHILIPPINES,PH,PHL
Quezon,,Isabang,13.966667,121.566667,PHILIPPINES,PH,PHL
Laguna,,Silangan Bucal,14.15,121.45,PHILIPPINES,PH,PHL
Cavite,,Silangan,14.416667,120.85,PHILIPPINES,PH,PHL
Samar,,Silanga,11.818056,124.843056,PHILIPPINES,PH,PHL
Sulu,,Silancot,5.5,120.75,PHILIPPINES,PH,PHL
Palawan,,Tagbarungis,9.573056,118.6725,PHILIPPINES,PH,PHL
Camarines Norte,,Tagbao,14.166667,122.8,PHILIPPINES,PH,PHL
Cebu,,Tagbao,10.3,123.9,PHILIPPINES,PH,PHL
Sorsogon,,Tublihon,12.966667,124,PHILIPPINES,PH,PHL
Cotabato,,Tinitioan,7.201944,124.57,PHILIPPINES,PH,PHL
Northern Samar,,Tinitdan,12.316667,124.666667,PHILIPPINES,PH,PHL
Davao del Sur,,Tinina,5.376667,125.393611,PHILIPPINES,PH,PHL
Palawan,,Tiniguiban,9.786111,118.739167,PHILIPPINES,PH,PHL
Agusan del Norte,,Tinigbasan,9.265278,125.509722,PHILIPPINES,PH,PHL
Misamis Oriental,,San Juan,8.706944,124.867222,PHILIPPINES,PH,PHL
Surigao del Sur,,San Juan,8.4175,126.372222,PHILIPPINES,PH,PHL
Occidental Mindoro,,Tubigan,13.45,120.466667,PHILIPPINES,PH,PHL
Iloilo,,Tubigan,10.8,122.65,PHILIPPINES,PH,PHL
Cebu,,Tubigan,10.45,124.016667,PHILIPPINES,PH,PHL
Batangas,,Tubig,13.983333,120.95,PHILIPPINES,PH,PHL
Tarlac,,Tubectubang,15.761944,120.570278,PHILIPPINES,PH,PHL
Antique,,Tubcan,11.783333,122.066667,PHILIPPINES,PH,PHL
Ilocos Norte,,Tubburan,18.25,120.616667,PHILIPPINES,PH,PHL
Cotabato,,Subpañgan,7.266667,124.216667,PHILIPPINES,PH,PHL
Zamboanaga del Sur,,Subic,15.433333,119.9,PHILIPPINES,PH,PHL
Ilocos Sur,,Subec,17.583333,120.35,PHILIPPINES,PH,PHL
Ilocos Sur,,Subec,17.516667,120.416667,PHILIPPINES,PH,PHL
Sulu,,Takut,5.95,121.2,PHILIPPINES,PH,PHL
Davao del Sur,,Tulogan,6.648333,125.319722,PHILIPPINES,PH,PHL
Cebu,,Tulic,9.866667,123.583333,PHILIPPINES,PH,PHL
Cebu,,Tulik,9.866667,123.583333,PHILIPPINES,PH,PHL
Davao del Sur,,Tuli,7.233333,125.416667,PHILIPPINES,PH,PHL
Sulu,,Tulayan,6.02,121.316111,PHILIPPINES,PH,PHL
Iloilo,,San Matias,11,122.666667,PHILIPPINES,PH,PHL
Leyte,,San Mateo,11.3,124.7,PHILIPPINES,PH,PHL
Butuan,,San Mateo,8.786944,125.594722,PHILIPPINES,PH,PHL
Quezon,,Tabyunan,13.6,122.45,PHILIPPINES,PH,PHL
Pampanga,,Tabuyuc,14.966667,120.766667,PHILIPPINES,PH,PHL
Toledo,,Tabuuan,4.965278,120.011944,PHILIPPINES,PH,PHL
Toledo,,Tabunan,4.965278,120.011944,PHILIPPINES,PH,PHL
Albay,,Tabunturan,13.416667,123.683333,PHILIPPINES,PH,PHL
Davao del Sur,,Toril,7.014722,125.497778,PHILIPPINES,PH,PHL
Danao,,Timobo,10.516667,124,PHILIPPINES,PH,PHL
Pangasinan,,Timmagpao,15.933333,120.666667,PHILIPPINES,PH,PHL
Iloilo,,Medina,10.983333,122.733333,PHILIPPINES,PH,PHL
Cavite,,Medicion Primero,14.433333,120.933333,PHILIPPINES,PH,PHL
Iloilo,,Zona Sur,11,122.833333,PHILIPPINES,PH,PHL
Iloilo,,Banate,11,122.833333,PHILIPPINES,PH,PHL
Iloilo,,Zona Sur,10.983333,122.733333,PHILIPPINES,PH,PHL
Iloilo,,Anilao,10.983333,122.733333,PHILIPPINES,PH,PHL
Iloilo,,Zona Norte,10.983333,122.733333,PHILIPPINES,PH,PHL
Iloilo,,Zona Norte,11.016667,122.75,PHILIPPINES,PH,PHL
Abra,,San Miguel,17.55,120.733333,PHILIPPINES,PH,PHL
Nueva Vizcaya,,San Miguel,16.358333,121.0925,PHILIPPINES,PH,PHL
Northern Samar,,Washington,12.4625,124.643056,PHILIPPINES,PH,PHL
Quezon,,Wasay Ilaya,13.733333,122.5,PHILIPPINES,PH,PHL
Lanao del Sur,,Wao,7.9,124.383333,PHILIPPINES,PH,PHL
Sulu,,Wanni Pianjihan,5.942778,120.918333,PHILIPPINES,PH,PHL
Cebu,,Subandaku,10.316667,123.9,PHILIPPINES,PH,PHL
Capiz,,Tapulang,11.483333,122.816667,PHILIPPINES,PH,PHL
Zamboanaga del Sur,,San Andres,15.305,120.040278,PHILIPPINES,PH,PHL
Quezon,,San Andres,13.933333,121.416667,PHILIPPINES,PH,PHL
Catanduanes,,San Andres,13.6,124.1,PHILIPPINES,PH,PHL
Samar,,San Andres,11.783333,124.9,PHILIPPINES,PH,PHL
La Union,,San Martin,16.716667,120.35,PHILIPPINES,PH,PHL
Misamis Oriental,,San Martin,8.561111,124.771389,PHILIPPINES,PH,PHL
Abra,,South Balioag,17.4,120.583333,PHILIPPINES,PH,PHL
Albay,,Soton,13.283333,123.966667,PHILIPPINES,PH,PHL
Albay,,Sosong,13.2,123.483333,PHILIPPINES,PH,PHL
Iloilo,,Ticuan,10.783333,122.383333,PHILIPPINES,PH,PHL
Maguindanao,,Ulandigon,6.76,124.511389,PHILIPPINES,PH,PHL
Iloilo,,Tugas,11.266667,123.016667,PHILIPPINES,PH,PHL
Leyte,,Tugas,10.3075,124.826944,PHILIPPINES,PH,PHL
Sulu,,Tugas,6.06,121.0525,PHILIPPINES,PH,PHL
Camarines Sur,,San Roque,13.65,123.166667,PHILIPPINES,PH,PHL
Sorsogon,,San Roque,13.011944,124.023611,PHILIPPINES,PH,PHL
Sorsogon,,San Rogue,13.011944,124.023611,PHILIPPINES,PH,PHL
Northern Samar,,San Roque,12.533333,124.866667,PHILIPPINES,PH,PHL
Maguindanao,,San Juan Rancheria,7.133333,124.333333,PHILIPPINES,PH,PHL
Eastern Samar,,Suroc,11,125.8,PHILIPPINES,PH,PHL
Eastern Samar,,Soroc,11,125.8,PHILIPPINES,PH,PHL
Camarines Sur,,Suro,13.7,123.25,PHILIPPINES,PH,PHL
Agusan del Norte,,Talo-ao,8.953889,125.423889,PHILIPPINES,PH,PHL
Lanao del Sur,,Taliugun,7.8,124.116667,PHILIPPINES,PH,PHL
Maguindanao,,Talitay,6.996667,124.705278,PHILIPPINES,PH,PHL
Cebu,,Ughay,10.316667,123.916667,PHILIPPINES,PH,PHL
Occidental Mindoro,,Ugat Pajo,13.8,120.2,PHILIPPINES,PH,PHL
Cotabato,,Ugalingan,7.156944,124.800833,PHILIPPINES,PH,PHL
Quezon,,Tubog,14.2,121.733333,PHILIPPINES,PH,PHL
Quezon,,Tubog,13.233333,122.533333,PHILIPPINES,PH,PHL
Iloilo,,San Florentino,11.170278,122.809722,PHILIPPINES,PH,PHL
Camarines Sur,,Sigamut,13.7,123.05,PHILIPPINES,PH,PHL
Maguindanao,,Sifarran,7,124.316667,PHILIPPINES,PH,PHL
Samar,,Sierra,11.825278,124.695,PHILIPPINES,PH,PHL
Batangas,,Sico II,13.826111,121.373333,PHILIPPINES,PH,PHL
Batangas,,Sico Segundo,13.826111,121.373333,PHILIPPINES,PH,PHL
Pangasinan,,Talim,15.966667,120.333333,PHILIPPINES,PH,PHL
Cotabato,,Talik,7.033333,124.6,PHILIPPINES,PH,PHL
Sultan Kudarat,,Talik,6.565556,124.8025,PHILIPPINES,PH,PHL
Sorsogon,,Taligna,12.85,123.983333,PHILIPPINES,PH,PHL
Butuan,,Taligaman,8.904444,125.655833,PHILIPPINES,PH,PHL
Maguindanao,,Tariken,7.271389,124.240556,PHILIPPINES,PH,PHL
Cotabato,,Tarigan,7.153333,124.298333,PHILIPPINES,PH,PHL
Cotabato,,Tiugon,7.153333,124.298333,PHILIPPINES,PH,PHL
Toledo,,Tanawakan,5.154444,119.881667,PHILIPPINES,PH,PHL
Toledo,,Tarawakan,5.154444,119.881667,PHILIPPINES,PH,PHL
Toledo,,Tarawaken,5.154444,119.881667,PHILIPPINES,PH,PHL
Leyte,,San Antonio,11.066667,124.883333,PHILIPPINES,PH,PHL
Iloilo,,San Antonio,11.05,122.85,PHILIPPINES,PH,PHL
Iloilo,,San Antonio,10.716667,122.533333,PHILIPPINES,PH,PHL
Iloilo,,San Antonio,10.693889,122.4975,PHILIPPINES,PH,PHL
Southern Leyte,,San Antonio,9.966667,125.233333,PHILIPPINES,PH,PHL
Bohol,,San Antonio,9.883333,124.066667,PHILIPPINES,PH,PHL
Cebu,,San Antonio,9.656389,123.418889,PHILIPPINES,PH,PHL
Siquijor,,San Antonio,9.182778,123.5375,PHILIPPINES,PH,PHL
Misamis Oriental,,San Antonio,8.689167,124.741667,PHILIPPINES,PH,PHL
Ilocos Sur,,Urzadan,17.133333,120.666667,PHILIPPINES,PH,PHL
Batangas,,Santa Clara,13.753611,121.060556,PHILIPPINES,PH,PHL
Batangas,,Santa Clara,13.753611,121.060556,PHILIPPINES,PH,PHL
Toledo,,Tubig Indangan,4.898333,119.849444,PHILIPPINES,PH,PHL
Toledo,,Simunul,4.898333,119.849444,PHILIPPINES,PH,PHL
Bukidnon,,Simsiman,7.760556,125.375833,PHILIPPINES,PH,PHL
Isabela,,Simpa,17.016667,121.9,PHILIPPINES,PH,PHL
Cebu,,Tapal,10.133333,123.6,PHILIPPINES,PH,PHL
Calbayog,,Tapai,12.066667,124.583333,PHILIPPINES,PH,PHL
Iloilo,,Tapacon,11.133333,122.616667,PHILIPPINES,PH,PHL
Sulu,,Tapaan,5.45,120.733333,PHILIPPINES,PH,PHL
Zamboanaga del Sur,,Tambalao,15.25,120.233333,PHILIPPINES,PH,PHL
Sultan Kudarat,,Upper Alip,6.736111,124.947222,PHILIPPINES,PH,PHL
Davao del Sur,,Upian,7.366389,125.319444,PHILIPPINES,PH,PHL
Ilocos Norte,,San Antonio,18.266667,120.583333,PHILIPPINES,PH,PHL
Ilocos Norte,,San Antonio,18.166667,120.616667,PHILIPPINES,PH,PHL
Iloilo,,Santo Tomas,10.716667,122.516667,PHILIPPINES,PH,PHL
Agusan del Sur,,Santo Tomas,8.185833,125.803889,PHILIPPINES,PH,PHL
Isabela,,Santor-Tungui,16.983333,121.833333,PHILIPPINES,PH,PHL
Pampanga,,Santo Rosario Segundo,15.033333,120.733333,PHILIPPINES,PH,PHL
Pampanga,,Santo Rosario,15.033333,120.733333,PHILIPPINES,PH,PHL
Antique,,Santo Rosario Hacienda,10.55,121.85,PHILIPPINES,PH,PHL
Ilocos Sur,,Santo Rosario,17.1,120.566667,PHILIPPINES,PH,PHL
Pampanga,,Santo Rosario,15.45,120.783333,PHILIPPINES,PH,PHL
Pampanga,,Old Santo Rosario,15.45,120.783333,PHILIPPINES,PH,PHL
Pampanga,,Young Santo Rosario,15.45,120.783333,PHILIPPINES,PH,PHL
Lanao del Sur,,Watu,7.883333,124.2,PHILIPPINES,PH,PHL
Oriental Mindoro,,Victoria,13.177222,121.278056,PHILIPPINES,PH,PHL
Nueva Ecija,,San Isidro Malapit,15.3,120.916667,PHILIPPINES,PH,PHL
Pampanga,,Santo Tomas,14.948333,120.622778,PHILIPPINES,PH,PHL
Laguna,,Santo Tomas,14.183333,121.5,PHILIPPINES,PH,PHL
Eastern Samar,,Santo Tomas,11.85,125.418889,PHILIPPINES,PH,PHL
Eastern Samar,,San Tomas,11.85,125.418889,PHILIPPINES,PH,PHL
Sorsogon,,Tominhao,12.948889,123.831111,PHILIPPINES,PH,PHL
Camarines Sur,,Tominauog,13.7,123.516667,PHILIPPINES,PH,PHL
Catanduanes,,Tominauog,13.6,124.1,PHILIPPINES,PH,PHL
Bohol,,Tombangan,9.633333,124,PHILIPPINES,PH,PHL
Cagayan de Oro,,Tignapoloan,8.272778,124.575556,PHILIPPINES,PH,PHL
Cagayan de Oro,,Tignapalan,8.272778,124.575556,PHILIPPINES,PH,PHL
Camarines Sur,,San Isidro,13.466667,123.35,PHILIPPINES,PH,PHL
Camarines Sur,,San Isidro,13.466667,123.266667,PHILIPPINES,PH,PHL
Sorsogon,,San Isidro,13.016667,124.033333,PHILIPPINES,PH,PHL
Sorsogon,,San Isidro,12.9,123.583333,PHILIPPINES,PH,PHL
Sorsogon,,San Isidro,12.833333,124.016667,PHILIPPINES,PH,PHL
Leyte,,Utod,10.683333,124.783333,PHILIPPINES,PH,PHL
Tacloban,,Utap,11.214722,124.973889,PHILIPPINES,PH,PHL
Cebu,,Utak,10.316667,123.916667,PHILIPPINES,PH,PHL
La Union,,Santo Domingo Sur,16.85,120.383333,PHILIPPINES,PH,PHL
Ilocos Norte,,Santo Domingo,18.366667,120.6,PHILIPPINES,PH,PHL
Ilocos Sur,,Santo Domingo,17.635278,120.410833,PHILIPPINES,PH,PHL
Pangasinan,,Santo Domingo,15.966667,120.566667,PHILIPPINES,PH,PHL
Pangasinan,,Santo Domingo,15.866667,120.566667,PHILIPPINES,PH,PHL
Pampanga,,Santo Domingo,14.983333,120.666667,PHILIPPINES,PH,PHL
Bataan,,Santo Domingo,14.633611,120.573333,PHILIPPINES,PH,PHL
Iloilo,,Tagsing,10.783333,122.366667,PHILIPPINES,PH,PHL
Cagayan,,Tabayo,17.883333,121.65,PHILIPPINES,PH,PHL
Cebu,,Tabayag,10.733333,123.966667,PHILIPPINES,PH,PHL
Bohol,,Tabayag,9.883333,123.883333,PHILIPPINES,PH,PHL
Romblon,,Tabay,12.361111,121.972222,PHILIPPINES,PH,PHL
Leyte,,Ticoco,11.283333,124.816667,PHILIPPINES,PH,PHL
Maguindanao,,Taotagan,7.156944,124.723611,PHILIPPINES,PH,PHL
Cebu,,Taop,10.283333,123.866667,PHILIPPINES,PH,PHL
Bohol,,Sampoangan,9.883333,123.866667,PHILIPPINES,PH,PHL
Batangas,,Sampiro,13.784167,121.384167,PHILIPPINES,PH,PHL
Sultan Kudarat,,Sampao,6.876667,124.595556,PHILIPPINES,PH,PHL
Bulacan,,Sampalok,14.994722,120.931944,PHILIPPINES,PH,PHL
Bulacan,,Sampatok,14.994722,120.931944,PHILIPPINES,PH,PHL
Bulacan,,Sampaloc,14.994722,120.931944,PHILIPPINES,PH,PHL
Iloilo,,Santiago,10.716667,122.533333,PHILIPPINES,PH,PHL
Palawan,,Santiago,9.730833,118.648889,PHILIPPINES,PH,PHL
Iligan,,Santiago,8.25,124.25,PHILIPPINES,PH,PHL
Davao Oriental,,Santiago,7.288889,126.573333,PHILIPPINES,PH,PHL
Cagayan,,Santelmo,18.366667,121.633333,PHILIPPINES,PH,PHL
Ilocos Norte,,Santa Veronica,18.283333,120.633333,PHILIPPINES,PH,PHL
Bulacan,,Tangos,14.966667,120.9,PHILIPPINES,PH,PHL
Cotabato,,Samadio,7.2125,124.554444,PHILIPPINES,PH,PHL
Ilocos Norte,,Samac,18.15,120.566667,PHILIPPINES,PH,PHL
Basilan,,Sama,6.6,122.166667,PHILIPPINES,PH,PHL
Basilan,,Sana,6.6,122.166667,PHILIPPINES,PH,PHL
Laguna,,San Rafael,14.166667,121.516667,PHILIPPINES,PH,PHL
Camarines Sur,,San Rafael,13.683333,123.5,PHILIPPINES,PH,PHL
Camarines Sur,,San Rafael,13.6,123.133333,PHILIPPINES,PH,PHL
Camarines Sur,,San Rafael,13.416667,123.5,PHILIPPINES,PH,PHL
Sorsogon,,San Rafael,13.026667,124.153889,PHILIPPINES,PH,PHL
Bulacan,,Sumapa,14.85,120.833333,PHILIPPINES,PH,PHL
Bulacan,,Somapa,14.85,120.833333,PHILIPPINES,PH,PHL
Marinduque,,Sumanga,13.483333,121.866667,PHILIPPINES,PH,PHL
Sulu,,Sumambat,5.75,120.916667,PHILIPPINES,PH,PHL
Misamis Oriental,,Sumalag,8.978333,124.794722,PHILIPPINES,PH,PHL
Leyte,,Siyabo,10.683333,124.8,PHILIPPINES,PH,PHL
Agusan del Norte,,Tubay,9.166944,125.523889,PHILIPPINES,PH,PHL
Davao del Sur,,Tubay,5.383333,125.383333,PHILIPPINES,PH,PHL
Bohol,,Talibon,10.149167,124.325,PHILIPPINES,PH,PHL
Bohol,,Talibon,9.983333,124.333333,PHILIPPINES,PH,PHL
Tarlac,,Tala,15.316667,120.6,PHILIPPINES,PH,PHL
Davao del Sur,,Tala,6.310278,125.618333,PHILIPPINES,PH,PHL
Cavite,,Tabora,14.204444,120.785,PHILIPPINES,PH,PHL
Cavite,,Tabora Malayu,14.204444,120.785,PHILIPPINES,PH,PHL
South Cotabato,,Tabontod,6.166667,124.883333,PHILIPPINES,PH,PHL
Leyte,,Tabontabon,11.040833,124.961111,PHILIPPINES,PH,PHL
Leyte,,Tabonok,10.366667,124.783333,PHILIPPINES,PH,PHL
Toledo,,Tong Gusung,4.923889,119.819444,PHILIPPINES,PH,PHL
Toledo,,Tong Gusong,4.923889,119.819444,PHILIPPINES,PH,PHL
Toledo,,Tungusung,4.923889,119.819444,PHILIPPINES,PH,PHL
Toledo,,Tonguson,4.923889,119.819444,PHILIPPINES,PH,PHL
Toledo,,Tongusong,4.923889,119.819444,PHILIPPINES,PH,PHL
Toledo,,Tungusong,4.923889,119.819444,PHILIPPINES,PH,PHL
Toledo,,Tong Gusung,4.75,119.4,PHILIPPINES,PH,PHL
Toledo,,Tong Basbas,5.366667,120.216667,PHILIPPINES,PH,PHL
Davao del Sur,,Tigyab,6.373889,125.623333,PHILIPPINES,PH,PHL
Pangasinan,,Santa Catalina,16.083333,119.8,PHILIPPINES,PH,PHL
Quezon,,Santa Catalina,14,121.833333,PHILIPPINES,PH,PHL
La Union,,Taberna,16.533333,120.333333,PHILIPPINES,PH,PHL
Bulacan,,Tabi,14.85,120.9,PHILIPPINES,PH,PHL
Bulacan,,Tabe,14.85,120.9,PHILIPPINES,PH,PHL
Cagayan,,Tabboli,18.283333,121.866667,PHILIPPINES,PH,PHL
Cagayan,,Tabba,18.480556,121.375833,PHILIPPINES,PH,PHL
Leyte,,Tigbao,10.987778,124.999722,PHILIPPINES,PH,PHL
Cebu,,Tigbao,9.860833,123.474444,PHILIPPINES,PH,PHL
Pangasinan,,Unzao,15.918889,120.539167,PHILIPPINES,PH,PHL
Pangasinan,,Unzad,15.918889,120.539167,PHILIPPINES,PH,PHL
Zamboanaga del Sur,,Santiago,15,120.116667,PHILIPPINES,PH,PHL
Bulacan,,Santiago,14.85,120.816667,PHILIPPINES,PH,PHL
Batangas,,Santiago,14.116667,121.133333,PHILIPPINES,PH,PHL
Leyte,,Santiago,11.2,124.816667,PHILIPPINES,PH,PHL
Iloilo,,Santiago,11.058056,122.911667,PHILIPPINES,PH,PHL
Isabela,,San Roque,17.166667,121.983333,PHILIPPINES,PH,PHL
Nueva Ecija,,San Roque,15.25,120.85,PHILIPPINES,PH,PHL
Cebu,,Waterfront,10.3,123.9,PHILIPPINES,PH,PHL
Oriental Mindoro,,Wasig,12.583333,121.433333,PHILIPPINES,PH,PHL
Aklan,,San Isidro,11.816667,122.483333,PHILIPPINES,PH,PHL
Eastern Samar,,San Isidro,11.718611,125.463333,PHILIPPINES,PH,PHL
Samar,,San Isidro,11.684444,124.831667,PHILIPPINES,PH,PHL
Ilocos Sur,,Simmanglay,17.616667,120.383333,PHILIPPINES,PH,PHL
Lanao del Norte,,Sebucon,8.1,123.85,PHILIPPINES,PH,PHL
Northern Samar,,Sebonut,12.583333,125.016667,PHILIPPINES,PH,PHL
Maguindanao,,Tambak,6.950833,123.971944,PHILIPPINES,PH,PHL
Bukidnon,,Tambagan,8.073611,124.621111,PHILIPPINES,PH,PHL
Albay,,Tambac,13.366667,123.716667,PHILIPPINES,PH,PHL
Antique,,Tamayoc,10.9,122.016667,PHILIPPINES,PH,PHL
Antique,,Tamayec,10.9,122.016667,PHILIPPINES,PH,PHL
Zamboanga del Sur,,Tamauan,8.365556,123.128611,PHILIPPINES,PH,PHL
Bohol,,Tocdog Ilaya,9.6,124.016667,PHILIPPINES,PH,PHL
Calbayog,,San Juaquin,12.170833,124.436389,PHILIPPINES,PH,PHL
Agusan del Sur,,San Ignacio,8.016667,126.133333,PHILIPPINES,PH,PHL
Batangas,,Santa Tereza,13.9,120.933333,PHILIPPINES,PH,PHL
Batangas,,Santa Teresa,13.9,120.933333,PHILIPPINES,PH,PHL
Iloilo,,Santa Teresa Norte,10.816667,122.5,PHILIPPINES,PH,PHL
Cebu,,Tagbubunga,10.583333,123.716667,PHILIPPINES,PH,PHL
Bohol,,Tagbuani,9.608611,123.984167,PHILIPPINES,PH,PHL
Bohol,,Tagbuane,9.608611,123.984167,PHILIPPINES,PH,PHL
Bohol,,Tagbuan,9.608611,123.984167,PHILIPPINES,PH,PHL
Misamis Oriental,,Tagbokbok,8.979167,124.903889,PHILIPPINES,PH,PHL
Misamis Oriental,,Pariz,8.979167,124.903889,PHILIPPINES,PH,PHL
Misamis Oriental,,Tagbocboc,8.979167,124.903889,PHILIPPINES,PH,PHL
Davao del Sur,,Suwawan,7.251111,125.367778,PHILIPPINES,PH,PHL
Iloilo,,San Salvador,11.002778,122.835278,PHILIPPINES,PH,PHL
Iloilo,,Salvador,11.002778,122.835278,PHILIPPINES,PH,PHL
Camarines Norte,,Salvacion,14.266667,122.383333,PHILIPPINES,PH,PHL
Pangasinan,,Sapang,16.05,120.483333,PHILIPPINES,PH,PHL
Pangasinan,,Sapang,15.8,120.283333,PHILIPPINES,PH,PHL
South Cotabato,,Sapali,6.347778,124.797222,PHILIPPINES,PH,PHL
Leyte,,Santarin,11.323611,124.728889,PHILIPPINES,PH,PHL
Cagayan,,Santa Praxedes,18.566667,121,PHILIPPINES,PH,PHL
Cagayan,,Langangan,18.566667,121,PHILIPPINES,PH,PHL
Northern Samar,,Santander,12.406944,124.512222,PHILIPPINES,PH,PHL
Eastern Samar,,Tagaslian,11.474722,125.404444,PHILIPPINES,PH,PHL
Eastern Samar,,Tagasti-an,11.474722,125.404444,PHILIPPINES,PH,PHL
Surigao del Sur,,Tagasaka,8.377778,126.307778,PHILIPPINES,PH,PHL
Sorsogon,,Tagas,12.833333,123.833333,PHILIPPINES,PH,PHL
Samar,,Tagapul-an,12.05,124.15,PHILIPPINES,PH,PHL
Lanao del Sur,,Tubaran,7.724167,124.191111,PHILIPPINES,PH,PHL
Lanao del Sur,,Tuburan,7.724167,124.191111,PHILIPPINES,PH,PHL
Tarlac,,Tubang,15.483333,120.566667,PHILIPPINES,PH,PHL
Camarines Sur,,Tinawagan,13.65,123.483333,PHILIPPINES,PH,PHL
Camarines Sur,,Tinalwagan,13.65,123.483333,PHILIPPINES,PH,PHL
Maguindanao,,Tinatungan,7.066667,124.65,PHILIPPINES,PH,PHL
Southern Leyte,,Tam-is,10.133333,124.833333,PHILIPPINES,PH,PHL
Leyte,,Tamingtaming,10.683333,124.8,PHILIPPINES,PH,PHL
Cebu,,Tamiao,10.441944,123.985556,PHILIPPINES,PH,PHL
Ilocos Sur,,Tamcang,17.083333,120.616667,PHILIPPINES,PH,PHL
Davao,,Tambungon,7.256111,125.664444,PHILIPPINES,PH,PHL
Davao,,Tambongon,7.256111,125.664444,PHILIPPINES,PH,PHL
Quezon,,Tumbayog,13.3,122.583333,PHILIPPINES,PH,PHL
Davao del Sur,,Tigumon,6.752778,125.33,PHILIPPINES,PH,PHL
Camarines Norte,,San Isidro,14.183333,122.883333,PHILIPPINES,PH,PHL
Laguna,,San Isidro,14.1675,121.450833,PHILIPPINES,PH,PHL
Camarines Norte,,San Isidro,14.133333,122.916667,PHILIPPINES,PH,PHL
Laguna,,San Isidro,14.133333,121.433333,PHILIPPINES,PH,PHL
Camarines Sur,,San Isidro,13.933333,122.633333,PHILIPPINES,PH,PHL
Quezon,,San Isidro,13.916667,121.816667,PHILIPPINES,PH,PHL
Quezon,,San Isidro,13.766667,122.166667,PHILIPPINES,PH,PHL
Cagayan,,Selong,18.308056,121.607778,PHILIPPINES,PH,PHL
South Cotabato,,Selken,6.485833,124.813056,PHILIPPINES,PH,PHL
Cotabato,,Sekitan,7.061667,125.033889,PHILIPPINES,PH,PHL
Cotabato,,Sikitan,7.061667,125.033889,PHILIPPINES,PH,PHL
Capiz,,Santo Niño,11.4225,122.978611,PHILIPPINES,PH,PHL
Leyte,,Santo Niño,11.2,124.75,PHILIPPINES,PH,PHL
Eastern Samar,,Santo Niño,11.128333,125.516944,PHILIPPINES,PH,PHL
Iloilo,,Santo Niño,10.783333,122.483333,PHILIPPINES,PH,PHL
Davao del Sur,,Taguloy,6.430278,125.563333,PHILIPPINES,PH,PHL
Davao del Sur,,Tagoloy,6.430278,125.563333,PHILIPPINES,PH,PHL
Iloilo,,Tigbagacay,10.65,122.233333,PHILIPPINES,PH,PHL
Davao,,Tigatto,7.1275,125.595,PHILIPPINES,PH,PHL
Davao,,Tiggatto,7.1275,125.595,PHILIPPINES,PH,PHL
Davao,,Tigatao,7.1275,125.595,PHILIPPINES,PH,PHL
Davao,,Tigata,7.1275,125.595,PHILIPPINES,PH,PHL
Ilocos Sur,,San Ildefonso,17.622222,120.396667,PHILIPPINES,PH,PHL
Laguna,,San Ildefonso,14.045278,121.218611,PHILIPPINES,PH,PHL
Tarlac,,San Ignacio,15.616667,120.433333,PHILIPPINES,PH,PHL
Bulacan,,San Agustin,14.966667,120.966667,PHILIPPINES,PH,PHL
Zamboanaga del Sur,,San Agustin,14.933333,120.15,PHILIPPINES,PH,PHL
Cotabato,,Saupen,7.15,124.816667,PHILIPPINES,PH,PHL
Bulacan,,Taal,14.917778,120.881667,PHILIPPINES,PH,PHL
Bulacan,,Taal,14.816667,120.85,PHILIPPINES,PH,PHL
La Union,,Suyo,16.6,120.466667,PHILIPPINES,PH,PHL
Laguna,,Tiodao,14.366667,121.533333,PHILIPPINES,PH,PHL
Pampanga,,Tibo,15.2,120.516667,PHILIPPINES,PH,PHL
Iloilo,,Tibiao,11.133333,122.616667,PHILIPPINES,PH,PHL
Pangasinan,,Tibi,15.933333,120,PHILIPPINES,PH,PHL
Isabela,,San Francisco,17.352778,121.784444,PHILIPPINES,PH,PHL
Isabela,,San Francisco,17.283333,121.8,PHILIPPINES,PH,PHL
Bulacan,,Wakas,14.8,120.916667,PHILIPPINES,PH,PHL
Bulacan,,Tamarindo,14.766667,120.933333,PHILIPPINES,PH,PHL
Cagayan,,Union,18.565278,121.048889,PHILIPPINES,PH,PHL
La Union,,Union,16.916667,120.433333,PHILIPPINES,PH,PHL
Aklan,,Union,11.926111,121.964444,PHILIPPINES,PH,PHL
Sulu,,Tugias,5.966667,121.3,PHILIPPINES,PH,PHL
Ormoc,,Tugbong,11.016667,124.6,PHILIPPINES,PH,PHL
Pampanga,,San Roque,14.990833,120.850556,PHILIPPINES,PH,PHL
Pampanga,,San Roque,14.961944,120.756944,PHILIPPINES,PH,PHL
Cebu,,Taloot,10.033333,123.6,PHILIPPINES,PH,PHL
Cebu,,Taloot,9.959444,123.598889,PHILIPPINES,PH,PHL
Iloilo,,Taloñgonan,11.116667,122.466667,PHILIPPINES,PH,PHL
Rizal,,Talon,14.483333,120.983333,PHILIPPINES,PH,PHL
Davao,,Talomo,7.049722,125.550833,PHILIPPINES,PH,PHL
Davao,,Talo,7.049722,125.550833,PHILIPPINES,PH,PHL
Iloilo,,Talokgañgan,11.007778,122.845,PHILIPPINES,PH,PHL
Masbate,,Ubo,12.293333,123.625,PHILIPPINES,PH,PHL
Iloilo,,Ubian,11,122.383333,PHILIPPINES,PH,PHL
Cebu,,Tinubdan,11,123.95,PHILIPPINES,PH,PHL
Sorsogon,,San Juan,12.683333,123.916667,PHILIPPINES,PH,PHL
Samar,,San Juan,11.318056,124.979444,PHILIPPINES,PH,PHL
Leyte,,San Juan,11.15,124.983333,PHILIPPINES,PH,PHL
Cebu,,San Juan,11.15,123.716667,PHILIPPINES,PH,PHL
Pampanga,,San Francisco,14.955,120.718611,PHILIPPINES,PH,PHL
Batangas,,San Francisco,14.033333,121.2,PHILIPPINES,PH,PHL
South Cotabato,,Siguil,6.191389,124.811389,PHILIPPINES,PH,PHL
Davao del Sur,,Tagansuli,6.555833,125.365,PHILIPPINES,PH,PHL
Davao,,Tagakpan,7.112778,125.429167,PHILIPPINES,PH,PHL
Davao,,Tagakpad,7.112778,125.429167,PHILIPPINES,PH,PHL
Leyte,,Tagac,11.287778,124.713611,PHILIPPINES,PH,PHL
Leyte,,Tagak,11.287778,124.713611,PHILIPPINES,PH,PHL
Danao,,Tagadoldol,10.5,124,PHILIPPINES,PH,PHL
Camarines Norte,,Tarum,14.116667,123.016667,PHILIPPINES,PH,PHL
Camarines Sur,,Tarum,13.7,123.066667,PHILIPPINES,PH,PHL
Leyte,,Tarugan,10.9,124.916667,PHILIPPINES,PH,PHL
Iloilo,,Tumay,10.95,122.633333,PHILIPPINES,PH,PHL
Batangas,,Santa Clara Sur,13.766667,121.033333,PHILIPPINES,PH,PHL
Eastern Samar,,San Miguel,11.435833,125.531111,PHILIPPINES,PH,PHL
Eastern Samar,,Tanglad,11.3,125.583333,PHILIPPINES,PH,PHL
Eastern Samar,,San Miguel,11.3,125.583333,PHILIPPINES,PH,PHL
Leyte,,San Miguel,11.267222,124.8325,PHILIPPINES,PH,PHL
Leyte,,San Miguel,11.104167,125.001389,PHILIPPINES,PH,PHL
Nueva Vizcaya,,Sinal,16,121.25,PHILIPPINES,PH,PHL
Northern Samar,,Sinagtunob,12.466667,124.6,PHILIPPINES,PH,PHL
Benguet,,Sinadca,16.85,120.733333,PHILIPPINES,PH,PHL
Eastern Samar,,Taguite,11.13,125.319167,PHILIPPINES,PH,PHL
Nueva Vizcaya,,Tolitul,16.283333,120.95,PHILIPPINES,PH,PHL
Leyte,,Tolibao,11.266667,124.566667,PHILIPPINES,PH,PHL
Leyte,,Lolibow,11.266667,124.566667,PHILIPPINES,PH,PHL
Leyte,,Tolibaw,11.266667,124.566667,PHILIPPINES,PH,PHL
Aklan,,Toledo,11.846389,122.056667,PHILIPPINES,PH,PHL
Pangasinan,,San Luis,15.916667,120.633333,PHILIPPINES,PH,PHL
Davao del Sur,,Talos,6.340833,125.309444,PHILIPPINES,PH,PHL
Davao,,Tagluno,7.066667,125.440278,PHILIPPINES,PH,PHL
Leyte,,Taglibas,10.333333,124.833333,PHILIPPINES,PH,PHL
Eastern Samar,,Taglad,11.294722,125.594167,PHILIPPINES,PH,PHL
Danao,,Tuburan Sur,10.516667,124.016667,PHILIPPINES,PH,PHL
Iloilo,,Tuburan,10.966667,122.483333,PHILIPPINES,PH,PHL
Iloilo,,Tuburon,10.966667,122.483333,PHILIPPINES,PH,PHL
La Union,,San Francisco,16.6,120.3,PHILIPPINES,PH,PHL
Misamis Oriental,,Sapinit,8.816667,125.166667,PHILIPPINES,PH,PHL
Cotabato,,Sapiayan,7.450278,124.761667,PHILIPPINES,PH,PHL
Quezon,,Talisay,13.180556,122.623611,PHILIPPINES,PH,PHL
Albay,,Talisay,13.159722,123.415556,PHILIPPINES,PH,PHL
Iloilo,,Talisay,10.906667,122.758611,PHILIPPINES,PH,PHL
Iloilo,,Talisay,10.9,122.75,PHILIPPINES,PH,PHL
Southern Leyte,,Talisay,10.383333,125.2,PHILIPPINES,PH,PHL
Leyte,,Talisay,10.360278,124.774167,PHILIPPINES,PH,PHL
Aklan,,Vivo,11.716667,122.283333,PHILIPPINES,PH,PHL
Ilocos Sur,,Vitong,17.193056,120.530278,PHILIPPINES,PH,PHL
Cebu,,Vito,10.5025,123.773056,PHILIPPINES,PH,PHL
Camarines Sur,,Vinagre,13.633333,123.483333,PHILIPPINES,PH,PHL
Maguindanao,,Villia,7.439444,124.233333,PHILIPPINES,PH,PHL
Camarines Sur,,Villazar,13.816667,122.966667,PHILIPPINES,PH,PHL
Southern Leyte,,Villajacinta,10.0425,124.980833,PHILIPPINES,PH,PHL
Quezon,,Villa Ibaba,14.056667,121.860278,PHILIPPINES,PH,PHL
Ilocos Sur,,Villa Hermosa,17.1,120.433333,PHILIPPINES,PH,PHL
Eastern Samar,,Songco,11.615833,125.435,PHILIPPINES,PH,PHL
Eastern Samar,,Sungco,11.615833,125.435,PHILIPPINES,PH,PHL
Bohol,,Sondol,9.85,123.8,PHILIPPINES,PH,PHL
Surigao del Sur,,Somosomo,8.98,126.242222,PHILIPPINES,PH,PHL
Northern Samar,,Somoge,12.416667,124.616667,PHILIPPINES,PH,PHL
Agusan del Norte,,Somilihon,8.933333,125.533333,PHILIPPINES,PH,PHL
Ilocos Norte,,Solsona,18.093333,120.769722,PHILIPPINES,PH,PHL
Cotabato,,Tibao,7.018889,124.894444,PHILIPPINES,PH,PHL
Bulacan,,Tibangan,14.95,120.95,PHILIPPINES,PH,PHL
Bulacan,,Tibagan,14.95,120.95,PHILIPPINES,PH,PHL
Leyte,,Tibak,11.176667,124.934722,PHILIPPINES,PH,PHL
Bukidnon,,Tankulan,8.369722,124.865,PHILIPPINES,PH,PHL
Bukidnon,,Tankutan,8.369722,124.865,PHILIPPINES,PH,PHL
Bukidnon,,Maluko,8.369722,124.865,PHILIPPINES,PH,PHL
Ilocos Sur,,Ubbog,17.266667,120.466667,PHILIPPINES,PH,PHL
Ilocos Sur,,Ubbug,17.266667,120.466667,PHILIPPINES,PH,PHL
Leyte,,Ubayan,11.416667,124.883333,PHILIPPINES,PH,PHL
Cagayan de Oro,,Taburan,8.375556,124.504722,PHILIPPINES,PH,PHL
Cagayan de Oro,,Tuburan,8.375556,124.504722,PHILIPPINES,PH,PHL
Basilan,,Tuburan Proper,6.643889,122.273611,PHILIPPINES,PH,PHL
Basilan,,Tuburan,6.643889,122.273611,PHILIPPINES,PH,PHL
Iloilo,,Tubungan,10.875,122.739722,PHILIPPINES,PH,PHL
Sorsogon,,San Ramon,12.980833,123.991111,PHILIPPINES,PH,PHL
Sorsogon,,San Ramon,12.965833,123.510278,PHILIPPINES,PH,PHL
Isabela,,San Rafael,17.466667,121.75,PHILIPPINES,PH,PHL
Bukidnon,,Sumpong,8.163333,125.118333,PHILIPPINES,PH,PHL
Ilocos Sur,,Tangadan,17.166667,120.45,PHILIPPINES,PH,PHL
Bohol,,Taned,9.616667,124.166667,PHILIPPINES,PH,PHL
Toledo,,Talisay,4.863333,119.454722,PHILIPPINES,PH,PHL
Samar,,Tinaogan,11.700278,124.828333,PHILIPPINES,PH,PHL
Samar,,Tinaogan,11.288333,124.978333,PHILIPPINES,PH,PHL
Iloilo,,Tarog,10.8,122.366667,PHILIPPINES,PH,PHL
San Pablo,,San Antonio,13.995833,121.332222,PHILIPPINES,PH,PHL
Camarines Sur,,San Antonio,13.7,123.2,PHILIPPINES,PH,PHL
Camarines Sur,,San Antonio,13.65,123.5,PHILIPPINES,PH,PHL
Camarines Sur,,San Antonio,13.65,123.166667,PHILIPPINES,PH,PHL
Albay,,San Antonio,13.3,123.433333,PHILIPPINES,PH,PHL
Sorsogon,,San Antonio,12.922222,123.723333,PHILIPPINES,PH,PHL
Zamboanaga del Sur,,Santo Niño,15.289722,120.032222,PHILIPPINES,PH,PHL
Bulacan,,Santo Niño,14.816667,120.983333,PHILIPPINES,PH,PHL
Quezon,,Santo Niño,14.2,121.733333,PHILIPPINES,PH,PHL
Camarines Sur,,Santo Niño,13.35,123.35,PHILIPPINES,PH,PHL
Maguindanao,,Tapikan,6.906944,124.495556,PHILIPPINES,PH,PHL
Siquijor,,Tambisan,9.2025,123.4775,PHILIPPINES,PH,PHL
Leyte,,Tambis,11,124.8725,PHILIPPINES,PH,PHL
Leyte,,Tambis,10.4,124.801389,PHILIPPINES,PH,PHL
Surigao del Sur,,Unidad,8.535,126.230556,PHILIPPINES,PH,PHL
Eastern Samar,,Ungay,11.45,125.483333,PHILIPPINES,PH,PHL
Sulu,,Ungas Moluha,5.45,120.75,PHILIPPINES,PH,PHL
Nueva Ecija,,Ungab,15.8,120.616667,PHILIPPINES,PH,PHL
Palawan,,Uncas,9.743333,118.679444,PHILIPPINES,PH,PHL
Laguna,,San Luis,14.016667,121.2,PHILIPPINES,PH,PHL
Quezon,,San Luis,13.916667,122.25,PHILIPPINES,PH,PHL
Samar,,San Luis,11.975278,124.766667,PHILIPPINES,PH,PHL
Bukidnon,,San Luis,8.536111,124.938056,PHILIPPINES,PH,PHL
Agusan del Sur,,San Luis,8.478056,125.743889,PHILIPPINES,PH,PHL
Bukidnon,,San Luis,8.483333,125,PHILIPPINES,PH,PHL
Davao Oriental,,San Luis,7.441389,126.551111,PHILIPPINES,PH,PHL
Zamboanga del Sur,,Sonob,8.328056,123.155833,PHILIPPINES,PH,PHL
Davao del Sur,,Soning,6.838333,125.351389,PHILIPPINES,PH,PHL
Leyte,,Songon,10.333333,124.866667,PHILIPPINES,PH,PHL
Pangasinan,,Songiot,15.816667,120.516667,PHILIPPINES,PH,PHL
Siquijor,,Songculan,9.216667,123.5,PHILIPPINES,PH,PHL
Bukidnon,,Silo-o,8.497222,124.936389,PHILIPPINES,PH,PHL
Quezon,,Tansa,13.916667,121.983333,PHILIPPINES,PH,PHL
Sulu,,Tanquique,5.8,121.216667,PHILIPPINES,PH,PHL
La Union,,Tanquigan,16.566667,120.383333,PHILIPPINES,PH,PHL
Manila,,Tanque,14.6,121.016667,PHILIPPINES,PH,PHL
Roxas,,Tanque,11.590833,122.743611,PHILIPPINES,PH,PHL
Roxas,,Tangue,11.590833,122.743611,PHILIPPINES,PH,PHL
Eastern Samar,,Tanom,11.140278,125.641389,PHILIPPINES,PH,PHL
Iloilo,,Tuburan,10.916389,122.669722,PHILIPPINES,PH,PHL
Surigao del Sur,,Tuboran,9.289722,126.1725,PHILIPPINES,PH,PHL
Surigao del Sur,,Tuburan,9.289722,126.1725,PHILIPPINES,PH,PHL
Basilan,,Tipo-Tipo,6.581389,122.179444,PHILIPPINES,PH,PHL
Zamboanga del Sur,,Tipon,8.019167,122.316389,PHILIPPINES,PH,PHL
Pangasinan,,San Juan,15.866667,120.766667,PHILIPPINES,PH,PHL
Nueva Ecija,,San Juan,15.833333,120.783333,PHILIPPINES,PH,PHL
Pangasinan,,San Juan,15.816667,119.9,PHILIPPINES,PH,PHL
Nueva Ecija,,San Juan,15.433333,120.916667,PHILIPPINES,PH,PHL
Samar,,Sogod,11.675556,124.856944,PHILIPPINES,PH,PHL
Leyte,,Sogod,11.256667,124.696111,PHILIPPINES,PH,PHL
Leyte,,Mantagut,11.256667,124.696111,PHILIPPINES,PH,PHL
Leyte,,Manpagut,11.256667,124.696111,PHILIPPINES,PH,PHL
Cebu,,Sogod,10.750833,123.994722,PHILIPPINES,PH,PHL
Maguindanao,,Sugod,6.683333,124.799722,PHILIPPINES,PH,PHL
Maguindanao,,Sogod,6.683333,124.799722,PHILIPPINES,PH,PHL
Iloilo,,Tagbak,10.716667,122.5,PHILIPPINES,PH,PHL
Iloilo,,Tagbac Ilaya,10.716667,122.5,PHILIPPINES,PH,PHL
Catanduanes,,Tagbag,13.766667,124.3,PHILIPPINES,PH,PHL
Cebu,,Tuble,10.011389,123.581667,PHILIPPINES,PH,PHL
Cebu,,Tuble,9.95,123.383333,PHILIPPINES,PH,PHL
Sulu,,Tubig Puti,5.978333,121.251389,PHILIPPINES,PH,PHL
Sulu,,Tubig Jati,5.978333,121.251389,PHILIPPINES,PH,PHL
Bohol,,Tubig-Dacu,9.623611,123.968056,PHILIPPINES,PH,PHL
Pangasinan,,San Pedro Martir,16.088056,120.026389,PHILIPPINES,PH,PHL
Pangasinan,,Pedro Martir,16.088056,120.026389,PHILIPPINES,PH,PHL
Pangasinan,,San Pedro,15.835278,120.566111,PHILIPPINES,PH,PHL
Pangasinan,,San Pedro Apartado,15.835278,120.566111,PHILIPPINES,PH,PHL
Bulacan,,San Jose Patag,14.833333,120.983333,PHILIPPINES,PH,PHL
Abra,,San Jose Norte,17.45,120.7,PHILIPPINES,PH,PHL
Iloilo,,Vista Alegre,11.074167,122.893611,PHILIPPINES,PH,PHL
Iloilo,,Vista Alegre,11,122.716667,PHILIPPINES,PH,PHL
Cebu,,Sambag,10.3,123.883333,PHILIPPINES,PH,PHL
Misamis Oriental,,Samay,8.758611,125.105,PHILIPPINES,PH,PHL
Eastern Samar,,Sapao,11.05,125.75,PHILIPPINES,PH,PHL
Nueva Ecija,,Sapang Putat,15.783333,120.933333,PHILIPPINES,PH,PHL
Southern Leyte,,Santa Rosa,10.133333,124.833333,PHILIPPINES,PH,PHL
Agusan del Sur,,Santa Rosa,8.616667,125.408056,PHILIPPINES,PH,PHL
Batangas,,Santa Rita Calzada,13.783333,121.033333,PHILIPPINES,PH,PHL
Batangas,,Santa Rita,13.783333,121.033333,PHILIPPINES,PH,PHL
La Union,,Santa Rita,16.75,120.380833,PHILIPPINES,PH,PHL
Eastern Samar,,Tagbacan,11.153611,125.5775,PHILIPPINES,PH,PHL
Eastern Samar,,Tagbucan,11.153611,125.5775,PHILIPPINES,PH,PHL
Rizal,,Tagbac,14.577778,121.190833,PHILIPPINES,PH,PHL
Rizal,,Tagbak,14.577778,121.190833,PHILIPPINES,PH,PHL
Sultan Kudarat,,Telafas,6.635278,124.975,PHILIPPINES,PH,PHL
Rizal,,Tejeros,14.566667,121.033333,PHILIPPINES,PH,PHL
Pangasinan,,Tebuel,16.05,120.483333,PHILIPPINES,PH,PHL
Cebu,,Ubagon,10.556944,123.781667,PHILIPPINES,PH,PHL
Batangas,,Uauang Baliti,14.053889,121.073889,PHILIPPINES,PH,PHL
Lanao del Sur,,Uao,7.633333,124.783333,PHILIPPINES,PH,PHL
Toledo,,Tong Si Balu,4.731111,119.501111,PHILIPPINES,PH,PHL
Toledo,,Tong Sibalo,4.731111,119.501111,PHILIPPINES,PH,PHL
Toledo,,Sibalo,4.731111,119.501111,PHILIPPINES,PH,PHL
Pangasinan,,San Isidro,15.909444,120.748611,PHILIPPINES,PH,PHL
Pangasinan,,San Isidro,15.816667,120.616667,PHILIPPINES,PH,PHL
Nueva Ecija,,San Isidro,15.5,120.85,PHILIPPINES,PH,PHL
Tarlac,,San Isidro,15.283333,120.683333,PHILIPPINES,PH,PHL
Pampanga,,San Isidro,15.166667,120.65,PHILIPPINES,PH,PHL
Bulacan,,Tabingllog,14.765278,120.952222,PHILIPPINES,PH,PHL
Bulacan,,Tabing Ilog,14.765278,120.952222,PHILIPPINES,PH,PHL
Bulacan,,Babing Ilog,14.765278,120.952222,PHILIPPINES,PH,PHL
Leyte,,Tabing,11.4,124.35,PHILIPPINES,PH,PHL
Cebu,,Tabili,10.697222,123.967778,PHILIPPINES,PH,PHL
Cotabato,,Suaguen,7.233333,124.216667,PHILIPPINES,PH,PHL
Ilocos Sur,,Suagayan,17.116667,120.45,PHILIPPINES,PH,PHL
Cebu,,Tigbawan,10.733333,123.833333,PHILIPPINES,PH,PHL
Southern Leyte,,Tigbawan,10.185833,124.925833,PHILIPPINES,PH,PHL
Southern Leyte,,Tigbawon,10.185833,124.925833,PHILIPPINES,PH,PHL
Siquijor,,Tigbawan,9.133333,123.633333,PHILIPPINES,PH,PHL
Bukidnon,,Tigbawan,8.170833,125.13,PHILIPPINES,PH,PHL
Misamis Oriental,,San Isidro,9.077778,125.190833,PHILIPPINES,PH,PHL
Surigao del Sur,,San Isidro,8.813333,126.248889,PHILIPPINES,PH,PHL
Misamis Oriental,,San Isidro,8.748333,124.807222,PHILIPPINES,PH,PHL
Agusan del Sur,,San Isidro,8.486389,125.971667,PHILIPPINES,PH,PHL
Davao del Sur,,Unapan,7.233333,125.366667,PHILIPPINES,PH,PHL
San Pablo,,Santo Rosario,13.995,121.308056,PHILIPPINES,PH,PHL
San Pablo,,Santisimo Rosario,13.995,121.308056,PHILIPPINES,PH,PHL
Laguna,,Santisima Cruz Sur,14.283333,121.416667,PHILIPPINES,PH,PHL
Ilocos Sur,,San Sebastian,17.625833,120.363611,PHILIPPINES,PH,PHL
Ilocos Sur,,San Sebastian Este,17.625833,120.363611,PHILIPPINES,PH,PHL
Pangasinan,,San Sebastian,16.016667,120.35,PHILIPPINES,PH,PHL
Samar,,San Sebastian,11.71,125.018056,PHILIPPINES,PH,PHL
Cebu,,San Sebastian,9.466944,123.305556,PHILIPPINES,PH,PHL
Cebu,,San Sebastin,9.466944,123.305556,PHILIPPINES,PH,PHL
Leyte,,Tabong,10.233333,124.766667,PHILIPPINES,PH,PHL
Leyte,,Tabang,10.233333,124.766667,PHILIPPINES,PH,PHL
Camarines Sur,,Taban,13.7,123.05,PHILIPPINES,PH,PHL
Camarines Sur,,Taban,13.566667,123.183333,PHILIPPINES,PH,PHL
Iloilo,,Taban,10.8,122.416667,PHILIPPINES,PH,PHL
Leyte,,Tabaltabal,11.416667,124.866667,PHILIPPINES,PH,PHL
Toledo,,Taballungan,5.316667,120.216667,PHILIPPINES,PH,PHL
Maguindanao,,Tanolang,7.5,124.3,PHILIPPINES,PH,PHL
Nueva Vizcaya,,Umubi,16.016667,121.3,PHILIPPINES,PH,PHL
Abra,,Umnap,17.583333,120.983333,PHILIPPINES,PH,PHL
Quezon,,Umbago,13.566667,122.416667,PHILIPPINES,PH,PHL
Quezon,,Gibago,13.566667,122.416667,PHILIPPINES,PH,PHL
Abra,,Umanap,17.583333,121.033333,PHILIPPINES,PH,PHL
Laguna,,Santa Rosa,14.041667,121.249722,PHILIPPINES,PH,PHL
Leyte,,Santa Rosa,11.293056,124.806111,PHILIPPINES,PH,PHL
Cebu,,Santa Rosa,10.264444,124.049167,PHILIPPINES,PH,PHL
Eastern Samar,,San Roque,11.395,125.576944,PHILIPPINES,PH,PHL
Eastern Samar,,San Rogue,11.395,125.576944,PHILIPPINES,PH,PHL
Eastern Samar,,San Roque,11.033333,125.733333,PHILIPPINES,PH,PHL
Bohol,,Tangkigan,9.883333,124.516667,PHILIPPINES,PH,PHL
Cebu,,Tangki,10.8,123.966667,PHILIPPINES,PH,PHL
Maguindanao,,Tangila,7.082222,124.699444,PHILIPPINES,PH,PHL
Maguindanao,,Tangila,7.066667,124.65,PHILIPPINES,PH,PHL
Iloilo,,Tanghauan,10.983333,122.666667,PHILIPPINES,PH,PHL
Iloilo,,Tanghaua,10.983333,122.666667,PHILIPPINES,PH,PHL
Sultan Kudarat,,Tanggul,6.805833,124.659167,PHILIPPINES,PH,PHL
Ilocos Norte,,Tangdan,18.1,120.633333,PHILIPPINES,PH,PHL
Surigao del Sur,,Salvacion,8.712778,126.208056,PHILIPPINES,PH,PHL
Agusan del Sur,,Salvacion,8.6775,125.699167,PHILIPPINES,PH,PHL
Surigao del Sur,,Salvacion,8.118889,126.433889,PHILIPPINES,PH,PHL
Agusan del Sur,,Salvacion,8.0125,126.166944,PHILIPPINES,PH,PHL
Leyte,,Villa Solidaridad,10.683333,124.8,PHILIPPINES,PH,PHL
Pangasinan,,Villasis,15.901667,120.588333,PHILIPPINES,PH,PHL
Pangasinan,,Vigir,15.966389,119.842222,PHILIPPINES,PH,PHL
Pangasinan,,Vigia,15.966389,119.842222,PHILIPPINES,PH,PHL
Ilocos Sur,,Vigan,17.574722,120.386944,PHILIPPINES,PH,PHL
Eastern Samar,,Vigan,11.281667,125.548889,PHILIPPINES,PH,PHL
Leyte,,Tagaytay,10.35,124.816667,PHILIPPINES,PH,PHL
Negros Oriental,,Tagaytay,9.666667,123.133333,PHILIPPINES,PH,PHL
Quezon,,Tubigan,14.2,121.733333,PHILIPPINES,PH,PHL
Samar,,Tingib,11.278611,125.031667,PHILIPPINES,PH,PHL
Sulu,,Tingcanan,5.695278,120.802778,PHILIPPINES,PH,PHL
Pangasinan,,San Josef,16,119.8,PHILIPPINES,PH,PHL
Ilocos Sur,,San Jose de Bugnay,17.208611,120.508056,PHILIPPINES,PH,PHL
Benguet,,Tyan,16.466667,120.633333,PHILIPPINES,PH,PHL
Nueva Ecija,,Tumana,15.766667,120.983333,PHILIPPINES,PH,PHL
Bulacan,,Tomana,14.816667,120.983333,PHILIPPINES,PH,PHL
Bulacan,,Tumana,14.816667,120.983333,PHILIPPINES,PH,PHL
Abra,,Tumalip,17.55,120.9,PHILIPPINES,PH,PHL
Maguindanao,,Tumaguinting,7.140556,124.386111,PHILIPPINES,PH,PHL
Camarines Sur,,Tumagoktok,13.933333,122.65,PHILIPPINES,PH,PHL
Aklan,,Santa Cruz,11.683333,122.333333,PHILIPPINES,PH,PHL
Iloilo,,Santa Cruz,10.883333,122.7,PHILIPPINES,PH,PHL
Nueva Ecija,,San Miguel,15.644722,120.695833,PHILIPPINES,PH,PHL
Bukidnon,,Sinalalgnan,7.888889,125.368611,PHILIPPINES,PH,PHL
Bukidnon,,Sinalangnan,7.888889,125.368611,PHILIPPINES,PH,PHL
Ilocos Sur,,Sevilla,17.011111,120.458889,PHILIPPINES,PH,PHL
Samar,,Serum,11.295,125.128611,PHILIPPINES,PH,PHL
Samar,,Sirum,11.295,125.128611,PHILIPPINES,PH,PHL
South Cotabato,,Seroken,6.466667,124.833333,PHILIPPINES,PH,PHL
Southern Leyte,,Tagup-on,10.283333,125.25,PHILIPPINES,PH,PHL
Leyte,,Tagungtong,11.016667,124.933333,PHILIPPINES,PH,PHL
Cagayan,,Tagung,18.266667,121.683333,PHILIPPINES,PH,PHL
Nueva Vizcaya,,Tukiak,16.583333,120.933333,PHILIPPINES,PH,PHL
South Cotabato,,Tukanadilas,6.2,125,PHILIPPINES,PH,PHL
Maguindanao,,Tuka-na-Butiren,7.116667,124.4,PHILIPPINES,PH,PHL
Maguindanao,,Tukanabago,6.703611,124.8375,PHILIPPINES,PH,PHL
Davao del Sur,,Tukal,5.426944,125.406389,PHILIPPINES,PH,PHL
Bukidnon,,San Isidro,8.258333,124.593056,PHILIPPINES,PH,PHL
Iligan,,San Isidro,8.25,124.25,PHILIPPINES,PH,PHL
Pangasinan,,San Alfonso,15.925278,120.746389,PHILIPPINES,PH,PHL
Nueva Ecija,,San Alfonso,15.716667,121.066667,PHILIPPINES,PH,PHL
Nueva Ecija,,San Alfonzo,15.716667,121.066667,PHILIPPINES,PH,PHL
Iloilo,,San Alejandro,10.783333,122.383333,PHILIPPINES,PH,PHL
Ilocos Norte,,San Alberto,18.25,120.633333,PHILIPPINES,PH,PHL
Lanao del Sur,,Sawir,7.789722,124.331667,PHILIPPINES,PH,PHL
Lanao del Sur,,Sawer,7.789722,124.331667,PHILIPPINES,PH,PHL
Lanao del Sur,,Sauir,7.789722,124.331667,PHILIPPINES,PH,PHL
Bataan,,Sawat,14.816667,120.333333,PHILIPPINES,PH,PHL
Sorsogon,,Sawanga,13.071111,124.128333,PHILIPPINES,PH,PHL
Sorsogon,,Sawango,13.071111,124.128333,PHILIPPINES,PH,PHL
Masbate,,Sawang,12.570556,123.290556,PHILIPPINES,PH,PHL
Iloilo,,Sawang,10.716667,122.616667,PHILIPPINES,PH,PHL
Bohol,,Sawang,9.65,124.033333,PHILIPPINES,PH,PHL
Camarines Sur,,Santo Domingo,13.489167,123.257222,PHILIPPINES,PH,PHL
Sulu,,Tiptipon,5.996944,121.166389,PHILIPPINES,PH,PHL
Capiz,,Tico,11.5525,122.799167,PHILIPPINES,PH,PHL
Iloilo,,Ticdalan,10.65,122.233333,PHILIPPINES,PH,PHL
Quezon,,Ticay,13.966667,122.533333,PHILIPPINES,PH,PHL
Batangas,,Ticalan,13.8,121.433333,PHILIPPINES,PH,PHL
Bukidnon,,Ticala,8.341944,124.890556,PHILIPPINES,PH,PHL
Bulacan,,Sangat,14.916667,121.083333,PHILIPPINES,PH,PHL
La Union,,San Gabriel,16.675556,120.403056,PHILIPPINES,PH,PHL
Camarines Sur,,Sampaloc,13.583333,123.133333,PHILIPPINES,PH,PHL
Cagayan,,Saranay,17.933333,121.766667,PHILIPPINES,PH,PHL
Nueva Ecija,,Saranay,15.8,120.983333,PHILIPPINES,PH,PHL
Maguindanao,,Sarakan,7.480278,124.253056,PHILIPPINES,PH,PHL
Iloilo,,San Roque,11.033333,122.916667,PHILIPPINES,PH,PHL
Leyte,,San Roque,11.009722,125.0375,PHILIPPINES,PH,PHL
Tarlac,,Surgui-Tuec,15.65,120.416667,PHILIPPINES,PH,PHL
Tarlac,,Tuec,15.65,120.416667,PHILIPPINES,PH,PHL
Tarlac,,Surgui Tercero,15.666667,120.433333,PHILIPPINES,PH,PHL
Tarlac,,Surgui,15.666667,120.433333,PHILIPPINES,PH,PHL
Ilocos Norte,,Surgui,18.066667,120.516667,PHILIPPINES,PH,PHL
South Cotabato,,Sapu,6.220833,124.551667,PHILIPPINES,PH,PHL
South Cotabato,,Jupu,6.220833,124.551667,PHILIPPINES,PH,PHL
South Cotabato,,Supu,6.220833,124.551667,PHILIPPINES,PH,PHL
South Cotabato,,Supo,5.983333,124.633333,PHILIPPINES,PH,PHL
Camarines Norte,,Tinibuyo,14.2,122.566667,PHILIPPINES,PH,PHL
Cebu,,Tingub,10.333333,123.95,PHILIPPINES,PH,PHL
Bataan,,Tuyo,14.693889,120.538611,PHILIPPINES,PH,PHL
Isabela,,Santa Maria,17.466389,121.752222,PHILIPPINES,PH,PHL
Nueva Vizcaya,,Santa Maria,16.2925,121.101111,PHILIPPINES,PH,PHL
Pangasinan,,Santa Maria,15.980833,120.700278,PHILIPPINES,PH,PHL
Nueva Ecija,,Tayuman,15.616667,121.166667,PHILIPPINES,PH,PHL
Sultan Kudarat,,Tayugo,6.636944,124.568056,PHILIPPINES,PH,PHL
Nueva Vizcaya,,Tayug,16.133333,120.983333,PHILIPPINES,PH,PHL
Bulacan,,Santo Rosario,14.85,120.783333,PHILIPPINES,PH,PHL
Bulacan,,Santa Rosario,14.85,120.783333,PHILIPPINES,PH,PHL
Lanao del Norte,,Takub,8.1875,124.108056,PHILIPPINES,PH,PHL
Lanao del Norte,,Tacub,8.1875,124.108056,PHILIPPINES,PH,PHL
Davao del Sur,,Takub,6.856389,125.4225,PHILIPPINES,PH,PHL
Davao del Sur,,Tacub,6.856389,125.4225,PHILIPPINES,PH,PHL
Benguet,,Takian,16.466667,120.616667,PHILIPPINES,PH,PHL
Cebu,,Tak-an Ilaya,10.3,123.9,PHILIPPINES,PH,PHL
Cavite,,Tulay,14.133611,120.781667,PHILIPPINES,PH,PHL
Camarines Sur,,Tulatula,13.95,122.666667,PHILIPPINES,PH,PHL
Albay,,Tulatula,13.133333,123.633333,PHILIPPINES,PH,PHL
Sorsogon,,Tulatula,12.833333,123.833333,PHILIPPINES,PH,PHL
Romblon,,Tonagan,12.5,122.016667,PHILIPPINES,PH,PHL
Cebu,,Tomugpa,10.733333,123.833333,PHILIPPINES,PH,PHL
Cebu,,Tumunoy,9.925556,123.401667,PHILIPPINES,PH,PHL
Cebu,,Tomonoy,9.925556,123.401667,PHILIPPINES,PH,PHL
Tarlac,,Villa,15.766667,120.566667,PHILIPPINES,PH,PHL
Nueva Ecija,,Villa,15.6,121.2,PHILIPPINES,PH,PHL
La Union,,Vigviga,16.916667,120.466667,PHILIPPINES,PH,PHL
Quezon,,Tabuan,14.0525,121.8575,PHILIPPINES,PH,PHL
Negros Oriental,,Tabuan,9.515556,122.850556,PHILIPPINES,PH,PHL
Nueva Vizcaya,,Taboy,16.6,120.966667,PHILIPPINES,PH,PHL
Nueva Vizcaya,,Taboung,16.3,121.033333,PHILIPPINES,PH,PHL
Southern Leyte,,Sugangon,10.266667,125.183333,PHILIPPINES,PH,PHL
Ilocos Norte,,San Jose,18.027222,120.758889,PHILIPPINES,PH,PHL
Nueva Vizcaya,,San Antonio,16.350278,121.109167,PHILIPPINES,PH,PHL
La Union,,San Antonio,16.333333,120.366667,PHILIPPINES,PH,PHL
Pangasinan,,San Antonio,16.033333,119.866667,PHILIPPINES,PH,PHL
Sorsogon,,Solangbuaya,12.875833,123.779167,PHILIPPINES,PH,PHL
Sorsogon,,Salangbuaya,12.875833,123.779167,PHILIPPINES,PH,PHL
Ormoc,,Santo Rosario,11.123056,124.519167,PHILIPPINES,PH,PHL
Ormoc,,Santa Rosario,11.123056,124.519167,PHILIPPINES,PH,PHL
Iloilo,,Santo Rosario,10.683333,122.616667,PHILIPPINES,PH,PHL
Southern Leyte,,Santo Rosario,10.092778,125.025,PHILIPPINES,PH,PHL
Isabela,,Santor,16.983333,121.733333,PHILIPPINES,PH,PHL
Pampanga,,San Miguel,14.983333,120.783333,PHILIPPINES,PH,PHL
Pampanga,,Suban,15,120.65,PHILIPPINES,PH,PHL
Cebu,,Suba,10.2675,123.978056,PHILIPPINES,PH,PHL
La Union,,Sinapangan,16.866667,120.45,PHILIPPINES,PH,PHL
Palawan,,Tapul,9.933333,118.783333,PHILIPPINES,PH,PHL
Cotabato,,Tapudol,7.053333,124.589167,PHILIPPINES,PH,PHL
Lipa,,Tambol,13.933333,121.166667,PHILIPPINES,PH,PHL
Negros Oriental,,Tambojangin,9.45,123.233333,PHILIPPINES,PH,PHL
Albay,,Tambogñon,13.3,123.783333,PHILIPPINES,PH,PHL
Davao del Sur,,Tomayong,7.133056,125.379722,PHILIPPINES,PH,PHL
Davao del Sur,,Tamayong,7.133056,125.379722,PHILIPPINES,PH,PHL
Samar,,Tomandog,11.45,124.966667,PHILIPPINES,PH,PHL
Calbayog,,Tomaliguis,12.066667,124.583333,PHILIPPINES,PH,PHL
Sorsogon,,Tomalaytay,12.879444,123.810278,PHILIPPINES,PH,PHL
Sorsogon,,Tumalaytay,12.879444,123.810278,PHILIPPINES,PH,PHL
Pangasinan,,San Marcos,15.883333,120.583333,PHILIPPINES,PH,PHL
Bulacan,,San Marcos,14.9,120.783333,PHILIPPINES,PH,PHL
Agusan del Sur,,San Marcos,8.216111,125.925833,PHILIPPINES,PH,PHL
Cagayan,,San Munuel,17.921667,121.601389,PHILIPPINES,PH,PHL
Cagayan,,San Manuel,17.921667,121.601389,PHILIPPINES,PH,PHL
Tarlac,,San Manuel,15.799167,120.608611,PHILIPPINES,PH,PHL
Sultan Kudarat,,San Manuel,6.698889,124.698611,PHILIPPINES,PH,PHL
Cagayan,,Simayung,18.381944,121.418056,PHILIPPINES,PH,PHL
Lanao del Sur,,Tagowan,7.916667,124.333333,PHILIPPINES,PH,PHL
Sultan Kudarat,,Tugal,6.607778,124.803889,PHILIPPINES,PH,PHL
Benguet,,Tuding,16.410278,120.644167,PHILIPPINES,PH,PHL
Benguet,,Toeding,16.410278,120.644167,PHILIPPINES,PH,PHL
Benguet,,Tocding,16.410278,120.644167,PHILIPPINES,PH,PHL
Surigao del Sur,,Tudela,8.133333,126.216667,PHILIPPINES,PH,PHL
Agusan del Sur,,Tudela,8.069444,126.105,PHILIPPINES,PH,PHL
Iloilo,,Tiwi,10.929722,122.734167,PHILIPPINES,PH,PHL
Catanduanes,,San Juan,13.616667,124.316667,PHILIPPINES,PH,PHL
Catanduanes,,San Juan Pequeño,13.616667,124.316667,PHILIPPINES,PH,PHL
Catanduanes,,Pequeño San Juan,13.616667,124.316667,PHILIPPINES,PH,PHL
Sorsogon,,San Juan Daan,12.694444,123.925278,PHILIPPINES,PH,PHL
Sorsogon,,San Juan na Daan,12.694444,123.925278,PHILIPPINES,PH,PHL
Misamis Occidental,,Sabagusa,8.399722,123.829167,PHILIPPINES,PH,PHL
Misamis Occidental,,Saragusa,8.399722,123.829167,PHILIPPINES,PH,PHL
La Union,,Saracat,16.633333,120.383333,PHILIPPINES,PH,PHL
Sulu,,Sar,5.866667,121.266667,PHILIPPINES,PH,PHL
Lanao del Sur,,Saput,7.983333,124.366667,PHILIPPINES,PH,PHL
Cavite,,Sapa,14.321944,120.753889,PHILIPPINES,PH,PHL
Cavite,,Sapo,14.321944,120.753889,PHILIPPINES,PH,PHL
Surigao del Sur,,Tagbina,8.451944,126.171389,PHILIPPINES,PH,PHL
Cebu,,Tubod-Bitoon,10.083333,123.483333,PHILIPPINES,PH,PHL
Iloilo,,San Florentino,11.05,122.85,PHILIPPINES,PH,PHL
Pangasinan,,San Flaviano,16,120.733333,PHILIPPINES,PH,PHL
La Union,,San Fernando,16.618611,120.319444,PHILIPPINES,PH,PHL
Samar,,San Fernando,11.55,125,PHILIPPINES,PH,PHL
Camarines Norte,,Sico,14.166667,122.6,PHILIPPINES,PH,PHL
Maguindanao,,Sapalon,7.016667,124.366667,PHILIPPINES,PH,PHL
Maguindanao,,Sapalan,7.016667,124.366667,PHILIPPINES,PH,PHL
Abra,,Sap-al,17.683333,120.916667,PHILIPPINES,PH,PHL
Maguindanao,,Sapakan,6.909167,124.545278,PHILIPPINES,PH,PHL
South Cotabato,,Sapakan,6.302222,124.6675,PHILIPPINES,PH,PHL
South Cotabato,,Sipaka,6.302222,124.6675,PHILIPPINES,PH,PHL
South Cotabato,,Sapaka,6.302222,124.6675,PHILIPPINES,PH,PHL
Maguindanao,,Oring,7.426667,124.368056,PHILIPPINES,PH,PHL
Maguindanao,,Sapad,7.426667,124.368056,PHILIPPINES,PH,PHL
Pangasinan,,Tagac,15.75,120.3,PHILIPPINES,PH,PHL
Sultan Kudarat,,Sindiola,6.355833,124.108889,PHILIPPINES,PH,PHL
Leyte,,Sinayawan,11.266667,124.6,PHILIPPINES,PH,PHL
Davao del Sur,,Sinayawan,6.7125,125.309444,PHILIPPINES,PH,PHL
Davao del Sur,,Sinawilan,6.784167,125.38,PHILIPPINES,PH,PHL
Davao del Sur,,Sinavilan,6.784167,125.38,PHILIPPINES,PH,PHL
Davao del Sur,,Sinauilan,6.784167,125.38,PHILIPPINES,PH,PHL
Ilocos Sur,,Taramuting,17.533333,120.45,PHILIPPINES,PH,PHL
Lanao del Sur,,Taraca,7.888333,124.347222,PHILIPPINES,PH,PHL
Lanao del Sur,,Taraka,7.888333,124.347222,PHILIPPINES,PH,PHL
Albay,,Taragui,13.6,123.533333,PHILIPPINES,PH,PHL
Sulu,,Tambun,5.916667,120.916667,PHILIPPINES,PH,PHL
Davao del Sur,,Sibata,6.175278,125.638333,PHILIPPINES,PH,PHL
Albay,,San Vicente,13.35,123.516667,PHILIPPINES,PH,PHL
Albay,,San Vicente,13.05,123.683333,PHILIPPINES,PH,PHL
Albay,,San Vicente,13.033333,123.566667,PHILIPPINES,PH,PHL
Pangasinan,,Talancapa,16.066667,120.816667,PHILIPPINES,PH,PHL
Abra,,Talampac,17.716667,120.9,PHILIPPINES,PH,PHL
Bulacan,,Talaksan,14.966667,120.983333,PHILIPPINES,PH,PHL
Bulacan,,Talacsan,14.966667,120.983333,PHILIPPINES,PH,PHL
Bukidnon,,Talakag,8.233611,124.600278,PHILIPPINES,PH,PHL
Bukidnon,,Talacag,8.233611,124.600278,PHILIPPINES,PH,PHL
Cagayan,,Tungal,17.887222,121.889722,PHILIPPINES,PH,PHL
Toledo,,Tungal,5.083333,120.266667,PHILIPPINES,PH,PHL
Iloilo,,Tumcon Ilawod,10.916667,122.666667,PHILIPPINES,PH,PHL
Iloilo,,Tumcon Ilauod,10.916667,122.666667,PHILIPPINES,PH,PHL
Iloilo,,Tumcon,10.916667,122.666667,PHILIPPINES,PH,PHL
Nueva Ecija,,Totoloy-Guiset,15.783333,120.65,PHILIPPINES,PH,PHL
Leyte,,Victoria,11.15,124.983333,PHILIPPINES,PH,PHL
Iloilo,,Victoria,10.766667,122.316667,PHILIPPINES,PH,PHL
Misamis Occidental,,Victoria,8.466667,123.766667,PHILIPPINES,PH,PHL
Cagayan,,Vical,17.583333,121.883333,PHILIPPINES,PH,PHL
Camarines Sur,,Vical,13.483333,123.1,PHILIPPINES,PH,PHL
Bohol,,Vical,10.133333,124.15,PHILIPPINES,PH,PHL
South Cotabato,,Veterans Townsite,6.2775,124.799167,PHILIPPINES,PH,PHL
Ilocos Norte,,Veronica,18.066667,120.516667,PHILIPPINES,PH,PHL
Tarlac,,Santo Rosario,15.333333,120.566667,PHILIPPINES,PH,PHL
Davao,,Wañgan,7.159722,125.445278,PHILIPPINES,PH,PHL
Benguet,,Wangal,16.483333,120.566667,PHILIPPINES,PH,PHL
Benguet,,Wangal,16.466667,120.566667,PHILIPPINES,PH,PHL
Agusan del Sur,,Waloe,8.194444,125.779444,PHILIPPINES,PH,PHL
Agusan del Sur,,Waloc,8.194444,125.779444,PHILIPPINES,PH,PHL
La Union,,Walang,16.5,120.316667,PHILIPPINES,PH,PHL
Iloilo,,Santo Niño Sur,10.683333,122.516667,PHILIPPINES,PH,PHL
Iloilo,,Santo Niño Norte,10.683333,122.516667,PHILIPPINES,PH,PHL
Cebu,,Tabok-Kanal,10.3,123.9,PHILIPPINES,PH,PHL
Nueva Ecija,,Tabok,15.583333,121.183333,PHILIPPINES,PH,PHL
Bulacan,,Tabok,14.935556,120.989722,PHILIPPINES,PH,PHL
Bulacan,,Taboc,14.935556,120.989722,PHILIPPINES,PH,PHL
Palawan,,Tabod,8.395278,117.244444,PHILIPPINES,PH,PHL
Iloilo,,Tigmalapad,10.65,122.233333,PHILIPPINES,PH,PHL
Pangasinan,,Tambobong,16,120.05,PHILIPPINES,PH,PHL
Misamis Occidental,,Usucan,8.639722,123.687222,PHILIPPINES,PH,PHL
Misamis Occidental,,Usukan,8.639722,123.687222,PHILIPPINES,PH,PHL
Misamis Occidental,,Usokan,8.639722,123.687222,PHILIPPINES,PH,PHL
Camarines Sur,,Uson-Padlos,13.7,123.066667,PHILIPPINES,PH,PHL
Leyte,,Uson,11.544722,124.618333,PHILIPPINES,PH,PHL
Cebu,,Usmad,9.906667,123.558611,PHILIPPINES,PH,PHL
Cebu,,Osmad,9.906667,123.558611,PHILIPPINES,PH,PHL
Quezon,,Santo Domingo,13.966667,122.233333,PHILIPPINES,PH,PHL
Iloilo,,Santa Barbara,10.716667,122.266667,PHILIPPINES,PH,PHL
Ilocos Sur,,Santa Antigua,17.55,120.416667,PHILIPPINES,PH,PHL
Oriental Mindoro,,Santa Anastasia,13.133333,121.133333,PHILIPPINES,PH,PHL
Oriental Mindoro,,Santa Anastacia,13.133333,121.133333,PHILIPPINES,PH,PHL
Ilocos Norte,,Santa Ana,18.065556,120.794167,PHILIPPINES,PH,PHL
Bulacan,,Santa Ana,14.784167,120.882222,PHILIPPINES,PH,PHL
La Union,,Taoang,16.566667,120.5,PHILIPPINES,PH,PHL
Isabela,,Tanze,16.981667,121.649167,PHILIPPINES,PH,PHL
Capiz,,Tanza Sur,11.558333,122.784167,PHILIPPINES,PH,PHL
Capiz,,Tanza Norte,11.5825,122.800556,PHILIPPINES,PH,PHL
Capiz,,Tanza,11.5825,122.800556,PHILIPPINES,PH,PHL
Davao del Sur,,Tanwalang,6.644722,125.275833,PHILIPPINES,PH,PHL
Maguindanao,,Tanuel,7.183333,124.166667,PHILIPPINES,PH,PHL
Abra,,Ulolingen,17.45,120.616667,PHILIPPINES,PH,PHL
Abra,,Ul-ulingen,17.45,120.616667,PHILIPPINES,PH,PHL
Palawan,,Ulugan,10.05,118.8,PHILIPPINES,PH,PHL
Bohol,,Uliuli,9.865278,124.084444,PHILIPPINES,PH,PHL
Isabela,,Uldugan,16.423889,121.735556,PHILIPPINES,PH,PHL
Nueva Ecija,,San Juan Bautista,15.5,120.85,PHILIPPINES,PH,PHL
Nueva Ecija,,San Juan,15.5,120.85,PHILIPPINES,PH,PHL
Sorsogon,,San Juan Bag-o,12.679722,123.888611,PHILIPPINES,PH,PHL
Sorsogon,,San Juan,12.679722,123.888611,PHILIPPINES,PH,PHL
Cagayan,,San Juan,18.483333,121.35,PHILIPPINES,PH,PHL
Siquijor,,Solangan,9.173889,123.476111,PHILIPPINES,PH,PHL
Siquijor,,Solangon,9.173889,123.476111,PHILIPPINES,PH,PHL
Misamis Oriental,,Solana,8.623056,124.770556,PHILIPPINES,PH,PHL
Misamis Oriental,,Coloña,8.623056,124.770556,PHILIPPINES,PH,PHL
Quezon,,Silangan Palale,14.05,121.65,PHILIPPINES,PH,PHL
Leyte,,Tangnan,11.288056,124.6825,PHILIPPINES,PH,PHL
Bohol,,Tangnan,9.6125,123.783056,PHILIPPINES,PH,PHL
Cebu,,Tubud,9.983333,123.583333,PHILIPPINES,PH,PHL
Cebu,,Tubod,9.983333,123.583333,PHILIPPINES,PH,PHL
Bohol,,Tubod,9.95,124.016667,PHILIPPINES,PH,PHL
Cebu,,Tubod,9.830556,123.419444,PHILIPPINES,PH,PHL
Cebu,,Tubod,9.766667,123.516667,PHILIPPINES,PH,PHL
Abra,,Mayabe,17.166667,120.716667,PHILIPPINES,PH,PHL
Abra,,Tubo,17.166667,120.716667,PHILIPPINES,PH,PHL
Isabela,,Tubo,17.15,121.883333,PHILIPPINES,PH,PHL
Iloilo,,San Rafael,10.7,122.566667,PHILIPPINES,PH,PHL
Iloilo,,San Juan,10.7,122.55,PHILIPPINES,PH,PHL
Southern Leyte,,Cabalian,10.266944,125.175556,PHILIPPINES,PH,PHL
Southern Leyte,,San Juan,10.266944,125.175556,PHILIPPINES,PH,PHL
Leyte,,San Juan,10.271111,124.832778,PHILIPPINES,PH,PHL
Sulu,,Siunugan,5.516667,120.9,PHILIPPINES,PH,PHL
Agusan del Norte,,Tagabantay,9.2125,125.565833,PHILIPPINES,PH,PHL
Quezon,,Sumaguil,13.866667,121.516667,PHILIPPINES,PH,PHL
Cebu,,Sumaguan,9.933333,123.6,PHILIPPINES,PH,PHL
Eastern Samar,,Tabonan,11.663056,125.450278,PHILIPPINES,PH,PHL
Eastern Samar,,Tabunan,11.663056,125.450278,PHILIPPINES,PH,PHL
Cebu,,Tabonan,10.3,123.9,PHILIPPINES,PH,PHL
Bulacan,,Tabon,14.933333,120.85,PHILIPPINES,PH,PHL
Aklan,,Tabon,11.583333,122.5,PHILIPPINES,PH,PHL
Cebu,,Tabon,9.983333,123.566667,PHILIPPINES,PH,PHL
Pampanga,,Sucad,14.966111,120.775556,PHILIPPINES,PH,PHL
Quezon,,Tiguiwan,13.933333,122.45,PHILIPPINES,PH,PHL
Capiz,,Tiguis,11.550556,122.682778,PHILIPPINES,PH,PHL
Cotabato,,Upper San Mateo,7.173056,124.582222,PHILIPPINES,PH,PHL
Davao del Sur,,Upper Sabob,6.737222,125.27,PHILIPPINES,PH,PHL
Davao del Sur,,Upper Matina,7.15,125.5,PHILIPPINES,PH,PHL
Sultan Kudarat,,Upper Katungal,6.645556,124.6625,PHILIPPINES,PH,PHL
Sultan Kudarat,,Upper Kalandagan,6.650556,124.714167,PHILIPPINES,PH,PHL
Cotabato,,Upper Inas,6.969722,124.855556,PHILIPPINES,PH,PHL
Davao del Sur,,Upper Digos,6.764722,125.328611,PHILIPPINES,PH,PHL
Cotabato,,Tolonan,6.834444,124.876944,PHILIPPINES,PH,PHL
Cotabato,,Tulunan,6.834444,124.876944,PHILIPPINES,PH,PHL
Ilocos Norte,,San Megro,17.9825,120.723611,PHILIPPINES,PH,PHL
Pangasinan,,San Matias,15.95,120.666667,PHILIPPINES,PH,PHL
Iloilo,,South Valencia,10.65,122.716667,PHILIPPINES,PH,PHL
Maguindanao,,South Upi,6.833333,124.15,PHILIPPINES,PH,PHL
Maguindanao,,Looy,6.833333,124.15,PHILIPPINES,PH,PHL
Bataan,,Tortugas,14.7,120.566667,PHILIPPINES,PH,PHL
Sultan Kudarat,,Torte,6.848611,124.649167,PHILIPPINES,PH,PHL
Leyte,,Moroboro,10.883333,124.95,PHILIPPINES,PH,PHL
Bohol,,Mormol,9.605556,123.762778,PHILIPPINES,PH,PHL
Sorsogon,,Moring,12.720833,123.9825,PHILIPPINES,PH,PHL
Davao del Sur,,Melapigok,7.415278,125.345833,PHILIPPINES,PH,PHL
Davao del Sur,,Malapigok,7.415278,125.345833,PHILIPPINES,PH,PHL
Davao del Sur,,Pagsilaan,7.1,125.45,PHILIPPINES,PH,PHL
Dumaguete,,Tabuctubig,9.3,123.3,PHILIPPINES,PH,PHL
Iloilo,,Tabuc-Suba,10.733333,122.566667,PHILIPPINES,PH,PHL
Capiz,,Tabuc Pontevedra,11.483333,122.816667,PHILIPPINES,PH,PHL
Naga,,Tabuco,13.616667,123.183333,PHILIPPINES,PH,PHL
Iloilo,,Tabucan,10.919167,122.670833,PHILIPPINES,PH,PHL
Iloilo,,Tabucan,10.85,122.65,PHILIPPINES,PH,PHL
Tarlac,,Sinilian,15.723056,120.4525,PHILIPPINES,PH,PHL
Tarlac,,Sinilian 3,15.723056,120.4525,PHILIPPINES,PH,PHL
Tarlac,,Sinilian Tercero,15.723056,120.4525,PHILIPPINES,PH,PHL
Calbayog,,Sinidlan,12.151389,124.563056,PHILIPPINES,PH,PHL
Iloilo,,Siniba-an,11.016667,122.666667,PHILIPPINES,PH,PHL
Aklan,,Singcay,11.483333,122.3,PHILIPPINES,PH,PHL
Nueva Ecija,,Santa Cruz,15.266667,121.033333,PHILIPPINES,PH,PHL
Bulacan,,Santa Cruz,14.9,120.85,PHILIPPINES,PH,PHL
Iloilo,,San Nicolas,10.683333,122.633333,PHILIPPINES,PH,PHL
Misamis Oriental,,San Nicolas,8.678056,124.785556,PHILIPPINES,PH,PHL
Agusan del Sur,,Verdu,8.7275,125.711111,PHILIPPINES,PH,PHL
Davao del Sur,,Sugal,5.662222,125.461667,PHILIPPINES,PH,PHL
,,Sugal,5.580556,125.306111,PHILIPPINES,PH,PHL
,,Sagal,5.580556,125.306111,PHILIPPINES,PH,PHL
Quirino,,Sugag,16.083333,121.35,PHILIPPINES,PH,PHL
Lapu-Lapu,,Sudtungan,10.283333,123.95,PHILIPPINES,PH,PHL
Cebu,,Sudlon,10.3,123.9,PHILIPPINES,PH,PHL
Ilocos Sur,,Sucsucquit,17.633333,120.366667,PHILIPPINES,PH,PHL
Ilocos Sur,,Sucoc,17.6,120.466667,PHILIPPINES,PH,PHL
Ilocos Sur,,Santa Cruz,17.666667,120.4,PHILIPPINES,PH,PHL
Ilocos Sur,,Santa Cruz,17.085556,120.452222,PHILIPPINES,PH,PHL
Leyte,,San Isidro,11.166667,124.983333,PHILIPPINES,PH,PHL
Eastern Samar,,San Isidro,11.143056,125.48,PHILIPPINES,PH,PHL
Leyte,,San Isidro,11.084167,124.936389,PHILIPPINES,PH,PHL
Tarlac,,San Anton,15.383333,120.5,PHILIPPINES,PH,PHL
Leyte,,Sanang,10.466667,124.733333,PHILIPPINES,PH,PHL
Quezon,,San Andres Labak,13.95,121.866667,PHILIPPINES,PH,PHL
Ilocos Sur,,San Andres,17.2,120.45,PHILIPPINES,PH,PHL
Pangasinan,,San Andres,15.903056,120.706389,PHILIPPINES,PH,PHL
Cotabato,,Sebangan,7.116667,124.766667,PHILIPPINES,PH,PHL
Cotabato,,Sayugan,7.113333,124.831111,PHILIPPINES,PH,PHL
Lanao del Sur,,Tabaran,7.816667,124.083333,PHILIPPINES,PH,PHL
Aklan,,Tabangka,11.7,122.316667,PHILIPPINES,PH,PHL
Surigao del Sur,,Tigao,9.208889,126.176111,PHILIPPINES,PH,PHL
Camarines Sur,,Tierra Nevada,13.816667,123.333333,PHILIPPINES,PH,PHL
Camarines Sur,,Tinorilan,13.816667,123.333333,PHILIPPINES,PH,PHL
Camarines Sur,,Sierra Nevada,13.816667,123.333333,PHILIPPINES,PH,PHL
Surigao del Sur,,Tidman,8.298611,126.338889,PHILIPPINES,PH,PHL
Northern Samar,,Sangputan,12.366111,124.074444,PHILIPPINES,PH,PHL
Leyte,,Samputan,11.419722,124.906389,PHILIPPINES,PH,PHL
Leyte,,Sangputan,11.419722,124.906389,PHILIPPINES,PH,PHL
Bohol,,Ulbujan,9.883333,123.866667,PHILIPPINES,PH,PHL
Bohol,,Ulbuhan,9.634444,124.34,PHILIPPINES,PH,PHL
Bohol,,Ulbojan,9.634444,124.34,PHILIPPINES,PH,PHL
Bohol,,Olbuhan,9.634444,124.34,PHILIPPINES,PH,PHL
Bohol,,Ulbujan,9.634444,124.34,PHILIPPINES,PH,PHL
Albay,,Santa Teresa,13.316667,123.733333,PHILIPPINES,PH,PHL
Camarines Sur,,Santa Salud,13.7,123.066667,PHILIPPINES,PH,PHL
Quezon,,San Roque,13.833333,121.983333,PHILIPPINES,PH,PHL
Laguna,,Susong Dalaga,14.366667,121.366667,PHILIPPINES,PH,PHL
Sultan Kudarat,,Susod,6.6925,124.763056,PHILIPPINES,PH,PHL
Cotabato,,Ulandang,7.038611,124.493889,PHILIPPINES,PH,PHL
Davao,,Ula,7.132222,125.492222,PHILIPPINES,PH,PHL
Leyte,,Uguia,11.164722,124.764167,PHILIPPINES,PH,PHL
Leyte,,Uguiao,11.164722,124.764167,PHILIPPINES,PH,PHL
Mountain,,Ugtong,17.083333,121.25,PHILIPPINES,PH,PHL
Ilocos Sur,,Santa Monica,17.7,120.433333,PHILIPPINES,PH,PHL
San Pablo,,Santa Monica,14.05,121.3,PHILIPPINES,PH,PHL
Iloilo,,Santa Monica,10.736389,122.453333,PHILIPPINES,PH,PHL
Bulacan,,Sisirit,14.916667,120.866667,PHILIPPINES,PH,PHL
Misamis Oriental,,Taytayan,8.562222,124.356944,PHILIPPINES,PH,PHL
Sulu,,Taytayan,5.808889,121.2075,PHILIPPINES,PH,PHL
Sulu,,Tandu” Payukan,6.066667,121.066667,PHILIPPINES,PH,PHL
Sulu,,Tandu-Gusung,6.038611,121.386667,PHILIPPINES,PH,PHL
Sulu,,Tandu Guso,6.038611,121.386667,PHILIPPINES,PH,PHL
Cebu,,Tiguib,9.866667,123.566667,PHILIPPINES,PH,PHL
Camarines Sur,,San Isidro,13.65,123.166667,PHILIPPINES,PH,PHL
Naga,,San Isidro,13.6,123.25,PHILIPPINES,PH,PHL
Sorsogon,,San Antonio,12.833611,124.109444,PHILIPPINES,PH,PHL
Sorsogon,,San Antonio,12.683333,124.133333,PHILIPPINES,PH,PHL
Masbate,,San Antonio,12.183333,123.866667,PHILIPPINES,PH,PHL
Samar,,San Antonio,12.133333,124.833333,PHILIPPINES,PH,PHL
Leyte,,San Antonio,11.116667,124.966667,PHILIPPINES,PH,PHL
Iloilo,,San Antonio,11.1,122.633333,PHILIPPINES,PH,PHL
San Carlos (Negros Occidental),,Santo Niño,10.45,123.366667,PHILIPPINES,PH,PHL
South Cotabato,,Santo Niño,6.494167,124.867778,PHILIPPINES,PH,PHL
Bukidnon,,Santo Mingo,7.780278,125.384167,PHILIPPINES,PH,PHL
Pangasinan,,Santolon,16.1,120.05,PHILIPPINES,PH,PHL
Quezon,,Tigas,13.866667,122.366667,PHILIPPINES,PH,PHL
Iloilo,,Tig-apog-apog,10.65,122.233333,PHILIPPINES,PH,PHL
Maguindanao,,Tapian,7.136667,124.068056,PHILIPPINES,PH,PHL
Camarines Sur,,Tapi,13.783333,122.916667,PHILIPPINES,PH,PHL
Isabela,,Tapay,17.016667,122.2,PHILIPPINES,PH,PHL
Isabela,,Tapayo,17.016667,122.2,PHILIPPINES,PH,PHL
Abra,,Tapayen,17.766667,120.816667,PHILIPPINES,PH,PHL
Maguindanao,,Tapayan,7.433333,124.216667,PHILIPPINES,PH,PHL
Camarines Norte,,San Agustin,14.183333,122.9,PHILIPPINES,PH,PHL
Romblon,,San Agustin,12.568889,122.131389,PHILIPPINES,PH,PHL
Samar,,San Agustin,11.316667,125.1,PHILIPPINES,PH,PHL
Leyte,,San Agustin,10.95,125.033333,PHILIPPINES,PH,PHL
Camarines Norte,,Pagsanhan,14.183333,122.783333,PHILIPPINES,PH,PHL
Aklan,,Pagsanghan,11.633333,122.333333,PHILIPPINES,PH,PHL
Northern Samar,,Pagsanjan,12.383333,124.633333,PHILIPPINES,PH,PHL
Northern Samar,,Pagsanhan,12.383333,124.633333,PHILIPPINES,PH,PHL
Northern Samar,,Pagsangan,12.383333,124.633333,PHILIPPINES,PH,PHL
Northern Samar,,Pagsangan,12.35,124.666667,PHILIPPINES,PH,PHL
Quezon,,Polo,13.916667,121.316667,PHILIPPINES,PH,PHL
Antique,,Polo,11.816667,122.15,PHILIPPINES,PH,PHL
Negros Oriental,,Polo,9.966667,123.266667,PHILIPPINES,PH,PHL
Cebu,,Pilit,10.333333,123.95,PHILIPPINES,PH,PHL
Ilocos Sur,,Mapacac,16.966667,120.666667,PHILIPPINES,PH,PHL
Palawan,,Maoyon,10.005556,118.8975,PHILIPPINES,PH,PHL
Lanao del Sur,,Ma-ol,7.969167,124.256111,PHILIPPINES,PH,PHL
Lanao del Sur,,Maul,7.969167,124.256111,PHILIPPINES,PH,PHL
Southern Leyte,,Maojo,10.216667,124.983333,PHILIPPINES,PH,PHL
Iloilo,,Tabucan,10.816667,122.716667,PHILIPPINES,PH,PHL
Capiz,,Tabuc,11.433333,122.6,PHILIPPINES,PH,PHL
Laguna,,Wawang Bato,14.283333,121.15,PHILIPPINES,PH,PHL
Laguna,,Wauang Bato,14.283333,121.15,PHILIPPINES,PH,PHL
Laguna,,Walong Bato,14.283333,121.15,PHILIPPINES,PH,PHL
Laguna,,Wawang Anilao,14.4,121.433333,PHILIPPINES,PH,PHL
Bataan,,Wawa,14.6,120.583333,PHILIPPINES,PH,PHL
Iligan,,Taguibo,8.304722,124.256389,PHILIPPINES,PH,PHL
Iligan,,Tagibo,8.304722,124.256389,PHILIPPINES,PH,PHL
La Union,,Tagudtud,16.592778,120.453611,PHILIPPINES,PH,PHL
Benguet,,Taguda,16.75,120.75,PHILIPPINES,PH,PHL
Cebu,,Tag-ubi,10.466389,123.947778,PHILIPPINES,PH,PHL
Cebu,,Tag-ubi,10.3,123.9,PHILIPPINES,PH,PHL
Quezon,,Taguan,13.95,121.383333,PHILIPPINES,PH,PHL
Sorsogon,,Tugas,12.6,123.983333,PHILIPPINES,PH,PHL
Northern Samar,,Tugas,12.35,124.333333,PHILIPPINES,PH,PHL
Cebu,,Solongon,9.866667,123.366667,PHILIPPINES,PH,PHL
Cebu,,Sanglagan,9.866667,123.366667,PHILIPPINES,PH,PHL
Benguet,,Sangilo,16.35,120.666667,PHILIPPINES,PH,PHL
Lapu-Lapu,,Sangi,10.316667,123.966667,PHILIPPINES,PH,PHL
Albay,,Saromay,13.166667,123.433333,PHILIPPINES,PH,PHL
Palawan,,Saraza,8.735556,117.78,PHILIPPINES,PH,PHL
Misamis Oriental,,Saray,8.88,124.824722,PHILIPPINES,PH,PHL
Ilocos Sur,,Talogtog,17.2,120.45,PHILIPPINES,PH,PHL
Pangasinan,,Talogtog,15.8,120.283333,PHILIPPINES,PH,PHL
Zamboanaga del Sur,,Tinomobo,15.266667,120.2,PHILIPPINES,PH,PHL
Iloilo,,Tinocuan,11.016667,122.633333,PHILIPPINES,PH,PHL
Tarlac,,Tiaong,15.266667,120.383333,PHILIPPINES,PH,PHL
Bulacan,,Tiaong,14.940833,120.884444,PHILIPPINES,PH,PHL
Quezon,,Tiaong,13.953611,121.316111,PHILIPPINES,PH,PHL
Ilocos Sur,,Taigon,17.221944,120.617778,PHILIPPINES,PH,PHL
Ilocos Sur,,Tiagan,17.221944,120.617778,PHILIPPINES,PH,PHL
Camarines Sur,,San Francisco,13.65,123.166667,PHILIPPINES,PH,PHL
Camarines Sur,,San Francisco,13.65,123.116667,PHILIPPINES,PH,PHL
Camarines Sur,,San Francisco,13.633333,123.483333,PHILIPPINES,PH,PHL
Camarines Sur,,Auyaoyao,13.633333,123.483333,PHILIPPINES,PH,PHL
Sorsogon,,San Francisco,12.724722,123.906389,PHILIPPINES,PH,PHL
Sorsogon,,Potot,12.724722,123.906389,PHILIPPINES,PH,PHL
Eastern Samar,,San Francisco,11.805833,125.461667,PHILIPPINES,PH,PHL
Leyte,,San Francisco,11.243611,124.831111,PHILIPPINES,PH,PHL
Iloilo,,San Francisco Village,11.033889,122.876111,PHILIPPINES,PH,PHL
Iloilo,,San Francisco,11.033889,122.876111,PHILIPPINES,PH,PHL
Southern Leyte,,San Francisco,10.06,125.160556,PHILIPPINES,PH,PHL
Iloilo,,Sigañgao,10.833333,122.533333,PHILIPPINES,PH,PHL
Capiz,,Taganhin,11.266667,122.533333,PHILIPPINES,PH,PHL
Eastern Samar,,Sumji,11.4,125.55,PHILIPPINES,PH,PHL
Bukidnon,,Sumilao,8.287222,124.945556,PHILIPPINES,PH,PHL
Eastern Samar,,Sumihe,11.287778,125.541111,PHILIPPINES,PH,PHL
Pampanga,,Sulu,15.016667,120.533333,PHILIPPINES,PH,PHL
Lanao del Sur,,Sultaruro,7.75,124.166667,PHILIPPINES,PH,PHL
Lanao del Sur,,Sultaroro,7.75,124.166667,PHILIPPINES,PH,PHL
Maguindanao,,Sultan sa Barongis,6.8,124.636667,PHILIPPINES,PH,PHL
Maguindanao,,Lambayong,6.8,124.636667,PHILIPPINES,PH,PHL
Maguindanao,,Sisiman,7.2,124.3,PHILIPPINES,PH,PHL
Isabela,,Taroc,17.05,121.833333,PHILIPPINES,PH,PHL
Cotabato,,Tumangon,7.15,124.816667,PHILIPPINES,PH,PHL
Toledo,,Tong Pettong,5.048056,119.852778,PHILIPPINES,PH,PHL
Toledo,,Tongousong,5.083333,120.25,PHILIPPINES,PH,PHL
Bohol,,Tongo,10.1275,124.305,PHILIPPINES,PH,PHL
Toledo,,Tong Mageng,4.698056,119.395,PHILIPPINES,PH,PHL
Toledo,,Tang Mageng,4.698056,119.395,PHILIPPINES,PH,PHL
Toledo,,Tong Maging,4.698056,119.395,PHILIPPINES,PH,PHL
Southern Leyte,,San Miguel,10.293333,124.976389,PHILIPPINES,PH,PHL
Palawan,,San Miguel,10.067222,119.180278,PHILIPPINES,PH,PHL
Surigao del Sur,,San Miguel,8.968889,125.945,PHILIPPINES,PH,PHL
Iligan,,San Miguel,8.216667,124.233333,PHILIPPINES,PH,PHL
Bukidnon,,San Miguel,8.03,124.753889,PHILIPPINES,PH,PHL
South Cotabato,,San Miguel,6.489444,124.695278,PHILIPPINES,PH,PHL
Bulacan,,Santol,14.9,121.066667,PHILIPPINES,PH,PHL
Bulacan,,Banahaw,14.9,121.066667,PHILIPPINES,PH,PHL
Bulacan,,Santol,14.85,120.916667,PHILIPPINES,PH,PHL
Bohol,,Taguihon,9.633333,123.916667,PHILIPPINES,PH,PHL
Masbate,,Tabi,12.916667,123.116667,PHILIPPINES,PH,PHL
Camarines Sur,,Tabgon,13.766667,123.4,PHILIPPINES,PH,PHL
Romblon,,Tolay,12.379444,121.991667,PHILIPPINES,PH,PHL
Romblon,,Tulay,12.379444,121.991667,PHILIPPINES,PH,PHL
Iloilo,,Tolarucan,10.933333,122.566667,PHILIPPINES,PH,PHL
Iloilo,,Tularucan,10.933333,122.566667,PHILIPPINES,PH,PHL
Iloilo,,Tularocan,10.933333,122.566667,PHILIPPINES,PH,PHL
Davao del Sur,,Tolagan,6.683333,125.283333,PHILIPPINES,PH,PHL
Danao,,Toganon,10.513611,123.939444,PHILIPPINES,PH,PHL
Danao,,Togonon,10.513611,123.939444,PHILIPPINES,PH,PHL
Romblon,,Toctoc,12.95,122.083333,PHILIPPINES,PH,PHL
Leyte,,San Agustin,10.383333,124.75,PHILIPPINES,PH,PHL
Bohol,,San Agustin,9.633333,123.783333,PHILIPPINES,PH,PHL
Pangasinan,,Sasabuculen,15.883333,120.55,PHILIPPINES,PH,PHL
Bohol,,Santigian,9.833333,124.1,PHILIPPINES,PH,PHL
Cebu,,Santicon,9.850556,123.460278,PHILIPPINES,PH,PHL
Cebu,,Santikon,9.850556,123.460278,PHILIPPINES,PH,PHL
La Union,,Santiago Sur,16.6,120.316667,PHILIPPINES,PH,PHL
Cagayan,,Santiago,18.583333,121.116667,PHILIPPINES,PH,PHL
Pangasinan,,Santiago,16.233333,120,PHILIPPINES,PH,PHL
Pangasinan,,Santiago,16.05,120.783333,PHILIPPINES,PH,PHL
Leyte,,Tapkip,11.093889,124.876667,PHILIPPINES,PH,PHL
Leyte,,Tagkip,11.093889,124.876667,PHILIPPINES,PH,PHL
Leyte,,Tagkip,10.95,124.95,PHILIPPINES,PH,PHL
Cebu,,Tagjaguimit,10.216667,123.75,PHILIPPINES,PH,PHL
Bukidnon,,Tagiptip,8.386667,124.716389,PHILIPPINES,PH,PHL
Southern Leyte,,Taginoling,10.266667,124.966667,PHILIPPINES,PH,PHL
Southern Leyte,,Tagenoling,10.266667,124.966667,PHILIPPINES,PH,PHL
Sulu,,Maoacat-Uraan,6.05,120.483333,PHILIPPINES,PH,PHL
Capiz,,Natividad,11.483333,123,PHILIPPINES,PH,PHL
Ilocos Sur,,San Clemente de Nagtablaan,17.116667,120.5,PHILIPPINES,PH,PHL
Ilocos Sur,,San Clemente de Nagtablan,17.116667,120.5,PHILIPPINES,PH,PHL
Ilocos Sur,,Nagtablaan,17.116667,120.5,PHILIPPINES,PH,PHL
La Union,,Nagsinaan,16.533333,120.333333,PHILIPPINES,PH,PHL
La Union,,Nagsidurisan,16.533333,120.4,PHILIPPINES,PH,PHL
Camarines Norte,,Pilapilanay,14.166667,122.666667,PHILIPPINES,PH,PHL
Sultan Kudarat,,Pilandoc,6.669722,124.066944,PHILIPPINES,PH,PHL
Ilocos Sur,,Pila,17.116667,120.45,PHILIPPINES,PH,PHL
Batangas,,Pila,13.8,121.016667,PHILIPPINES,PH,PHL
Oriental Mindoro,,Waigan,12.566667,121.433333,PHILIPPINES,PH,PHL
Ifugao,,Wagwaguen,16.883333,121.1,PHILIPPINES,PH,PHL
Benguet,,Wagon,16.333333,120.816667,PHILIPPINES,PH,PHL
Lanao del Norte,,Wago,8.283333,124.416667,PHILIPPINES,PH,PHL
Ifugao,,Wacnihan,16.85,121.25,PHILIPPINES,PH,PHL
Batangas,,Volcan,14.083333,121.016667,PHILIPPINES,PH,PHL
Batangas,,Volcan,13.883333,120.916667,PHILIPPINES,PH,PHL
Zamboanaga del Sur,,Toco,15.25,120.2,PHILIPPINES,PH,PHL
Bohol,,Toco,10,124.133333,PHILIPPINES,PH,PHL
Sorsogon,,San Lorenzo,13.016667,124,PHILIPPINES,PH,PHL
Pangasinan,,Sanlibo,15.916667,120.55,PHILIPPINES,PH,PHL
Pangasinan,,San Leon,16.016667,120.8,PHILIPPINES,PH,PHL
Pangasinan,,San Leon,15.905278,120.727222,PHILIPPINES,PH,PHL
Bukidnon,,Sankanan,8.315556,124.858056,PHILIPPINES,PH,PHL
Bukidnon,,Sankanam,8.315556,124.858056,PHILIPPINES,PH,PHL
Ilocos Sur,,San Julian Sur,17.566667,120.4,PHILIPPINES,PH,PHL
Ilocos Sur,,San Julian,17.566667,120.4,PHILIPPINES,PH,PHL
Ilocos Norte,,San Julian,18.133333,120.783333,PHILIPPINES,PH,PHL
Ilocos Sur,,San Julian,17.583333,120.383333,PHILIPPINES,PH,PHL
Pangasinan,,San Julian,15.9375,120.6975,PHILIPPINES,PH,PHL
Nueva Ecija,,San Julian,15.2,120.85,PHILIPPINES,PH,PHL
Cebu,,Solsogan,9.866667,123.4,PHILIPPINES,PH,PHL
Davao del Sur,,Solosolo,6.0425,125.693056,PHILIPPINES,PH,PHL
Negros Oriental,,Solongon,10.033333,123.216667,PHILIPPINES,PH,PHL
Bulacan,,Siling Bata,14.881389,120.965,PHILIPPINES,PH,PHL
Bulacan,,Sileng Bata,14.881389,120.965,PHILIPPINES,PH,PHL
Bohol,,Siling,9.674722,124.313889,PHILIPPINES,PH,PHL
Cotabato,,Silik,7.0375,124.598333,PHILIPPINES,PH,PHL
La Union,,Sili,16.533333,120.383333,PHILIPPINES,PH,PHL
Leyte,,Taghuyan,10.95,124.866667,PHILIPPINES,PH,PHL
Misamis Oriental,,Tagcolot,8.370278,124.4475,PHILIPPINES,PH,PHL
Antique,,Tubudan,10.85,122.1,PHILIPPINES,PH,PHL
Trece Martires,,Tubud,10.367222,123.636667,PHILIPPINES,PH,PHL
Trece Martires,,Tubod,10.367222,123.636667,PHILIPPINES,PH,PHL
Palawan,,Tubtub,8.793333,117.833611,PHILIPPINES,PH,PHL
La Union,,Tioañgan,16.616667,120.45,PHILIPPINES,PH,PHL
Nueva Ecija,,San Rafael,15.733333,121.05,PHILIPPINES,PH,PHL
Cavite,,San Juan,14.174722,120.894722,PHILIPPINES,PH,PHL
Quezon,,San Juan,13.95,122.266667,PHILIPPINES,PH,PHL
Quezon,,Talipan,13.933333,121.683333,PHILIPPINES,PH,PHL
Lanao del Sur,,Tali-ogon,7.816667,124.116667,PHILIPPINES,PH,PHL
Lanao del Sur,,Tali-ogun,7.816667,124.116667,PHILIPPINES,PH,PHL
Lanao del Sur,,Talingon,7.816667,124.116667,PHILIPPINES,PH,PHL
Iloilo,,Talingting,11.478611,123.201111,PHILIPPINES,PH,PHL
Palawan,,Tagavayan,10.970278,121.219722,PHILIPPINES,PH,PHL
Palawan,,Tagauayan,10.970278,121.219722,PHILIPPINES,PH,PHL
Palawan,,Tagawayan,10.970278,121.219722,PHILIPPINES,PH,PHL
Toledo,,Tandubas,5.161111,120.343056,PHILIPPINES,PH,PHL
Toledo,,Tandu Banak,4.718889,119.496944,PHILIPPINES,PH,PHL
Toledo,,Tando Banak,4.718889,119.496944,PHILIPPINES,PH,PHL
Iloilo,,Taro,10.683333,122.383333,PHILIPPINES,PH,PHL
Catanduanes,,Tariwara,14.05,124.2,PHILIPPINES,PH,PHL
Sultan Kudarat,,Tamnag,6.567778,124.850556,PHILIPPINES,PH,PHL
Pangasinan,,Valdez,16.083333,120.866667,PHILIPPINES,PH,PHL
Bataan,,Uyong,14.643056,120.535556,PHILIPPINES,PH,PHL
Lanao del Sur,,Uyaan,7.863056,124.041111,PHILIPPINES,PH,PHL
Leyte,,Santa Cruz,10.865833,124.935278,PHILIPPINES,PH,PHL
Pasay,,San Isidro,14.553056,121.006111,PHILIPPINES,PH,PHL
Pangasinan,,Sinabodo,15.966667,120.85,PHILIPPINES,PH,PHL
Ilocos Sur,,Sinabaan,17.6,120.416667,PHILIPPINES,PH,PHL
Ilocos Sur,,Sinabaan,17.583333,120.35,PHILIPPINES,PH,PHL
Nueva Ecija,,Sinaaban,15.966667,120.75,PHILIPPINES,PH,PHL
Lanao del Sur,,Senon,7.830556,124.311389,PHILIPPINES,PH,PHL
Northern Samar,,Senimangan,12.5,124.383333,PHILIPPINES,PH,PHL
Basilan,,Sengal,6.660833,122.127222,PHILIPPINES,PH,PHL
Cotabato,,Tambiliban,7.05,124.533333,PHILIPPINES,PH,PHL
San Carlos (Negros Occidental),,Tambilagao,10.4,123.316667,PHILIPPINES,PH,PHL
Pangasinan,,Tocok,15.75,120.3,PHILIPPINES,PH,PHL
Lipa,,San Lucas,14.016667,121.183333,PHILIPPINES,PH,PHL
Iloilo,,San Lucas,11.051111,122.846389,PHILIPPINES,PH,PHL
Agusan del Sur,,San Isidro,8.060278,126.144722,PHILIPPINES,PH,PHL
Cotabato,,San Isidro,7.216389,124.523611,PHILIPPINES,PH,PHL
South Cotabato,,San Isidro,6.462778,124.860833,PHILIPPINES,PH,PHL
South Cotabato,,San Isidro,6.449444,124.6875,PHILIPPINES,PH,PHL
Samar,,San Isidor,11.504167,125.025,PHILIPPINES,PH,PHL
Samar,,San Isidro,11.504167,125.025,PHILIPPINES,PH,PHL
Cagayan,,Silong,18.45,121.383333,PHILIPPINES,PH,PHL
Occidental Mindoro,,Silong,12.783333,120.833333,PHILIPPINES,PH,PHL
Bohol,,Silob,9.85,124.016667,PHILIPPINES,PH,PHL
Camarines Sur,,Silmod,13.716667,123.35,PHILIPPINES,PH,PHL
Bukidnon,,Silipon,8.251667,124.819722,PHILIPPINES,PH,PHL
Bukidnon,,Sipilon,8.251667,124.819722,PHILIPPINES,PH,PHL
Sulu,,Sawaki”,5.966667,120.983333,PHILIPPINES,PH,PHL
Davao del Sur,,Talukanga,6.343333,125.641944,PHILIPPINES,PH,PHL
Ilocos Norte,,Talugtug,18.1,120.783333,PHILIPPINES,PH,PHL
Misamis Oriental,,Tipolohon,8.684167,124.922222,PHILIPPINES,PH,PHL
Iloilo,,Tipolo,11.066667,122.616667,PHILIPPINES,PH,PHL
Iloilo,,Tipolo,10.95,122.633333,PHILIPPINES,PH,PHL
Bohol,,Tipolo,10,124.233333,PHILIPPINES,PH,PHL
Bohol,,Tipolo,9.958611,124.184722,PHILIPPINES,PH,PHL
Quezon,,Tipaz,13.830833,121.428889,PHILIPPINES,PH,PHL
Quezon,,Tipas,13.830833,121.428889,PHILIPPINES,PH,PHL
Iligan,,Tiparat,8.246389,124.271111,PHILIPPINES,PH,PHL
Iligan,,Tipanoy,8.200833,124.256111,PHILIPPINES,PH,PHL
Laguna,,Tipacan,14.2,121.433333,PHILIPPINES,PH,PHL
Pampanga,,San Juan,14.947222,120.770278,PHILIPPINES,PH,PHL
Bulacan,,San Juan,14.816667,120.9,PHILIPPINES,PH,PHL
Bulacan,,San Juan,14.75,120.916667,PHILIPPINES,PH,PHL
Camarines Sur,,San Gabriel,13.566667,123.1,PHILIPPINES,PH,PHL
Eastern Samar,,San Gabriel,11.588889,125.362778,PHILIPPINES,PH,PHL
Bohol,,Sanga,10.033333,124.15,PHILIPPINES,PH,PHL
Cotabato,,Pikit,7.054444,124.671944,PHILIPPINES,PH,PHL
Cotabato,,Fort Pikit,7.054444,124.671944,PHILIPPINES,PH,PHL
Cotabato,,Pikit Pagalungan,7.054444,124.671944,PHILIPPINES,PH,PHL
Lanao del Sur,,Tatarican,7.768056,124.153333,PHILIPPINES,PH,PHL
Lanao del Sur,,Pagayawan,7.768056,124.153333,PHILIPPINES,PH,PHL
Lanao del Sur,,Tatarikan,7.768056,124.153333,PHILIPPINES,PH,PHL
Palawan,,Pangauanen,11.099167,119.331667,PHILIPPINES,PH,PHL
Palawan,,Pagauanen,11.099167,119.331667,PHILIPPINES,PH,PHL
Cagayan de Oro,,Pagatpat,8.46,124.581667,PHILIPPINES,PH,PHL
Bohol,,Pagatinan,9.95,124.25,PHILIPPINES,PH,PHL
Bohol,,Odiong,9.633333,124.35,PHILIPPINES,PH,PHL
Leyte,,Mojon,11,124.783333,PHILIPPINES,PH,PHL
Eastern Samar,,Maybacong,11.616667,125.45,PHILIPPINES,PH,PHL
Camarines Sur,,Mayaopayauan,13.566667,123.166667,PHILIPPINES,PH,PHL
Leyte,,Visoria,11.297778,124.669444,PHILIPPINES,PH,PHL
Leyte,,Bisoria,11.297778,124.669444,PHILIPPINES,PH,PHL
Occidental Mindoro,,Visayan,13.433333,120.483333,PHILIPPINES,PH,PHL
Oriental Mindoro,,Visayaan,13.433333,121.016667,PHILIPPINES,PH,PHL
Basilan,,Visaya,6.463889,122.207778,PHILIPPINES,PH,PHL
Isabela,,Vintar,17.191667,121.801944,PHILIPPINES,PH,PHL
Ilocos Sur,,Villa Garcia,17.033333,120.45,PHILIPPINES,PH,PHL
Davao,,Tugkalan,7.073889,125.425278,PHILIPPINES,PH,PHL
Davao,,Tingkelan,7.073889,125.425278,PHILIPPINES,PH,PHL
Davao,,Tankelan,7.073889,125.425278,PHILIPPINES,PH,PHL
Palawan,,Taniongbobog,8.733333,117.766667,PHILIPPINES,PH,PHL
Camarines Norte,,Tanid,14.25,122.766667,PHILIPPINES,PH,PHL
Bohol,,Tanhaligui,9.942778,124.171944,PHILIPPINES,PH,PHL
Cagayan,,Tangyud,18.933333,121.85,PHILIPPINES,PH,PHL
Maguindanao,,Tanguisen,7.181111,124.4625,PHILIPPINES,PH,PHL
Cebu,,Udlom,10.766667,123.983333,PHILIPPINES,PH,PHL
Cotabato,,Udañguen,7.266667,124.216667,PHILIPPINES,PH,PHL
Camarines Norte,,Ubungan,14.216667,122.866667,PHILIPPINES,PH,PHL
Leyte,,Ubun,10.846389,125.000833,PHILIPPINES,PH,PHL
Leyte,,Uban,10.846389,125.000833,PHILIPPINES,PH,PHL
Ifugao,,Ubuag,16.916667,121.066667,PHILIPPINES,PH,PHL
Bohol,,Obojan,9.85,123.8,PHILIPPINES,PH,PHL
Bohol,,Obajan,9.85,123.8,PHILIPPINES,PH,PHL
Bohol,,Ubojan,9.85,123.8,PHILIPPINES,PH,PHL
Batangas,,Bolboc,13.830278,121.400833,PHILIPPINES,PH,PHL
Batangas,,San Juan,13.830278,121.400833,PHILIPPINES,PH,PHL
Batangas,,Bolbok,13.830278,121.400833,PHILIPPINES,PH,PHL
Camarines Sur,,San Juan,13.7,123.05,PHILIPPINES,PH,PHL
Camarines Sur,,San Juan,13.65,123.166667,PHILIPPINES,PH,PHL
Cotabato,,Soal,7.181111,124.704167,PHILIPPINES,PH,PHL
Cotabato,,Saal,7.181111,124.704167,PHILIPPINES,PH,PHL
Eastern Samar,,Soad,11.161667,125.630278,PHILIPPINES,PH,PHL
Lanao del Sur,,Small-Sugod,7.85,124.15,PHILIPPINES,PH,PHL
Lanao del Sur,,Sugod,7.85,124.15,PHILIPPINES,PH,PHL
Cagayan,,Siguiran,18.416667,121.383333,PHILIPPINES,PH,PHL
Eastern Samar,,Tangbo,12.15,125.433333,PHILIPPINES,PH,PHL
Samar,,Tangbo,12.133333,125.233333,PHILIPPINES,PH,PHL
Masbate,,Tangay,12.333333,123.7,PHILIPPINES,PH,PHL
Palawan,,Tandol,10.55,119.983333,PHILIPPINES,PH,PHL
Nueva Ecija,,Tila Payong,15.65,121,PHILIPPINES,PH,PHL
Zamboanaga del Sur,,Tila,15.266667,120.25,PHILIPPINES,PH,PHL
Quezon,,Tikiwan,13.95,122.283333,PHILIPPINES,PH,PHL
Abra,,Tiking,17.2,120.716667,PHILIPPINES,PH,PHL
Pampanga,,San Isidro,14.883333,120.516667,PHILIPPINES,PH,PHL
Bulacan,,San Isidro,14.833333,120.766667,PHILIPPINES,PH,PHL
Bulacan,,San Antonio,14.9,120.783333,PHILIPPINES,PH,PHL
Bulacan,,San Antonio,14.866667,120.766667,PHILIPPINES,PH,PHL
Iloilo,,Santa Cruz,10.683333,122.516667,PHILIPPINES,PH,PHL
Southern Leyte,,Santa Cruz,10.216667,124.983333,PHILIPPINES,PH,PHL
Southern Leyte,,Sa Cruz,10.216667,124.983333,PHILIPPINES,PH,PHL
Southern Leyte,,Santa Cruz,10.133333,124.833333,PHILIPPINES,PH,PHL
Southern Leyte,,Santa Cruz,10.055,125.0275,PHILIPPINES,PH,PHL
Bohol,,Santa Cruz,9.883333,123.866667,PHILIPPINES,PH,PHL
Surigao del Sur,,Santa Cruz,8.833333,126.314722,PHILIPPINES,PH,PHL
Misamis Oriental,,Santa Cruz,8.603611,124.911944,PHILIPPINES,PH,PHL
Camarines Sur,,Sua,13.616667,123.133333,PHILIPPINES,PH,PHL
Albay,,Sua,13.183333,123.666667,PHILIPPINES,PH,PHL
Sorsogon,,Sua,12.55,124,PHILIPPINES,PH,PHL
Sulu,,Sū,6.016667,121.183333,PHILIPPINES,PH,PHL
Sulu,,Suoc,6.016667,121.183333,PHILIPPINES,PH,PHL
Maguindanao,,Una-Malala,6.750278,124.87,PHILIPPINES,PH,PHL
South Cotabato,,Tukanadilas,6.450278,124.890278,PHILIPPINES,PH,PHL
South Cotabato,,Tukadilas,6.450278,124.890278,PHILIPPINES,PH,PHL
Lanao del Sur,,Tuka,7.831667,124.116111,PHILIPPINES,PH,PHL
Mountain,,Tugwachan,17.066667,121.25,PHILIPPINES,PH,PHL
Leyte,,Tuguipa,10.377778,124.82,PHILIPPINES,PH,PHL
Occidental Mindoro,,Tuguilan,13.2325,120.5575,PHILIPPINES,PH,PHL
Eastern Samar,,San Saturnino,11.673889,125.460833,PHILIPPINES,PH,PHL
Eastern Samar,,San Satumino,11.673889,125.460833,PHILIPPINES,PH,PHL
Agusan del Sur,,San Salvador,8.650278,125.905278,PHILIPPINES,PH,PHL
Pampanga,,San Roque Cutcut,15.133333,120.583333,PHILIPPINES,PH,PHL
Legaspi,,San Roque,13.154722,123.754167,PHILIPPINES,PH,PHL
Davao del Sur,,Talaud,6.308056,125.621944,PHILIPPINES,PH,PHL
Davao del Sur,,Talud,6.308056,125.621944,PHILIPPINES,PH,PHL
Lanao del Sur,,Talub,7.883333,124.333333,PHILIPPINES,PH,PHL
Lanao del Sur,,Taiu-an,7.856389,124.349444,PHILIPPINES,PH,PHL
Lanao del Sur,,Talu-an,7.856389,124.349444,PHILIPPINES,PH,PHL
Benguet,,Taloy,16.333333,120.5,PHILIPPINES,PH,PHL
Cagayan de Oro,,Umalag,8.486389,124.731111,PHILIPPINES,PH,PHL
Misamis Oriental,,Barrio Umagus,8.808056,124.816389,PHILIPPINES,PH,PHL
Misamis Oriental,,Umagos,8.808056,124.816389,PHILIPPINES,PH,PHL
Bataan,,Tucop,14.883333,120.466667,PHILIPPINES,PH,PHL
Nueva Ecija,,Tucdan,15.816667,120.616667,PHILIPPINES,PH,PHL
Nueva Ecija,,Tucdao,15.816667,120.616667,PHILIPPINES,PH,PHL
Lanao del Sur,,Tucasan,7.781111,124.333056,PHILIPPINES,PH,PHL
Catanduanes,,Tucao,13.966667,124.183333,PHILIPPINES,PH,PHL
Quezon,,Tucalan,13.966667,121.683333,PHILIPPINES,PH,PHL
Ifugao,,Tucac,16.683333,121,PHILIPPINES,PH,PHL
Leyte,,San Roque,10.383333,124.75,PHILIPPINES,PH,PHL
Cebu,,San Roque,10.3,123.883333,PHILIPPINES,PH,PHL
Misamis Oriental,,Siladi,8.974722,124.778889,PHILIPPINES,PH,PHL
Misamis Oriental,,Silad,8.974722,124.778889,PHILIPPINES,PH,PHL
Toledo,,Si Kubung Tausan,5.1,120.283333,PHILIPPINES,PH,PHL
Zamboanga del Sur,,Sicanan,7.644722,122.140278,PHILIPPINES,PH,PHL
Zamboanga del Sur,,Sikanan,7.644722,122.140278,PHILIPPINES,PH,PHL
Lanao del Sur,,Tangcal,7.74,124.211667,PHILIPPINES,PH,PHL
Leyte,,Talisayan,10.95,124.7,PHILIPPINES,PH,PHL
Leyte,,Talisayan,10.816667,124.916667,PHILIPPINES,PH,PHL
Misamis Oriental,,Talisayan,8.996389,124.884167,PHILIPPINES,PH,PHL
Pangasinan,,Talisay,16.033333,120.366667,PHILIPPINES,PH,PHL
Iloilo,,Tuy-an West,10.9,122.433333,PHILIPPINES,PH,PHL
Sulu,,Tuyang,5.921389,121.1375,PHILIPPINES,PH,PHL
South Cotabato,,Tuyan,6,125.283333,PHILIPPINES,PH,PHL
Leyte,,Rawis,10.95,125,PHILIPPINES,PH,PHL
Lanao del Norte,,Ravongon,8.266667,124.5,PHILIPPINES,PH,PHL
Samar,,Rauis,12.033333,124.816667,PHILIPPINES,PH,PHL
Cotabato,,Ratabur,7.439722,124.647222,PHILIPPINES,PH,PHL
Maguindanao,,Rasañgan,7.216667,124.3,PHILIPPINES,PH,PHL
Toledo,,Pasigan de Lea,5.233333,120.4,PHILIPPINES,PH,PHL
Iloilo,,Pasig,11.266667,123.016667,PHILIPPINES,PH,PHL
Antique,,Pascuala,11.15,122.05,PHILIPPINES,PH,PHL
Isabela,,Vintar,17.15,121.883333,PHILIPPINES,PH,PHL
Trece Martires,,Viga Kapinyahan,10.383333,123.633333,PHILIPPINES,PH,PHL
Albay,,Viga,13.216667,124.2,PHILIPPINES,PH,PHL
Quezon,,Viena,13.983333,121.683333,PHILIPPINES,PH,PHL
Bulacan,,Santa Rita,14.85,120.862222,PHILIPPINES,PH,PHL
Iloilo,,Santa Rita,10.719722,122.456389,PHILIPPINES,PH,PHL
Iloilo,,Santa Rita,10.583333,122.133333,PHILIPPINES,PH,PHL
Sulu,,San Raymundo,6.05,121,PHILIPPINES,PH,PHL
Lanao del Sur,,Sungud,8.037778,124.273333,PHILIPPINES,PH,PHL
Lanao del Sur,,Sunggod,8.037778,124.273333,PHILIPPINES,PH,PHL
Tagaytay,,Sungay,14.116667,120.916667,PHILIPPINES,PH,PHL
Misamis Oriental,,Sunga,8.451389,124.402778,PHILIPPINES,PH,PHL
Misamis Oriental,,Sungai,8.451389,124.402778,PHILIPPINES,PH,PHL
Misamis Oriental,,Sungay,8.451389,124.402778,PHILIPPINES,PH,PHL
Bukidnon,,Sungaong,7.771667,125.393611,PHILIPPINES,PH,PHL
Eastern Samar,,Sung-an,11.033333,125.733333,PHILIPPINES,PH,PHL
Sulu,,Sungal,6.083333,121.083333,PHILIPPINES,PH,PHL
Abra,,Tineg,17.765,120.928889,PHILIPPINES,PH,PHL
Ilocos Norte,,Tanganoan,18.2,120.683333,PHILIPPINES,PH,PHL
Sulu,,Tangan,5.766667,120.9,PHILIPPINES,PH,PHL
Cagayan,,Sirit,18.4,121.416667,PHILIPPINES,PH,PHL
Zamboanga del Sur,,Sirawi,7.585278,122.139722,PHILIPPINES,PH,PHL
Zamboanga del Sur,,Siraway,7.585278,122.139722,PHILIPPINES,PH,PHL
Zamboanga del Sur,,Siraguay,7.585278,122.139722,PHILIPPINES,PH,PHL
Zamboanga del Sur,,Sirawai,7.585278,122.139722,PHILIPPINES,PH,PHL
Davao del Sur,,Sirawan,6.987778,125.488056,PHILIPPINES,PH,PHL
Davao del Sur,,Sirauan,6.987778,125.488056,PHILIPPINES,PH,PHL
Cebu,,Sirao,10.408333,123.8775,PHILIPPINES,PH,PHL
Laguna,,Sirang-Lupa,14.2,121.1,PHILIPPINES,PH,PHL
Benguet,,Toplao,16.783333,120.75,PHILIPPINES,PH,PHL
Toledo,,Toong Toong,5.233333,120.35,PHILIPPINES,PH,PHL
Quirino,,Toong,16.1,121.383333,PHILIPPINES,PH,PHL
Cebu,,Toong,10.283333,123.866667,PHILIPPINES,PH,PHL
Abra,,Toon,17.666667,120.683333,PHILIPPINES,PH,PHL
Bohol,,Toog,9.716667,124.083333,PHILIPPINES,PH,PHL
Laguna,,San Antonio,14.2,121.5,PHILIPPINES,PH,PHL
Laguna,,Serena,14.383333,121.5,PHILIPPINES,PH,PHL
Iloilo,,Serallo,10.95,122.716667,PHILIPPINES,PH,PHL
Misamis Occidental,,Senote,8.466667,123.766667,PHILIPPINES,PH,PHL
Pangasinan,,Santo Niño,15.883333,120.583333,PHILIPPINES,PH,PHL
Negros Occidental,,Tablas,9.833333,122.866667,PHILIPPINES,PH,PHL
Nueva Ecija,,Tablang,15.583333,121.116667,PHILIPPINES,PH,PHL
Ilocos Sur,,Tablac,17.216667,120.483333,PHILIPPINES,PH,PHL
Isabela,,Tappa,16.716667,122.066667,PHILIPPINES,PH,PHL
Negros Oriental,,Tapon Norte,9.416667,123.233333,PHILIPPINES,PH,PHL
Cebu,,Tapol,10.25,123.85,PHILIPPINES,PH,PHL
Cotabato,,Tapodok,7.05,124.583333,PHILIPPINES,PH,PHL
Sorsogon,,San Agustin,12.7,124.033333,PHILIPPINES,PH,PHL
La Union,,San Agustin,16.616667,120.3,PHILIPPINES,PH,PHL
La Union,,San Agustin,16.533333,120.35,PHILIPPINES,PH,PHL
Tarlac,,San Agustin,15.840556,120.606667,PHILIPPINES,PH,PHL
Nueva Ecija,,San Augustin,15.830833,120.634722,PHILIPPINES,PH,PHL
Nueva Ecija,,San Agustin,15.830833,120.634722,PHILIPPINES,PH,PHL
Tagbilaran,,Union,9.633333,123.866667,PHILIPPINES,PH,PHL
Albay,,Santo Domingo,13.235278,123.777222,PHILIPPINES,PH,PHL
Sorsogon,,Santo Domingo,13.033333,124.033333,PHILIPPINES,PH,PHL
La Union,,Santo Cristo,16.366667,120.35,PHILIPPINES,PH,PHL
Abra,,Sorocok,17.45,120.75,PHILIPPINES,PH,PHL
Eastern Samar,,Surok,11.626111,125.420278,PHILIPPINES,PH,PHL
Eastern Samar,,Saroc,11.626111,125.420278,PHILIPPINES,PH,PHL
Eastern Samar,,Soroc,11.626111,125.420278,PHILIPPINES,PH,PHL
Ilocos Sur,,Sorioan,17.123611,120.538611,PHILIPPINES,PH,PHL
Ilocos Sur,,Sarioan,17.123611,120.538611,PHILIPPINES,PH,PHL
Surigao del Sur,,Soriana,8.435833,126.115,PHILIPPINES,PH,PHL
Surigao del Sur,,Soriano,8.435833,126.115,PHILIPPINES,PH,PHL
Samar,,Soong,11.893889,124.419444,PHILIPPINES,PH,PHL
Eastern Samar,,So-ong,11.428333,125.536111,PHILIPPINES,PH,PHL
Eastern Samar,,San Isidro,11.428333,125.536111,PHILIPPINES,PH,PHL
Iloilo,,So-ol,10.9,122.733333,PHILIPPINES,PH,PHL
Iloilo,,So-oc,10.7,122.566667,PHILIPPINES,PH,PHL
Pangasinan,,Sonson,15.783333,120.3,PHILIPPINES,PH,PHL
Sultan Kudarat,,Tiburos,6.233333,124.183333,PHILIPPINES,PH,PHL
Davao del Sur,,Tibungog,6.490833,125.578889,PHILIPPINES,PH,PHL
Sultan Kudarat,,Tibulos,6.15,124.289167,PHILIPPINES,PH,PHL
South Cotabato,,Tantangan,6.615,124.748889,PHILIPPINES,PH,PHL
Ilocos Sur,,Sampatingan,17.221111,120.502222,PHILIPPINES,PH,PHL
Ilocos Sur,,Sampalingen,17.221111,120.502222,PHILIPPINES,PH,PHL
Bukidnon,,Sampagar,7.513889,124.955278,PHILIPPINES,PH,PHL
Southern Leyte,,San Roque,10.15,125,PHILIPPINES,PH,PHL
Southern Leyte,,San Roque,10.035,125.009167,PHILIPPINES,PH,PHL
Bohol,,San Roque,9.630833,123.934167,PHILIPPINES,PH,PHL
Surigao del Sur,,San Roque,7.916667,126.365,PHILIPPINES,PH,PHL
Tagaytay,,Suplang,14.083333,120.916667,PHILIPPINES,PH,PHL
Ilocos Sur,,Supit,17.833333,120.483333,PHILIPPINES,PH,PHL
Samar,,Schatan,11.401667,125.133056,PHILIPPINES,PH,PHL
Samar,,Sohoton,11.401667,125.133056,PHILIPPINES,PH,PHL
Sorsogon,,Sogoy,12.983333,123.778056,PHILIPPINES,PH,PHL
Sorsogon,,Sogov,12.983333,123.778056,PHILIPPINES,PH,PHL
Sorsogon,,Sugoy,12.983333,123.778056,PHILIPPINES,PH,PHL
Iloilo,,Tenio-an,10.883333,122.483333,PHILIPPINES,PH,PHL
Rizal,,Tutulo,14.466667,121.2,PHILIPPINES,PH,PHL
Samar,,Tutugiban,11.812222,125.1,PHILIPPINES,PH,PHL
Samar,,Totobigan,11.812222,125.1,PHILIPPINES,PH,PHL
Davao Oriental,,San Rafael,7.763889,126.455833,PHILIPPINES,PH,PHL
Ilocos Sur,,San Quintin,17.7,120.433333,PHILIPPINES,PH,PHL
Samar,,San Pelagio,11.989167,124.784444,PHILIPPINES,PH,PHL
Samar,,San Pelayo,11.989167,124.784444,PHILIPPINES,PH,PHL
Bukidnon,,San Fernando,7.866389,125.233611,PHILIPPINES,PH,PHL
Batangas,,San Felix,14.073056,121.196389,PHILIPPINES,PH,PHL
Batangas,,San Feliz,14.073056,121.196389,PHILIPPINES,PH,PHL
Oriental Mindoro,,Tayawan,12.2525,121.253056,PHILIPPINES,PH,PHL
Benguet,,Tayan,16.249167,120.712778,PHILIPPINES,PH,PHL
Palawan,,Tando,9.25,118.416667,PHILIPPINES,PH,PHL
Sulu,,Tandiung,6.019722,121.32,PHILIPPINES,PH,PHL
Sulu,,Tanjung,6.019722,121.32,PHILIPPINES,PH,PHL
Ilocos Sur,,Tandiam,17.75,120.433333,PHILIPPINES,PH,PHL
Bohol,,Tanday,9.679722,123.915278,PHILIPPINES,PH,PHL
Bohol,,Tandey,9.679722,123.915278,PHILIPPINES,PH,PHL
Rizal,,Sandalan,14.633056,121.332778,PHILIPPINES,PH,PHL
Iloilo,,Villarkayo,10.966667,122.7,PHILIPPINES,PH,PHL
Ilocos Sur,,Villarica,17.216667,120.433333,PHILIPPINES,PH,PHL
Leyte,,Villapaz,11.148889,124.790278,PHILIPPINES,PH,PHL
Pangasinan,,Villanueva,15.783333,120.55,PHILIPPINES,PH,PHL
Sorsogon,,Villanueva,12.816667,124.1,PHILIPPINES,PH,PHL
Bohol,,Villanueva,9.95,123.983333,PHILIPPINES,PH,PHL
Sultan Kudarat,,Villamor Crossing,6.707222,124.574167,PHILIPPINES,PH,PHL
Quezon,,Villa Mercedes,14.033333,122.166667,PHILIPPINES,PH,PHL
Agusan del Norte,,Victory,9.156944,125.561667,PHILIPPINES,PH,PHL
Cebu,,Tindog Sur,11.133333,123.966667,PHILIPPINES,PH,PHL
Camarines Sur,,Telegrafo,13.7,123.516667,PHILIPPINES,PH,PHL
Leyte,,Telegrapo,11.034722,125.033889,PHILIPPINES,PH,PHL
Leyte,,Telegrafo,11.034722,125.033889,PHILIPPINES,PH,PHL
Southern Leyte,,Salug,10.4,125.2,PHILIPPINES,PH,PHL
Cebu,,Salug,9.85,123.466667,PHILIPPINES,PH,PHL
Zamboanga del Sur,,Silucap,8.0625,122.666944,PHILIPPINES,PH,PHL
Zamboanga del Sur,,Salucap,8.0625,122.666944,PHILIPPINES,PH,PHL
Iloilo,,Ubang,10.95,122.633333,PHILIPPINES,PH,PHL
Ilocos Sur,,Ubanan,17.216667,120.7,PHILIPPINES,PH,PHL
Lanao del Sur,,Salaman,7.855556,124.356944,PHILIPPINES,PH,PHL
Camarines Sur,,San Miguel,13.883333,123.7,PHILIPPINES,PH,PHL
Quezon,,San Miguel,13.883333,122.25,PHILIPPINES,PH,PHL
Batangas,,San Miguel,13.7,121.116667,PHILIPPINES,PH,PHL
Naga,,San Miguel,13.65,123.183333,PHILIPPINES,PH,PHL
Abra,,San Isidro,17.6,120.783333,PHILIPPINES,PH,PHL
La Union,,Sinapangan,16.666667,120.333333,PHILIPPINES,PH,PHL
Bukidnon,,Sinanoag,7.55,125.1,PHILIPPINES,PH,PHL
Sorsogon,,Sinangatan,12.533333,124.016667,PHILIPPINES,PH,PHL
Iloilo,,Sinamay,10.8,122.45,PHILIPPINES,PH,PHL
Misamis Oriental,,Tamboboan,8.666667,124.9,PHILIPPINES,PH,PHL
Leyte,,Tolosa,11.1,125.016667,PHILIPPINES,PH,PHL
Leyte,,Tolosa,11.059722,125.036111,PHILIPPINES,PH,PHL
Batangas,,Tolos,13.766667,121.283333,PHILIPPINES,PH,PHL
Naga,,Tolong Poro,13.566667,123.216667,PHILIPPINES,PH,PHL
Camarines Norte,,Tigbi,14.25,122.7,PHILIPPINES,PH,PHL
Leyte,,San Isidro,10.95,125.033333,PHILIPPINES,PH,PHL
Iloilo,,San Isidro,10.733333,122.5,PHILIPPINES,PH,PHL
Iloilo,,San Isidro,10.7,122.566667,PHILIPPINES,PH,PHL
Iloilo,,San Isidro,10.666667,122.583333,PHILIPPINES,PH,PHL
Leyte,,San Isidro,10.4,124.833333,PHILIPPINES,PH,PHL
Cebu,,San Isidro,10.266667,123.833333,PHILIPPINES,PH,PHL
Southern Leyte,,San Isidro,10.25,125,PHILIPPINES,PH,PHL
Bohol,,San Isidro,9.916667,123.883333,PHILIPPINES,PH,PHL
Cebu,,San Isidro,9.883333,123.433333,PHILIPPINES,PH,PHL
Angeles,,Santo Cristo,15.133333,120.583333,PHILIPPINES,PH,PHL
Bulacan,,Santo Cristo,14.933333,120.85,PHILIPPINES,PH,PHL
Bulacan,,Santo Cristo,14.883333,120.866667,PHILIPPINES,PH,PHL
Bulacan,,Santo Cristo,14.833333,120.833333,PHILIPPINES,PH,PHL
Lanao del Norte,,Tagoloan,8.1,124.283333,PHILIPPINES,PH,PHL
Lanao del Sur,,Tagoloan,8.083333,124.45,PHILIPPINES,PH,PHL
Lanao del Norte,,Tagol,7.816667,123.633333,PHILIPPINES,PH,PHL
Quirino,,Tagod,16.273889,121.323611,PHILIPPINES,PH,PHL
Bulacan,,Tabang,14.873889,120.863056,PHILIPPINES,PH,PHL
Bulacan,,Tabong,14.873889,120.863056,PHILIPPINES,PH,PHL
Bulacan,,Tabang,14.819444,120.898333,PHILIPPINES,PH,PHL
Tagbilaran,,Tiwi,9.666667,123.883333,PHILIPPINES,PH,PHL
Bukidnon,,Tirocan,8.189167,124.586667,PHILIPPINES,PH,PHL
Bukidnon,,Tirokon,8.189167,124.586667,PHILIPPINES,PH,PHL
Maguindanao,,Sambuluan,6.883333,124.7,PHILIPPINES,PH,PHL
Maguindanao,,Sambulawan,6.883333,124.7,PHILIPPINES,PH,PHL
Cotabato,,Sambulawan,7.233333,124.733333,PHILIPPINES,PH,PHL
Bohol,,Sapinitan,9.921111,124.130278,PHILIPPINES,PH,PHL
Camarines Sur,,Santa Rosa-Bonat,13.733333,123.25,PHILIPPINES,PH,PHL
Camarines Sur,,Santa Rosa,13.733333,123.25,PHILIPPINES,PH,PHL
Camarines Sur,,Santa Rosa-Bonot,13.733333,123.25,PHILIPPINES,PH,PHL
Ilocos Norte,,Santa Rosa,18.266667,120.616667,PHILIPPINES,PH,PHL
Nueva Vizcaya,,Santa Rosa,16.333333,120.966667,PHILIPPINES,PH,PHL
Bulacan,,Santa Rosa,14.766667,120.966667,PHILIPPINES,PH,PHL
Tagbilaran,,Tagbilaran,9.6475,123.855556,PHILIPPINES,PH,PHL
Tagbilaran,,Tagbilaran City,9.6475,123.855556,PHILIPPINES,PH,PHL
Palawan,,Tagbayog,9.066667,118.05,PHILIPPINES,PH,PHL
Sorsogon,,Tenagbac,12.884444,123.739722,PHILIPPINES,PH,PHL
Iloilo,,Tanglad,10.666667,122.6,PHILIPPINES,PH,PHL
Bukidnon,,Tangkulan,8.333333,124.816667,PHILIPPINES,PH,PHL
Iloilo,,San Fernando,10.65,122.233333,PHILIPPINES,PH,PHL
Bohol,,San Fernando,10.166667,124.3,PHILIPPINES,PH,PHL
Albay,,Salvacion,13.066667,123.616667,PHILIPPINES,PH,PHL
Sorsogon,,Salvacion,13.016667,123.6,PHILIPPINES,PH,PHL
Sorsogon,,Salvacion,12.833333,123.833333,PHILIPPINES,PH,PHL
Masbate,,Salvacion,12.318056,123.702222,PHILIPPINES,PH,PHL
Masbate,,Salvacion,12.2,123.85,PHILIPPINES,PH,PHL
Iloilo,,Salvacion,11.466667,123.083333,PHILIPPINES,PH,PHL
Ormoc,,Salvacion,11.05,124.583333,PHILIPPINES,PH,PHL
Antique,,Salvacion,10.8,122.016667,PHILIPPINES,PH,PHL
Iloilo,,Salvacion,10.683333,122.616667,PHILIPPINES,PH,PHL
Ormoc,,Saong,11.05,124.516667,PHILIPPINES,PH,PHL
La Union,,Saoay,16.616667,120.316667,PHILIPPINES,PH,PHL
Pangasinan,,Saoat,15.833333,120.55,PHILIPPINES,PH,PHL
Dagupan,,Saoangan,16.066667,120.316667,PHILIPPINES,PH,PHL
Ilocos Norte,,Saoang,18.1,120.516667,PHILIPPINES,PH,PHL
Ilocos Sur,,San Isidro,17.733333,120.433333,PHILIPPINES,PH,PHL
Ilocos Sur,,Saoang,17.733333,120.433333,PHILIPPINES,PH,PHL
La Union,,San Felipe,16.7,120.4,PHILIPPINES,PH,PHL
Nueva Vizcaya,,San Felipe,16.416667,120.95,PHILIPPINES,PH,PHL
Zamboanga del Sur,,Sianib,8.366667,123.5,PHILIPPINES,PH,PHL
Zamboanga del Sur,,Sinanib,8.366667,123.5,PHILIPPINES,PH,PHL
Cotabato,,Siabon,7.4,124.733333,PHILIPPINES,PH,PHL
Ormoc,,Tambuco,11.047778,124.604444,PHILIPPINES,PH,PHL
Negros Occidental,,Tamborong,9.65,122.583333,PHILIPPINES,PH,PHL
Nueva Ecija,,Salmag,15.416667,121.183333,PHILIPPINES,PH,PHL
Tarlac,,Salle,15.75,120.583333,PHILIPPINES,PH,PHL
Sorsogon,,San Vicente,12.978056,123.822222,PHILIPPINES,PH,PHL
Northern Samar,,San Vicente,12.271111,124.1,PHILIPPINES,PH,PHL
Eastern Samar,,San Vicente,11.857222,125.467778,PHILIPPINES,PH,PHL
Samar,,San Vicente,11.874167,124.8325,PHILIPPINES,PH,PHL
Leyte,,San Vicente,11.216667,124.8,PHILIPPINES,PH,PHL
Leyte,,San Vicente,11.208611,124.81,PHILIPPINES,PH,PHL
Leyte,,San Vincente,11.208611,124.81,PHILIPPINES,PH,PHL
Leyte,,San Vicente,11.023333,124.995278,PHILIPPINES,PH,PHL
Palawan,,San Vicente,10.55,119.266667,PHILIPPINES,PH,PHL
Southern Leyte,,San Vicente,10.266667,125.25,PHILIPPINES,PH,PHL
Southern Leyte,,San Vicente,10.183333,124.983333,PHILIPPINES,PH,PHL
Butuan,,San Vicente,8.911389,125.553333,PHILIPPINES,PH,PHL
Butuan,,San Vincente,8.911389,125.553333,PHILIPPINES,PH,PHL
Ilocos Sur,,Tacbo,16.95,120.65,PHILIPPINES,PH,PHL
Samar,,Tacay,11.733333,125.233333,PHILIPPINES,PH,PHL
Pampanga,,Tacasan,14.933333,120.716667,PHILIPPINES,PH,PHL
Iloilo,,Tacas,10.766667,122.55,PHILIPPINES,PH,PHL
Laguna,,Villafranca,14.216667,121.416667,PHILIPPINES,PH,PHL
