CountrySubdivision,CountrySubdivisionCode,Municipality,Latitude,Longitude,Country,CountryCode,CountryCode3
Jämtland,,Tunvågen,62.883333,14.666667,SWEDEN,SE,SWE
Jämtland,,Tunnvågen,62.883333,14.666667,SWEDEN,SE,SWE
Jönköping,,Tunnerbohult,57.1,13.2,SWEDEN,SE,SWE
Västra Götaland,,Tunhem,58.216667,13.533056,SWEDEN,SE,SWE
Västra Götaland,,Östra Tunhem,58.216667,13.533056,SWEDEN,SE,SWE
Kronoberg,,Vraneke,56.933333,15.183333,SWEDEN,SE,SWE
Västernorrland,,Tuna,62.65,17.333333,SWEDEN,SE,SWE
Blekinge Län,,Torsö,56,14.65,SWEDEN,SE,SWE
Dalarna Län,,Torsmo,61.2,14.966667,SWEDEN,SE,SWE
Uppsala,,Torslunda,59.75,17.033333,SWEDEN,SE,SWE
Kalmar,,Torslunda,56.633333,16.5,SWEDEN,SE,SWE
Skåne,,Torslehult,56.433333,13.783333,SWEDEN,SE,SWE
Jönköping,,Torskinge,57.116667,13.8,SWEDEN,SE,SWE
Västernorrland,,Vi,62.3,17.166667,SWEDEN,SE,SWE
Västernorrland,,Viforsen,62.3,17.166667,SWEDEN,SE,SWE
Jämtland,,Tuvattnet,63.866667,14.7,SWEDEN,SE,SWE
Jämtland,,Tjuvvattnet,63.866667,14.7,SWEDEN,SE,SWE
Jämtland,,Tjufvattnet,63.866667,14.7,SWEDEN,SE,SWE
Västra Götaland,,Tjuvkil,57.9,11.733333,SWEDEN,SE,SWE
Stockholm,,Tjustvik,59.316667,18.35,SWEDEN,SE,SWE
Värmland,,Taserud,59.666667,12.6,SWEDEN,SE,SWE
Dalarna Län,,Tasbäck,60.766667,14.883333,SWEDEN,SE,SWE
Kronoberg,,Tavastehult,56.566667,15.116667,SWEDEN,SE,SWE
Kronoberg,,Tarvastehult,56.566667,15.116667,SWEDEN,SE,SWE
Skåne,,Tarstad,55.916667,13.05,SWEDEN,SE,SWE
Västmanland,,Svedvi,59.583333,16.266667,SWEDEN,SE,SWE
Västerbotten,,Svedum,64.633333,20.8,SWEDEN,SE,SWE
Västerbotten,,Svedun,64.633333,20.8,SWEDEN,SE,SWE
Stockholm,,Svedmyra,59.266667,18.083333,SWEDEN,SE,SWE
Stockholm,,Svedlandet,59.531944,18.722778,SWEDEN,SE,SWE
Västra Götaland,,Sundshult,57.75,12.8,SWEDEN,SE,SWE
Kalmar,,Vråka,58.016667,16.55,SWEDEN,SE,SWE
Kalmar,,Vrå,57.816667,16.05,SWEDEN,SE,SWE
Hallands Län,,Vrå,57.366667,12.333333,SWEDEN,SE,SWE
Kronoberg,,Vrå,56.716667,13.466667,SWEDEN,SE,SWE
Stockholm,,Tarby,59.666667,18.116667,SWEDEN,SE,SWE
Västra Götaland,,Tärby,57.833333,13.1,SWEDEN,SE,SWE
Dalarna Län,,Svedjebyn,60.5,14.833333,SWEDEN,SE,SWE
Jämtland,,Svedjebodarna,62.9,14.2,SWEDEN,SE,SWE
Jämtland,,Svedje,63.4,13.166667,SWEDEN,SE,SWE
Västernorrland,,Svedje,63.283333,18.633333,SWEDEN,SE,SWE
Jämtland,,Svedje,63.116667,14.5,SWEDEN,SE,SWE
Jämtland,,Svedje,63.016667,16.083333,SWEDEN,SE,SWE
Jämtland,,Svedje,62.983333,15.016667,SWEDEN,SE,SWE
Jämtland,,Svedje,62.916667,14.316667,SWEDEN,SE,SWE
Norrbotten,,Svedjan,66.35,22.733333,SWEDEN,SE,SWE
Norrbotten,,Svedjan,65.833333,21.95,SWEDEN,SE,SWE
Dalarna Län,,Svedjan,60.55,15.1,SWEDEN,SE,SWE
Kronoberg,,Värpeshult,56.733333,14.366667,SWEDEN,SE,SWE
Kronoberg,,Värpeshult,56.65,14.25,SWEDEN,SE,SWE
Uppsala,,Vallatorp,60.466667,17.483333,SWEDEN,SE,SWE
Jämtland,,Vallåsen,64.733333,14.016667,SWEDEN,SE,SWE
Norrbotten,,Vietas,67.483333,18.35,SWEDEN,SE,SWE
Norrbotten,,Vietasbygget,67.483333,18.35,SWEDEN,SE,SWE
Blekinge Län,,Vieryd,56.166667,15.15,SWEDEN,SE,SWE
Västerbotten,,Vidstrandsnäs,64.3,19.15,SWEDEN,SE,SWE
Norrbotten,,Vidsel,65.85,20.516667,SWEDEN,SE,SWE
Västra Götaland,,Sundshall,58.316667,11.85,SWEDEN,SE,SWE
Värmland,,Sundsbyn,59.45,11.85,SWEDEN,SE,SWE
Värmland,,Sundsbyn,59.233333,12.016667,SWEDEN,SE,SWE
Västernorrland,,Sundsbruk,62.458056,17.348889,SWEDEN,SE,SWE
Västernorrland,,Sund,62.458056,17.348889,SWEDEN,SE,SWE
Västra Götaland,,Sundsandvik,58.316667,11.7,SWEDEN,SE,SWE
Västerbotten,,Sundö,64.15,19.333333,SWEDEN,SE,SWE
Jönköping,,Sundhultsbrunn,57.916667,14.9,SWEDEN,SE,SWE
Värmland,,Tjustersby,59.85,13.2,SWEDEN,SE,SWE
Kalmar,,Tjuståsa,57.233333,16.35,SWEDEN,SE,SWE
Örebro,,Västra Kedjeåsen,59.466667,14.466667,SWEDEN,SE,SWE
Örebro,,Kedjeåsen,59.466667,14.466667,SWEDEN,SE,SWE
Skåne,,Västra Kärrstorp,55.5,13.15,SWEDEN,SE,SWE
Värmland,,Västra Kärra,59.35,13.233056,SWEDEN,SE,SWE
Skåne,,Västra Karleby,55.816667,13.033333,SWEDEN,SE,SWE
Skåne,,Västra Karaby,55.816667,13.033333,SWEDEN,SE,SWE
Skåne,,Västra Kalhult,56.366667,14.016667,SWEDEN,SE,SWE
Jämtland,,Väster-Kälen,63.35,14.383333,SWEDEN,SE,SWE
Jämtland,,Västra Kälen,63.35,14.383333,SWEDEN,SE,SWE
Skåne,,Västra Ingelstad,55.483333,13.116667,SWEDEN,SE,SWE
Gävleborgs Län,,Storsveden,60.666667,16.783333,SWEDEN,SE,SWE
Dalarna Län,,Storsveden,60.65,15.833333,SWEDEN,SE,SWE
Norrbotten,,Storsträskbyn,65.483333,21.083333,SWEDEN,SE,SWE
Norrbotten,,Storsträsk,65.483333,21.083333,SWEDEN,SE,SWE
Örebro,,Tarsta,59.116667,15.333333,SWEDEN,SE,SWE
Örebro,,Svennevad,59.016667,15.366667,SWEDEN,SE,SWE
Skåne,,Vasalt,56.383333,12.716667,SWEDEN,SE,SWE
Blekinge Län,,Vasakul,56.266667,15.066667,SWEDEN,SE,SWE
Dalarna Län,,Väsa,61.183333,14.066667,SWEDEN,SE,SWE
Västernorrland,,Varvsudden,63.216667,18.666667,SWEDEN,SE,SWE
Jämtland,,Värviken,62.916667,15.083333,SWEDEN,SE,SWE
Uppsala,,Vallby,59.7,17.133333,SWEDEN,SE,SWE
Uppsala,,Vallby,59.6,17.666667,SWEDEN,SE,SWE
Västmanland,,Vallby,59.55,16.283333,SWEDEN,SE,SWE
Skåne,,Stora Uppåkra,55.666667,13.15,SWEDEN,SE,SWE
Gävleborgs Län,,Svedjorna,62.05,16.216667,SWEDEN,SE,SWE
Jämtland,,Svedjelandet,63.033333,15.833333,SWEDEN,SE,SWE
Värmland,,Sundstorp,59.433333,13.733333,SWEDEN,SE,SWE
Jämtland,,Vallbo,63.15,13.066667,SWEDEN,SE,SWE
Västra Götaland,,Vallbäcken,58.433333,14.2,SWEDEN,SE,SWE
Gotlands Län,,Ungbåtels,57.283333,18.5,SWEDEN,SE,SWE
Stockholm,,Undra,59.783333,18.583333,SWEDEN,SE,SWE
Stockholm,,Underskog,59.65,18.616667,SWEDEN,SE,SWE
Örebro,,Stortorp,59.883333,14.966667,SWEDEN,SE,SWE
Stockholm,,Stortorp,59.25,18.133333,SWEDEN,SE,SWE
Örebro,,Stortorp,59.233333,15.333333,SWEDEN,SE,SWE
Västmanland,,Tuna,59.583333,15.683333,SWEDEN,SE,SWE
Södermanland,,Tuna,59.366667,17.25,SWEDEN,SE,SWE
Södermanland,,Tuna,58.916667,17.466667,SWEDEN,SE,SWE
Södermanland,,Tuna,58.733056,16.833056,SWEDEN,SE,SWE
Kalmar,,Tuna,57.583333,16.1,SWEDEN,SE,SWE
Skåne,,Tuna,55.916667,12.7,SWEDEN,SE,SWE
Västra Götaland,,Tun,58.433333,12.733333,SWEDEN,SE,SWE
Västerbotten,,Volgsjöfors,64.55,16.75,SWEDEN,SE,SWE
Uppsala,,Stora Viggeby,59.7,17.25,SWEDEN,SE,SWE
Uppsala,,Stora Viggby,59.7,17.25,SWEDEN,SE,SWE
Östergötland,,Stora Viborg,58.383333,16.316667,SWEDEN,SE,SWE
Kalmar,,Stora Ved,58.116667,16.116667,SWEDEN,SE,SWE
Kronoberg,,Torseryd,56.816667,13.516667,SWEDEN,SE,SWE
Värmland,,Torserud,59.066667,13.15,SWEDEN,SE,SWE
Skåne,,Torsebro,56.1,14.116667,SWEDEN,SE,SWE
Värmland,,Torsby,59.983333,13.65,SWEDEN,SE,SWE
Värmland,,Torsby Två,59.983333,13.65,SWEDEN,SE,SWE
Värmland,,Torsby En,59.966667,13.65,SWEDEN,SE,SWE
Värmland,,Torsby,59.966667,13.65,SWEDEN,SE,SWE
Värmland,,Torsby,60.133333,13,SWEDEN,SE,SWE
Stockholm,,Torsby,59.333333,18.483333,SWEDEN,SE,SWE
Jämtland,,Torsborg,62.816667,13.45,SWEDEN,SE,SWE
Stockholm,,Torsborg,59.683056,17.649722,SWEDEN,SE,SWE
Örebro,,Torsborg,59.216667,15.466667,SWEDEN,SE,SWE
Jämtland,,Vallarna,64.75,14,SWEDEN,SE,SWE
Jämtland,,Vallan,63.333333,12.516667,SWEDEN,SE,SWE
Stockholm,,Ulvsunda,59.333333,17.966667,SWEDEN,SE,SWE
Västra Götaland,,Ulvstorp,58.316667,12.816667,SWEDEN,SE,SWE
Gävleborgs Län,,Ulvsta,60.883333,16.666667,SWEDEN,SE,SWE
Gävleborgs Län,,Ulfsta,60.883333,16.666667,SWEDEN,SE,SWE
Västra Götaland,,Ulvsrud,58.95,12.35,SWEDEN,SE,SWE
Västra Götaland,,Ulfserud,58.95,12.35,SWEDEN,SE,SWE
Blekinge Län,,Ulvsmåla,56.483333,15.383333,SWEDEN,SE,SWE
Västernorrland,,Ulvsjön,62.266667,16.416667,SWEDEN,SE,SWE
Västernorrland,,Ulfsjön,62.266667,16.416667,SWEDEN,SE,SWE
Värmland,,Ulvsjö,59.35,13.933333,SWEDEN,SE,SWE
Uppsala,,Storsten,60.533333,17.983333,SWEDEN,SE,SWE
Västerbotten,,Tuggensele,64.483333,18.883333,SWEDEN,SE,SWE
Västerbotten,,Tuggenforsen,64.483333,18.9,SWEDEN,SE,SWE
Jönköping,,Tuddabo,57.1,14.3,SWEDEN,SE,SWE
Jönköping,,Tubbarp,57.9,14.75,SWEDEN,SE,SWE
Blekinge Län,,Tubbarp,56.266667,15.183333,SWEDEN,SE,SWE
Kronoberg,,Vitteryd,57.066667,14.533333,SWEDEN,SE,SWE
Värmland,,Vittensten,59.8,12.35,SWEDEN,SE,SWE
Värmland,,Hvittensten,59.8,12.35,SWEDEN,SE,SWE
Västmanland,,Vittensten,59.75,15.816667,SWEDEN,SE,SWE
Värmland,,Vittensten,59.5,12.05,SWEDEN,SE,SWE
Värmland,,Hvittensten,59.5,12.05,SWEDEN,SE,SWE
Jönköping,,Vittaryd,57.866667,14.783333,SWEDEN,SE,SWE
Kronoberg,,Vittaryd,56.966667,13.933333,SWEDEN,SE,SWE
Jämtland,,Torrvallen,62.466667,14.183333,SWEDEN,SE,SWE
Västra Götaland,,Torrskog,59.166667,12.083333,SWEDEN,SE,SWE
Västernorrland,,Torrsjö,62.216667,17.283333,SWEDEN,SE,SWE
Västernorrland,,Torrom,62.533333,17.8,SWEDEN,SE,SWE
Kronoberg,,Tjugosjö,56.7,15.3,SWEDEN,SE,SWE
Örebro,,Tjugesta,59.366667,15.383333,SWEDEN,SE,SWE
Södermanland,,Tjugesta,59.066667,16.35,SWEDEN,SE,SWE
Norrbotten,,Vettasjärvi,67.366667,21.683333,SWEDEN,SE,SWE
Jönköping,,Vitlanda,57.433333,15.066667,SWEDEN,SE,SWE
Jönköping,,Vetlanda,57.433333,15.066667,SWEDEN,SE,SWE
Värmland,,Västra Fågelvik,59.433056,11.85,SWEDEN,SE,SWE
Värmland,,Vestre Fågelvik,59.433056,11.85,SWEDEN,SE,SWE
Västernorrland,,Tarasjöberg,63.683333,16.733333,SWEDEN,SE,SWE
Blekinge Län,,Tararp,56.216667,14.866667,SWEDEN,SE,SWE
Hallands Län,,Täppet,56.7,12.766667,SWEDEN,SE,SWE
Värmland,,Täppan,60.183333,12.95,SWEDEN,SE,SWE
Västra Götaland,,Västra Eggvena,58.083333,12.866667,SWEDEN,SE,SWE
Stockholm,,Västra Edsvik,59.866667,19.016667,SWEDEN,SE,SWE
Stockholm,,Edsvik,59.866667,19.016667,SWEDEN,SE,SWE
Hallands Län,,Väröbacka,57.25,12.183333,SWEDEN,SE,SWE
Västerbotten,,Volgsele,64.733333,16.783333,SWEDEN,SE,SWE
Norrbotten,,Vivunki,67.75,22.2,SWEDEN,SE,SWE
Norrbotten,,Vivungi,67.75,22.2,SWEDEN,SE,SWE
Kronoberg,,Vivljunga,56.583333,13.5,SWEDEN,SE,SWE
Västmanland,,Vivastbo,60.15,16.633333,SWEDEN,SE,SWE
Jämtland,,Vivallen,62.566667,12.433333,SWEDEN,SE,SWE
Jämtland,,Vitvattskölen,62.3,14.55,SWEDEN,SE,SWE
Södermanland,,Sveaborg,59.1,16.633333,SWEDEN,SE,SWE
Gävleborgs Län,,Svarven,61.366667,16.933333,SWEDEN,SE,SWE
Blekinge Län,,Svarvaremåla,56.316667,15,SWEDEN,SE,SWE
Kalmar,,Svarvardalen,58.233333,16.116667,SWEDEN,SE,SWE
Västmanland,,Svarvarbo,59.933333,16.216667,SWEDEN,SE,SWE
Västernorrland,,Svartviken,62.683333,16.533333,SWEDEN,SE,SWE
Västernorrland,,Svartvik,62.593333,17.935,SWEDEN,SE,SWE
Västernorrland,,Torsböle,63.383333,18.883333,SWEDEN,SE,SWE
Kalmar,,Vickleby,56.583333,16.466667,SWEDEN,SE,SWE
Värmland,,Vickersrudstorp,59.166667,12.766667,SWEDEN,SE,SWE
Jönköping,,Vickelsbo,57.166667,13.233333,SWEDEN,SE,SWE
Västmanland,,Viby,60.1,17.2,SWEDEN,SE,SWE
Stockholm,,Viby,59.45,17.9,SWEDEN,SE,SWE
Södermanland,,Viby,58.9,16.7,SWEDEN,SE,SWE
Östergötland,,Viby,58.366667,15.3,SWEDEN,SE,SWE
Dalarna Län,,Viborg,61.1,14.65,SWEDEN,SE,SWE
Gotlands Län,,Vibble,57.6,18.25,SWEDEN,SE,SWE
Dalarna Län,,Vibberbo,60.316667,16.1,SWEDEN,SE,SWE
Västmanland,,Sundbo,59.966667,15.9,SWEDEN,SE,SWE
Dalarna Län,,Sundbäck,61.083333,14.65,SWEDEN,SE,SWE
Dalarna Län,,Sundänget,60.7,15.8,SWEDEN,SE,SWE
Västmanland,,Sundänge,59.533333,15.766667,SWEDEN,SE,SWE
Västra Götaland,,Sundals Härad,58.5,12.383333,SWEDEN,SE,SWE
Västernorrland,,Sund,63.266667,18.666667,SWEDEN,SE,SWE
Västernorrland,,Sund,62.916667,18.266667,SWEDEN,SE,SWE
Jämtland,,Tjåure,63.916667,13.266667,SWEDEN,SE,SWE
Västra Götaland,,Västra Ebbared,57.75,12.866667,SWEDEN,SE,SWE
Västra Götaland,,Ebbared,57.75,12.866667,SWEDEN,SE,SWE
Västmanland,,Västra Djupkärra,60.066667,15.783333,SWEDEN,SE,SWE
Skåne,,Västraby,56.233333,14.083333,SWEDEN,SE,SWE
Skåne,,Västraby,56.083333,12.833333,SWEDEN,SE,SWE
Kalmar,,Bredasjö,56.55,15.65,SWEDEN,SE,SWE
Kalmar,,Västra Bredasjö,56.55,15.65,SWEDEN,SE,SWE
Jämtland,,Västra Brattmon,63.616667,14.066667,SWEDEN,SE,SWE
Värmland,,Västra Bön,59.516667,11.833333,SWEDEN,SE,SWE
Jämtland,,Storselbodarna,62.833333,15.783333,SWEDEN,SE,SWE
Västerbotten,,Storsävarträsk,64.433333,19.916667,SWEDEN,SE,SWE
Dalarna Län,,Storsätern,62.066667,12.316667,SWEDEN,SE,SWE
Kronoberg,,Tånneryd,56.5,13.55,SWEDEN,SE,SWE
Östergötland,,Tannefors,58.4,15.633333,SWEDEN,SE,SWE
Jämtland,,Tanne,63.183333,14.566667,SWEDEN,SE,SWE
Västerbotten,,Tannbäck,64.516667,18.75,SWEDEN,SE,SWE
Västerbotten,,Tängvattnet,65.833333,14.9,SWEDEN,SE,SWE
Västernorrland,,Tängsta,63.333333,17.016667,SWEDEN,SE,SWE
Stockholm,,Värmdö,59.35,18.5,SWEDEN,SE,SWE
Södermanland,,Värmbol,59,16.166667,SWEDEN,SE,SWE
Kalmar,,Värlebo,57.05,16.2,SWEDEN,SE,SWE
Kalmar,,Verlebo,57.05,16.2,SWEDEN,SE,SWE
Östergötland,,Värla,58.5,15.833333,SWEDEN,SE,SWE
Norrbotten,,Varjisträsk,66.033333,19.55,SWEDEN,SE,SWE
Norrbotten,,Vargisträsk,66.033333,19.55,SWEDEN,SE,SWE
Norrbotten,,Varjisån,65.883333,20.316667,SWEDEN,SE,SWE
Norrbotten,,Vargisån,65.883333,20.316667,SWEDEN,SE,SWE
Jämtland,,Värjaren,64.8,14.683333,SWEDEN,SE,SWE
Västra Götaland,,Väring,58.5,13.95,SWEDEN,SE,SWE
Södermanland,,Värhulta,59.316667,15.966667,SWEDEN,SE,SWE
Norrbotten,,Vittangi Kapell,67.683333,21.65,SWEDEN,SE,SWE
Norrbotten,,Vittangi,67.683333,21.65,SWEDEN,SE,SWE
Kronoberg,,Viås,57.116667,15.05,SWEDEN,SE,SWE
Stockholm,,Svartsö,59.456944,18.679722,SWEDEN,SE,SWE
Gävleborgs Län,,Sund,61.7,17.083333,SWEDEN,SE,SWE
Gävleborgs Län,,Sund,61.283333,17.016667,SWEDEN,SE,SWE
Uppsala,,Sund,60.316667,18.333333,SWEDEN,SE,SWE
Västra Götaland,,Valeberg,58.2,13.2,SWEDEN,SE,SWE
Västra Götaland,,Valeberg,58.166667,13.433333,SWEDEN,SE,SWE
Värmland,,Våle,59.45,13.383333,SWEDEN,SE,SWE
Jönköping,,Valdshult,57.5,13.733333,SWEDEN,SE,SWE
Jönköping,,Waldshult,57.5,13.733333,SWEDEN,SE,SWE
Värmland,,Valdersrud,58.95,13.183333,SWEDEN,SE,SWE
Gotlands Län,,Valbytte,57.433333,18.133333,SWEDEN,SE,SWE
Gotlands Län,,Valbyte,57.433333,18.133333,SWEDEN,SE,SWE
Örebro,,Vesta,59.1,15.183333,SWEDEN,SE,SWE
Värmland,,Västra Furtan,59.65,12.75,SWEDEN,SE,SWE
Västra Götaland,,Suled,59.116667,12.366667,SWEDEN,SE,SWE
Norrbotten,,Suodok,66.3,20.4,SWEDEN,SE,SWE
Norrbotten,,Sudok,66.3,20.4,SWEDEN,SE,SWE
Västerbotten,,Ulriksberg,65.35,20.083333,SWEDEN,SE,SWE
Östergötland,,Ulrika,58.116667,15.433333,SWEDEN,SE,SWE
Norrbotten,,Ulmjärv,66.65,22.1,SWEDEN,SE,SWE
Norrbotten,,Ulmjärvstrand,66.65,22.1,SWEDEN,SE,SWE
Skåne,,Trusseröd,55.783333,14.083333,SWEDEN,SE,SWE
Blekinge Län,,Truseryd,56.1,15.85,SWEDEN,SE,SWE
Dalarna Län,,Trunna,61.116667,14.633333,SWEDEN,SE,SWE
Norrbotten,,Trundön,65.383333,21.75,SWEDEN,SE,SWE
Västra Götaland,,Varnumskulle,57.816667,13.15,SWEDEN,SE,SWE
Västernorrland,,Värns,63.033333,18.4,SWEDEN,SE,SWE
Stockholm,,Varnö,59.030556,18.370556,SWEDEN,SE,SWE
Västra Götaland,,Varnhem,58.383333,13.65,SWEDEN,SE,SWE
Jönköping,,Värneslätt,57.533333,15.083333,SWEDEN,SE,SWE
Västerbotten,,Storselet,64.933333,20.55,SWEDEN,SE,SWE
Västerbotten,,Storsele,64.933333,20.55,SWEDEN,SE,SWE
Skåne,,Stora Svinön,56.45,14.183333,SWEDEN,SE,SWE
Västra Götaland,,Stora Svenstorp,58.55,13.566667,SWEDEN,SE,SWE
Jönköping,,Stora Svalås,57.383333,13.65,SWEDEN,SE,SWE
Gävleborgs Län,,Vall,60.5,16.433333,SWEDEN,SE,SWE
Gävleborgs Län,,Vall,60.4,16.983333,SWEDEN,SE,SWE
Jämtland,,Vålkojan,62.383333,13.95,SWEDEN,SE,SWE
Gävleborgs Län,,Välje,62.016667,15.933333,SWEDEN,SE,SWE
,,Valje,56.05,14.55,SWEDEN,SE,SWE
Västerbotten,,Stor-Snäckhamnen,64.783333,21.183333,SWEDEN,SE,SWE
Kronoberg,,Ulvö,56.583333,14.633333,SWEDEN,SE,SWE
Kronoberg,,Ulvön,56.583333,14.633333,SWEDEN,SE,SWE
Jämtland,,Ulvkälla,62.016667,14.35,SWEDEN,SE,SWE
Södermanland,,Ulvhäll,59.366667,17.033333,SWEDEN,SE,SWE
Västra Götaland,,Ulvesund,57.833333,11.883333,SWEDEN,SE,SWE
Värmland,,Ulfvestad,59.483333,12.133333,SWEDEN,SE,SWE
Värmland,,Ulvestad,59.483333,12.133333,SWEDEN,SE,SWE
Kronoberg,,Tubbamåla,56.783333,14.316667,SWEDEN,SE,SWE
Östergötland,,Yxsmedshult,57.966667,15.666667,SWEDEN,SE,SWE
Örebro,,Yxsjön,59.683333,14.866667,SWEDEN,SE,SWE
Östergötland,,Yxnö,58.583056,16.766667,SWEDEN,SE,SWE
Kalmar,,Yxneberga,56.566667,16.15,SWEDEN,SE,SWE
Kalmar,,Vitsten,56.983333,16.2,SWEDEN,SE,SWE
Norrbotten,,Storsand,66.283333,20.783333,SWEDEN,SE,SWE
Gävleborgs Län,,Storsand,60.716667,17.25,SWEDEN,SE,SWE
Södermanland,,Torp,59.116667,15.933333,SWEDEN,SE,SWE
Värmland,,Torp,59.049722,13.066667,SWEDEN,SE,SWE
Stockholm,,Torp,59.016667,17.816667,SWEDEN,SE,SWE
Västra Götaland,,Torp,58.816667,11.533333,SWEDEN,SE,SWE
Västra Götaland,,Torp,58.6,14,SWEDEN,SE,SWE
Västra Götaland,,Torp,58.566667,12.55,SWEDEN,SE,SWE
Västra Götaland,,Torp,58.116667,12.55,SWEDEN,SE,SWE
Östergötland,,Torp,58.05,15.65,SWEDEN,SE,SWE
Västra Götaland,,Torp,57.95,11.783333,SWEDEN,SE,SWE
Västra Götaland,,Torp,57.916667,12.2,SWEDEN,SE,SWE
Jönköping,,Torp,57.35,14.166667,SWEDEN,SE,SWE
Kalmar,,Torp,57.316667,17.016667,SWEDEN,SE,SWE
Jönköping,,Torp,57.2,14.916667,SWEDEN,SE,SWE
Kalmar,,Torp,57.066667,16.466667,SWEDEN,SE,SWE
Jönköping,,Torp,56.966667,14.25,SWEDEN,SE,SWE
Kronoberg,,Torp,56.7,15.033333,SWEDEN,SE,SWE
Skåne,,Torp,55.683333,13.65,SWEDEN,SE,SWE
Värmland,,Tjärne,59.783056,13.483056,SWEDEN,SE,SWE
Stockholm,,Stora Söderby,59.65,18.05,SWEDEN,SE,SWE
Värmland,,Yttre Rud,59.533333,12.583333,SWEDEN,SE,SWE
Dalarna Län,,Yttre Medväga,60.516667,15.433333,SWEDEN,SE,SWE
Hallands Län,,Yttre Maa,56.85,12.983333,SWEDEN,SE,SWE
Värmland,,Yttre Lofterud,59.25,12.533333,SWEDEN,SE,SWE
Jämtland,,Yttre Konäs,63.6,13.066667,SWEDEN,SE,SWE
Kronoberg,,Yttre Källehult,56.4,14.883333,SWEDEN,SE,SWE
Hallands Län,,Ulvatorp,57.25,12.35,SWEDEN,SE,SWE
Kronoberg,,Yxnalt,56.85,13.433333,SWEDEN,SE,SWE
Kronoberg,,Öxnalt,56.85,13.433333,SWEDEN,SE,SWE
Stockholm,,Yxlö,59.631389,18.863889,SWEDEN,SE,SWE
Stockholm,,Yxlö,58.951389,18.014444,SWEDEN,SE,SWE
Skåne,,Yxenhult,56.4,13.516667,SWEDEN,SE,SWE
Östergötland,,Sturefors,58.333333,15.733333,SWEDEN,SE,SWE
Stockholm,,Stureby,59.283333,18.05,SWEDEN,SE,SWE
Norrbotten,,Storön,65.733333,23.1,SWEDEN,SE,SWE
Norrbotten,,Storöhamn,65.733333,23.1,SWEDEN,SE,SWE
Jämtland,,Storön,64.616667,14.116667,SWEDEN,SE,SWE
Blekinge Län,,Trummenäset,56.15,15.733333,SWEDEN,SE,SWE
Blekinge Län,,Trummenäs,56.15,15.733333,SWEDEN,SE,SWE
Skåne,,Trulshärad,55.766667,13.916667,SWEDEN,SE,SWE
Västra Götaland,,Trulsdal,57.8,12.2,SWEDEN,SE,SWE
Norrbotten,,Vitå,65.916667,22.4,SWEDEN,SE,SWE
Norrbotten,,Vitån,65.916667,22.4,SWEDEN,SE,SWE
Norrbotten,,Hvitån,65.916667,22.4,SWEDEN,SE,SWE
Södermanland,,Vittan,58.983333,15.7,SWEDEN,SE,SWE
Södermanland,,Vitan,58.983333,15.7,SWEDEN,SE,SWE
Kronoberg,,Vitahult,56.65,15.316667,SWEDEN,SE,SWE
Kalmar,,Vita Hästen,57.216667,15.75,SWEDEN,SE,SWE
Norrbotten,,Vitåfors,65.95,22.383333,SWEDEN,SE,SWE
Norrbotten,,Hvitåfors,65.95,22.383333,SWEDEN,SE,SWE
Skåne,,Vitaby,55.7,14.166667,SWEDEN,SE,SWE
Skåne,,Vistorp,56.35,12.8,SWEDEN,SE,SWE
Jönköping,,Torpstad,57.35,15.183333,SWEDEN,SE,SWE
Västernorrland,,Torpshammar,62.483333,16.333333,SWEDEN,SE,SWE
Örebro,,Torphyttan,59.6,15.183333,SWEDEN,SE,SWE
Västra Götaland,,Torpet,57.966667,12.416667,SWEDEN,SE,SWE
Dalarna Län,,Venjan,60.95,13.916667,SWEDEN,SE,SWE
Skåne,,Venestad,55.983333,13.916667,SWEDEN,SE,SWE
Stockholm,,Venelsö,59.2,18.2,SWEDEN,SE,SWE
Stockholm,,Vendelsö,59.2,18.2,SWEDEN,SE,SWE
Stockholm,,Vändelsö,59.2,18.2,SWEDEN,SE,SWE
Västra Götaland,,Venavalla,58.066667,12.916667,SWEDEN,SE,SWE
Västra Götaland,,Vena,57.866667,11.866667,SWEDEN,SE,SWE
Skåne,,Vemmerlövstorp,55.583333,14.183333,SWEDEN,SE,SWE
Skåne,,Vemmentorp,56.333333,13.333333,SWEDEN,SE,SWE
Skåne,,Vemmentorp,56.166667,12.816667,SWEDEN,SE,SWE
Dalarna Län,,Tjärnvallen,61.666667,12.666667,SWEDEN,SE,SWE
Gävleborgs Län,,Tjärnvall,61.9,15.45,SWEDEN,SE,SWE
Västernorrland,,Tjärnsjö,62.6,17.783333,SWEDEN,SE,SWE
Västra Götaland,,Tjärnö,58.866667,11.15,SWEDEN,SE,SWE
Jämtland,,Tjärnnäset,63.7,16.283333,SWEDEN,SE,SWE
Jämtland,,Tjärnmyrberget,64.466667,15.516667,SWEDEN,SE,SWE
Gävleborgs Län,,Tjärnmyra,61.766667,16.616667,SWEDEN,SE,SWE
Hallands Län,,Västra Åkralt,57,13.216667,SWEDEN,SE,SWE
Värmland,,Västra Acksjön,59.65,13.733333,SWEDEN,SE,SWE
Örebro,,Västra Åby,59.116667,15.066667,SWEDEN,SE,SWE
Gotlands Län,,Vestö,57.9,18.75,SWEDEN,SE,SWE
Gotlands Län,,Västös,57.9,18.75,SWEDEN,SE,SWE
Gotlands Län,,Västö,57.9,18.75,SWEDEN,SE,SWE
Jönköping,,Västorp,57.866667,14.983333,SWEDEN,SE,SWE
Jämtland,,Västnårbodarna,62.933333,14,SWEDEN,SE,SWE
Värmland,,Vestanmyr,59.766667,13.183333,SWEDEN,SE,SWE
Värmland,,Västmyr,59.766667,13.183333,SWEDEN,SE,SWE
Västra Götaland,,Väsmestorp,58.133333,13.35,SWEDEN,SE,SWE
Västra Götaland,,Västmestorp,58.133333,13.35,SWEDEN,SE,SWE
Norrbotten,,Västmark,65.666667,21.583333,SWEDEN,SE,SWE
Norrbotten,,Vestmark,65.666667,21.583333,SWEDEN,SE,SWE
Västra Götaland,,Västmanstorp,58.166667,12.566667,SWEDEN,SE,SWE
Västernorrland,,Västloning,62.616667,16.983333,SWEDEN,SE,SWE
Västernorrland,,Loning,62.616667,16.983333,SWEDEN,SE,SWE
Skåne,,Vitsippon,56.266667,13.866667,SWEDEN,SE,SWE
Uppsala,,Tängby,59.55,17.316667,SWEDEN,SE,SWE
Jämtland,,Tångböle,63.366667,12.633333,SWEDEN,SE,SWE
Västmanland,,Tängelbo,59.866667,16.833333,SWEDEN,SE,SWE
Västmanland,,Tängbo,59.866667,16.833333,SWEDEN,SE,SWE
Kronoberg,,Tångarna,56.65,14.183333,SWEDEN,SE,SWE
Kronoberg,,Tångarne,56.65,14.183333,SWEDEN,SE,SWE
Kronoberg,,Tånga,57.2,15.283333,SWEDEN,SE,SWE
Skåne,,Tånga,56.2,12.766667,SWEDEN,SE,SWE
Västernorrland,,Svartsjö,63.8,18.216667,SWEDEN,SE,SWE
Kronoberg,,Svartshult,57,15.533333,SWEDEN,SE,SWE
Hallands Län,,Värestorp,56.433333,13.05,SWEDEN,SE,SWE
Jönköping,,Värekulla,57.583333,15.566667,SWEDEN,SE,SWE
Västra Götaland,,Varekilsnäs,58.1,11.7,SWEDEN,SE,SWE
Hallands Län,,Vare,57.066667,12.3,SWEDEN,SE,SWE
Dalarna Län,,Vålbrändan,61.1,13.066667,SWEDEN,SE,SWE
Dalarna Län,,Vålbergets Fäbod,60.45,14.85,SWEDEN,SE,SWE
Dalarna Län,,Vålberget,60.45,14.85,SWEDEN,SE,SWE
Västernorrland,,Stybbersmark,63.366667,18.95,SWEDEN,SE,SWE
Stockholm,,Stuvsta,59.25,18,SWEDEN,SE,SWE
Kalmar,,Stuvehyltan,56.45,15.866667,SWEDEN,SE,SWE
Hallands Län,,Sturöd,57.4,12,SWEDEN,SE,SWE
Blekinge Län,,Sturkö,56.083333,15.7,SWEDEN,SE,SWE
Blekinge Län,,Stora Silpinge,56.283333,15.166667,SWEDEN,SE,SWE
Blekinge Län,,Silpinge,56.283333,15.166667,SWEDEN,SE,SWE
Värmland,,Vålberget,60.083333,12.583333,SWEDEN,SE,SWE
Västra Götaland,,Svarteborg,58.55,11.566667,SWEDEN,SE,SWE
Kalmar,,Svarteberga,56.85,16.666667,SWEDEN,SE,SWE
Norrbotten,,Svartbyn,66.266667,22.816667,SWEDEN,SE,SWE
Norrbotten,,Svartbjörsbyn,65.85,21.716667,SWEDEN,SE,SWE
Norrbotten,,Svartbjörnsbyn,65.85,21.716667,SWEDEN,SE,SWE
Jönköping,,Styggstorp,57.6,14.833333,SWEDEN,SE,SWE
Dalarna Län,,Uppbo,60.4,15.866667,SWEDEN,SE,SWE
Skåne,,Uppåkra,55.666667,13.133333,SWEDEN,SE,SWE
Uppsala,,Untraverket,60.433333,17.333333,SWEDEN,SE,SWE
Uppsala,,Untraverken,60.433333,17.333333,SWEDEN,SE,SWE
Uppsala,,Utraverket,60.433333,17.333333,SWEDEN,SE,SWE
Västra Götaland,,Unnered,57.75,11.9,SWEDEN,SE,SWE
Hallands Län,,Unnaryd,56.95,13.516667,SWEDEN,SE,SWE
Kronoberg,,Tunatorp,56.95,14.716667,SWEDEN,SE,SWE
Västernorrland,,Tunåsen,63.55,16,SWEDEN,SE,SWE
Dalarna Län,,Tuna-Hästberg,60.333333,15.183333,SWEDEN,SE,SWE
Västernorrland,,Tunaby,62.316667,17.233333,SWEDEN,SE,SWE
Västernorrland,,Tunabyn,62.316667,17.233333,SWEDEN,SE,SWE
Västernorrland,,Tunaby,62.416667,17.366667,SWEDEN,SE,SWE
Uppsala,,Tunaberg,59.883333,17.6,SWEDEN,SE,SWE
Jönköping,,Våxtorp,57.466667,13.85,SWEDEN,SE,SWE
Jönköping,,Voxtorp,57.466667,13.85,SWEDEN,SE,SWE
Jönköping,,Woxtorp,57.466667,13.85,SWEDEN,SE,SWE
Jönköping,,Voxtorp,57.133333,14.133333,SWEDEN,SE,SWE
Kalmar,,Våxtorp,56.533056,16.15,SWEDEN,SE,SWE
Kalmar,,Voxtorp,56.533056,16.15,SWEDEN,SE,SWE
Gävleborgs Län,,Voxnahed,61.7,15.033333,SWEDEN,SE,SWE
Värmland,,Torsked,59.683333,13.616667,SWEDEN,SE,SWE
Västmanland,,Torskebo,59.866667,16.666667,SWEDEN,SE,SWE
Värmland,,Torskebäcken,59.733333,14.35,SWEDEN,SE,SWE
Värmland,,Torskbäcken,59.733333,14.35,SWEDEN,SE,SWE
Örebro,,Törsjö,59.2,15.15,SWEDEN,SE,SWE
Östergötland,,Torsjö,58.816667,15.25,SWEDEN,SE,SWE
Hallands Län,,Torsjö,57.166667,12.916667,SWEDEN,SE,SWE
Skåne,,Torsjö,55.433333,13.533333,SWEDEN,SE,SWE
Kalmar,,Torshult,56.983333,15.9,SWEDEN,SE,SWE
Skåne,,Toarp,56.283333,12.95,SWEDEN,SE,SWE
Skåne,,Toarp,56.183333,13.3,SWEDEN,SE,SWE
Skåne,,Toarp,55.533333,13.116667,SWEDEN,SE,SWE
Stockholm,,Tjusta,59.666667,18.25,SWEDEN,SE,SWE
Kronoberg,,Tjust,56.9,13.716667,SWEDEN,SE,SWE
Östergötland,,Tjusentorp,58.283333,15.866667,SWEDEN,SE,SWE
Västra Götaland,,Tåstorp,58.216667,13.516667,SWEDEN,SE,SWE
Västra Götaland,,Tåstorp,58.066667,12.8,SWEDEN,SE,SWE
Västra Götaland,,Tåsterud,58.6,12.316667,SWEDEN,SE,SWE
Skåne,,Tostarp,56.283333,12.95,SWEDEN,SE,SWE
Skåne,,Tåstarp,56.283333,12.95,SWEDEN,SE,SWE
Västra Götaland,,Tåstared,58.066667,13.15,SWEDEN,SE,SWE
Värmland,,Svennebytorp,60.116667,13.05,SWEDEN,SE,SWE
Värmland,,Svennebyn,59.333333,12.3,SWEDEN,SE,SWE
Östergötland,,Svenneby,58.566667,16.683333,SWEDEN,SE,SWE
Västmanland,,Svennby,59.6,16.15,SWEDEN,SE,SWE
Västmanland,,Svenby,59.6,16.15,SWEDEN,SE,SWE
Västerbotten,,Svenmarken,64.4,20.866667,SWEDEN,SE,SWE
Värmland,,Sundstabyn,59.383333,12,SWEDEN,SE,SWE
Värmland,,Sundstaby,59.383333,12,SWEDEN,SE,SWE
Kronoberg,,Tärnhult,56.583333,13.783333,SWEDEN,SE,SWE
Västerbotten,,Tärnamo,65.65,15.133333,SWEDEN,SE,SWE
Västmanland,,Tärnaby,59.833333,16.7,SWEDEN,SE,SWE
Värmland,,Tarm,59.433333,11.816667,SWEDEN,SE,SWE
Jönköping,,Täringstorp,57.783333,14.716667,SWEDEN,SE,SWE
Stockholm,,Varsvik,60.083333,18.566667,SWEDEN,SE,SWE
Västra Götaland,,Värslan,58.533333,13.316667,SWEDEN,SE,SWE
Västra Götaland,,Vårskäl,58.083333,13.566667,SWEDEN,SE,SWE
Skåne,,Värsjö,56.333333,13.466667,SWEDEN,SE,SWE
Skåne,,Varshult,56.216667,13.283333,SWEDEN,SE,SWE
Västra Götaland,,Värsås,58.35,14.05,SWEDEN,SE,SWE
Västra Götaland,,Warred,57.583333,13.266667,SWEDEN,SE,SWE
Västra Götaland,,Varred,57.583333,13.266667,SWEDEN,SE,SWE
Gävleborgs Län,,Voxnabruk,61.366667,15.5,SWEDEN,SE,SWE
Gävleborgs Län,,Voxäng,61.8,16.116667,SWEDEN,SE,SWE
Kalmar,,Vörehult,56.533333,15.9,SWEDEN,SE,SWE
Gävleborgs Län,,Svedje,62.1,16.75,SWEDEN,SE,SWE
Gävleborgs Län,,Svedja,62.1,16.75,SWEDEN,SE,SWE
Gävleborgs Län,,Svedja,61.9,17.133333,SWEDEN,SE,SWE
Gävleborgs Län,,Svedja,61.4,16.566667,SWEDEN,SE,SWE
Gävleborgs Län,,Svedja,61.3,16.733333,SWEDEN,SE,SWE
Gävleborgs Län,,Svedja,61.266667,16.666667,SWEDEN,SE,SWE
Kalmar,,Svederna,58.133333,16.266667,SWEDEN,SE,SWE
Värmland,,Svedenäs,59.516667,13.616667,SWEDEN,SE,SWE
Gävleborgs Län,,Sveden,61.283333,16.55,SWEDEN,SE,SWE
Jämtland,,Svedbodarna,63.5,14.9,SWEDEN,SE,SWE
Skåne,,Svedberg,56.166667,12.7,SWEDEN,SE,SWE
Skåne,,Svedberga,56.166667,12.7,SWEDEN,SE,SWE
Västernorrland,,Vallån,63.1,17.316667,SWEDEN,SE,SWE
Skåne,,Vallåkra,55.966667,12.866667,SWEDEN,SE,SWE
Västra Götaland,,Vallagrindar,58.616667,14,SWEDEN,SE,SWE
Värmland,,Vidön,59.333333,13.45,SWEDEN,SE,SWE
Södermanland,,Vidökna,59.216667,16.25,SWEDEN,SE,SWE
Östergötland,,Videslund,57.733333,15.25,SWEDEN,SE,SWE
Västra Götaland,,Västra Kolsäter,58.766667,11.8,SWEDEN,SE,SWE
Skåne,,Västra Klagstorp,55.533333,12.983333,SWEDEN,SE,SWE
Södermanland,,Sundhälla,58.833056,17.283056,SWEDEN,SE,SWE
Västra Götaland,,Sundginge,59.1,12.433333,SWEDEN,SE,SWE
Dalarna Län,,Sundet,61.683333,13.2,SWEDEN,SE,SWE
Örebro,,Sundet,59.916667,14.95,SWEDEN,SE,SWE
Stockholm,,Sundet,59.050556,18.440833,SWEDEN,SE,SWE
Västernorrland,,Storsvedjan,63.133333,18.183333,SWEDEN,SE,SWE
Gävleborgs Län,,Storsveden,62.116667,17.333333,SWEDEN,SE,SWE
Gävleborgs Län,,Storsvedjan,62.116667,17.333333,SWEDEN,SE,SWE
Jönköping,,Tåssegärde,57.216667,14.966667,SWEDEN,SE,SWE
Gotlands Län,,Tass,57.4,18.35,SWEDEN,SE,SWE
Stockholm,,Väsby,59.716667,18.766667,SWEDEN,SE,SWE
Stockholm,,Väsby,59.7,18.366667,SWEDEN,SE,SWE
Stockholm,,Väsby,59.677222,18.669722,SWEDEN,SE,SWE
Stockholm,,Väsby,59.133056,18.283056,SWEDEN,SE,SWE
Stockholm,,Väsby,59.083333,17.316667,SWEDEN,SE,SWE
Östergötland,,Väsby,58.033333,15.8,SWEDEN,SE,SWE
Västra Götaland,,Vasared,57.75,13.35,SWEDEN,SE,SWE
Dalarna Län,,Storsten,60.483333,15.533333,SWEDEN,SE,SWE
Västra Götaland,,Sveneby,58.583056,13.933056,SWEDEN,SE,SWE
Jönköping,,Svenarp,57.466667,15.533333,SWEDEN,SE,SWE
Södermanland,,Svelunda,59.416667,16.666667,SWEDEN,SE,SWE
Södermanland,,Svedlunda,59.416667,16.666667,SWEDEN,SE,SWE
Jämtland,,Sveg,62.033333,14.35,SWEDEN,SE,SWE
Västmanland,,Vallby,59.516667,16.366667,SWEDEN,SE,SWE
Västmanland,,Vallby,59.5,15.933333,SWEDEN,SE,SWE
Södermanland,,Vallby,59.416667,16.566667,SWEDEN,SE,SWE
Södermanland,,Vallby,59.3,16.066667,SWEDEN,SE,SWE
Örebro,,Vallby,59.166667,15.3,SWEDEN,SE,SWE
Östergötland,,Vallby,58.45,15.5,SWEDEN,SE,SWE
Västra Götaland,,Vallby,57.95,11.783333,SWEDEN,SE,SWE
Hallands Län,,Vallby,57.45,12.133333,SWEDEN,SE,SWE
Skåne,,Vallby,55.65,13.283333,SWEDEN,SE,SWE
Skåne,,Vallby,55.5,14.2,SWEDEN,SE,SWE
Östergötland,,Sundsmåla,58.233333,15.65,SWEDEN,SE,SWE
Värmland,,Sundsjön,59.966667,13.966667,SWEDEN,SE,SWE
Jämtland,,Sundsjöåsen,63.083333,15.15,SWEDEN,SE,SWE
Västra Götaland,,Sundshult,58.733333,11.583333,SWEDEN,SE,SWE
Dalarna Län,,Underberg,60.45,15.383333,SWEDEN,SE,SWE
Västra Götaland,,Underbacken,58.516667,14.516667,SWEDEN,SE,SWE
Västra Götaland,,Undenebotten,58.866667,14.533333,SWEDEN,SE,SWE
Stockholm,,Undal,59.55,18.433333,SWEDEN,SE,SWE
Västerbotten,,Unfors,65.95,15.05,SWEDEN,SE,SWE
Västerbotten,,Umfors,65.95,15.05,SWEDEN,SE,SWE
Västerbotten,,Umeå,63.833333,20.25,SWEDEN,SE,SWE
Uppsala,,Tuna,59.7,17.333333,SWEDEN,SE,SWE
Västmanland,,Tuna,59.616667,16.233333,SWEDEN,SE,SWE
Västerbotten,,Stortjärnliden,65.116667,16.816667,SWEDEN,SE,SWE
Kalmar,,Tulunda,57.316667,15.866667,SWEDEN,SE,SWE
Jämtland,,Tullus,63.3,14.3,SWEDEN,SE,SWE
Skåne,,Tullstorp,55.9,12.883333,SWEDEN,SE,SWE
Skåne,,Tullstorp,55.466667,14.183333,SWEDEN,SE,SWE
Skåne,,Tullstorp,55.4,13.45,SWEDEN,SE,SWE
Skåne,,Tullsåkra,55.95,13.966667,SWEDEN,SE,SWE
Stockholm,,Tullinge,59.2,17.883333,SWEDEN,SE,SWE
Jämtland,,Torsgårds-Gammelbodarna,63.166667,16.5,SWEDEN,SE,SWE
Jämtland,,Torsgård,63.2,15.433333,SWEDEN,SE,SWE
Jämtland,,Torsfjärden,64.35,14.966667,SWEDEN,SE,SWE
Västra Götaland,,Stora Väring,58.5,13.966667,SWEDEN,SE,SWE
Västernorrland,,Torsboda,62.533333,17.483333,SWEDEN,SE,SWE
Kalmar,,Tjusby,56.816667,16.75,SWEDEN,SE,SWE
Värmland,,Tjusbol,59.6,13.5,SWEDEN,SE,SWE
Östergötland,,Tjurtorp,58.266667,14.783333,SWEDEN,SE,SWE
Kalmar,,Tjurstorp,57.65,15.666667,SWEDEN,SE,SWE
Blekinge Län,,Tjurkhult,56.433333,15.116667,SWEDEN,SE,SWE
Blekinge Län,,Tjurkhultskvarn,56.433333,15.116667,SWEDEN,SE,SWE
Blekinge Län,,Kvarnamåla,56.433333,15.116667,SWEDEN,SE,SWE
Kronoberg,,Tjureda,57.033333,14.816667,SWEDEN,SE,SWE
Örebro,,Stora Tomsjön,60,14.483333,SWEDEN,SE,SWE
Dalarna Län,,Stora Tolvsbo,60.033333,15.533333,SWEDEN,SE,SWE
Södermanland,,Stora Toltorp,58.9,16.1,SWEDEN,SE,SWE
Södermanland,,Toltorp,58.9,16.1,SWEDEN,SE,SWE
Västra Götaland,,Tittebo,57.416667,13.2,SWEDEN,SE,SWE
Västra Götaland,,Stora Tittebo,57.416667,13.2,SWEDEN,SE,SWE
Västra Götaland,,Torrekulla,57.616667,12.033333,SWEDEN,SE,SWE
Västerbotten,,Torrböle,63.7,19.583333,SWEDEN,SE,SWE
Dalarna Län,,Torrbo,60.166667,15.5,SWEDEN,SE,SWE
Gävleborgs Län,,Torrbergsbo,61.433333,15.933333,SWEDEN,SE,SWE
Östergötland,,Valla,58.4,15.566667,SWEDEN,SE,SWE
Jämtland,,Valla,63.55,13.8,SWEDEN,SE,SWE
Gävleborgs Län,,Valla,61.283333,16.966667,SWEDEN,SE,SWE
Uppsala,,Valla,60.466667,17.616667,SWEDEN,SE,SWE
Stockholm,,Valla,59.9,18.516667,SWEDEN,SE,SWE
Västmanland,,Valla,59.483333,15.866667,SWEDEN,SE,SWE
Södermanland,,Valla,59.016667,16.383333,SWEDEN,SE,SWE
Västra Götaland,,Valla,58.65,14.05,SWEDEN,SE,SWE
Västernorrland,,Ulvviksby,62.683333,17.866667,SWEDEN,SE,SWE
Västernorrland,,Ulvvik,62.683333,17.866667,SWEDEN,SE,SWE
Gävleborgs Län,,Ulvtorp,60.816667,16.45,SWEDEN,SE,SWE
Norrbotten,,Tjäura,66.383333,19.1,SWEDEN,SE,SWE
Dalarna Län,,Storsveden,60.716667,15.733333,SWEDEN,SE,SWE
Västra Götaland,,Ulfshult,57.4,13.316667,SWEDEN,SE,SWE
Västra Götaland,,Ulvshult,57.4,13.316667,SWEDEN,SE,SWE
Värmland,,Ulvsby,59.65,13.433333,SWEDEN,SE,SWE
Värmland,,Ulvsby,59.616667,13.316667,SWEDEN,SE,SWE
Värmland,,Ulvsby,59.466667,13.566667,SWEDEN,SE,SWE
Värmland,,Ulvsbyn,59.466667,13.566667,SWEDEN,SE,SWE
Östergötland,,Tullerum,57.9,15.333333,SWEDEN,SE,SWE
Jämtland,,Tulleråsen,63.45,14.2,SWEDEN,SE,SWE
Västmanland,,Tullen,59.616667,15.833333,SWEDEN,SE,SWE
Västra Götaland,,Tullboden,58.366667,11.333333,SWEDEN,SE,SWE
Stockholm,,Tulka,60.083333,18.6,SWEDEN,SE,SWE
Gävleborgs Län,,Vittsjö,61.116667,16.1,SWEDEN,SE,SWE
Gävleborgs Län,,Vittsjön,61.116667,16.1,SWEDEN,SE,SWE
Skåne,,Vittsjö,56.333333,13.666667,SWEDEN,SE,SWE
Norrbotten,,Vittjärv,65.85,21.566667,SWEDEN,SE,SWE
Stockholm,,Stora Vädersjön,59.1,17.983333,SWEDEN,SE,SWE
Dalarna Län,,Torsberg,60.166667,14.816667,SWEDEN,SE,SWE
Kalmar,,Torsås,56.4,16,SWEDEN,SE,SWE
Västra Götaland,,Törsängen,58.866667,11.966667,SWEDEN,SE,SWE
Jämtland,,Torsäng,62.966667,15.183333,SWEDEN,SE,SWE
Östergötland,,Torsåkra,57.916667,15.833333,SWEDEN,SE,SWE
Västernorrland,,Torsåker,63.066667,17.75,SWEDEN,SE,SWE
Blekinge Län,,Torsabjörke,56.166667,14.6,SWEDEN,SE,SWE
Skåne,,Viarp,55.533333,14.3,SWEDEN,SE,SWE
Södermanland,,Vialla,59.05,15.95,SWEDEN,SE,SWE
Södermanland,,Viala,59.05,15.95,SWEDEN,SE,SWE
Skåne,,Viaköp,56.2,12.733333,SWEDEN,SE,SWE
Örebro,,Via,59.166667,15.45,SWEDEN,SE,SWE
Örebro,,Via,59.166667,14.85,SWEDEN,SE,SWE
Örebro,,Via,59.133333,14.95,SWEDEN,SE,SWE
Gävleborgs Län,,Vi,60.55,16.466667,SWEDEN,SE,SWE
Södermanland,,Vi,59.283333,16.033333,SWEDEN,SE,SWE
Uppsala,,Tjocksta,59.833333,17.766667,SWEDEN,SE,SWE
Stockholm,,Tjockö,59.75,19.116667,SWEDEN,SE,SWE
Gävleborgs Län,,Västra Föne,61.833333,15.833333,SWEDEN,SE,SWE
Västra Götaland,,Västra Flybo,58.45,12.3,SWEDEN,SE,SWE
Värmland,,Flogned,59.766667,12.266667,SWEDEN,SE,SWE
Värmland,,Västra Flogned,59.766667,12.266667,SWEDEN,SE,SWE
Skåne,,Vomb,55.666667,13.55,SWEDEN,SE,SWE
Skåne,,Vämb,55.666667,13.55,SWEDEN,SE,SWE
Västra Götaland,,Tanumshede,58.733333,11.316667,SWEDEN,SE,SWE
Dalarna Län,,Tansbo,60.683333,15.433333,SWEDEN,SE,SWE
Västerbotten,,Tannträsk,64.583333,18.566667,SWEDEN,SE,SWE
Jämtland,,Sved,62.7,15.433333,SWEDEN,SE,SWE
Kronoberg,,Torset,56.966667,13.966667,SWEDEN,SE,SWE
Skåne,,Vittskövleby,55.85,14.133333,SWEDEN,SE,SWE
Skåne,,Vittskövle,55.85,14.133333,SWEDEN,SE,SWE
Västerbotten,,Videlund,64.3,19.166667,SWEDEN,SE,SWE
Kalmar,,Videbäcksmåla,56.483333,15.766667,SWEDEN,SE,SWE
Gävleborgs Län,,Vida,60.483333,16.783333,SWEDEN,SE,SWE
Kalmar,,Vida,57.95,16.416667,SWEDEN,SE,SWE
Kronoberg,,Vida,56.683333,15.283333,SWEDEN,SE,SWE
Stockholm,,Sundbyberg,59.366667,17.966667,SWEDEN,SE,SWE
Stockholm,,Sundyberg,59.366667,17.966667,SWEDEN,SE,SWE
Uppsala,,Sundby,59.5,17.3,SWEDEN,SE,SWE
Södermanland,,Sundby,59.383333,17.033333,SWEDEN,SE,SWE
Stockholm,,Sundby,59.35,17.7,SWEDEN,SE,SWE
Skåne,,Välingetorp,56.183333,12.8,SWEDEN,SE,SWE
Värmland,,Västra Hovlanda,59.316667,13.533333,SWEDEN,SE,SWE
Västerbotten,,Västra Hökmark,64.433333,21.2,SWEDEN,SE,SWE
Västra Götaland,,Västra Högen,58.916667,12.133333,SWEDEN,SE,SWE
Skåne,,Västra Hoby,55.783333,13.166667,SWEDEN,SE,SWE
Västerbotten,,Västra Hjoggböle,64.583333,20.933333,SWEDEN,SE,SWE
Västerbotten,,Västra Hjåggböle,64.583333,20.933333,SWEDEN,SE,SWE
Värmland,,Västra Hedetorp,59.983333,13.483333,SWEDEN,SE,SWE
Östergötland,,Västra Harg,58.266667,15.25,SWEDEN,SE,SWE
Kronoberg,,Västra Haghult,56.466667,13.483333,SWEDEN,SE,SWE
Dalarna Län,,Storslätten,60.3,15.116667,SWEDEN,SE,SWE
Skåne,,Värmanshult,56.433333,14.233333,SWEDEN,SE,SWE
Skåne,,Vermanshult,56.433333,14.233333,SWEDEN,SE,SWE
Västra Götaland,,Värled,58.05,12.3,SWEDEN,SE,SWE
Västra Götaland,,Verle,58.05,12.3,SWEDEN,SE,SWE
Kalmar,,Verkebäck,57.733333,16.516667,SWEDEN,SE,SWE
Uppsala,,Verkarna,60.283333,18.433333,SWEDEN,SE,SWE
Kalmar,,Ventlinge,56.283056,16.399722,SWEDEN,SE,SWE
Kalmar,,Väntlinge,56.283056,16.399722,SWEDEN,SE,SWE
Västra Götaland,,Västra Edstena,58.616667,11.95,SWEDEN,SE,SWE
Gävleborgs Län,,Styvje,61.333333,17.016667,SWEDEN,SE,SWE
Gävleborgs Län,,Styttingarna,60.65,16.616667,SWEDEN,SE,SWE
Stockholm,,Styrsvik,59.279167,18.733333,SWEDEN,SE,SWE
Stockholm,,Styrsnäset,59.598611,18.912778,SWEDEN,SE,SWE
Dalarna Län,,Styrsjöbo,60.7,14.95,SWEDEN,SE,SWE
Västernorrland,,Styrnäs,63.083333,17.766667,SWEDEN,SE,SWE
Västernorrland,,Styrnäsgården,63.083333,17.766667,SWEDEN,SE,SWE
Jämtland,,Tannsjön,63.516667,15.666667,SWEDEN,SE,SWE
Västerbotten,,Tannsele,64.516667,18.75,SWEDEN,SE,SWE
Jönköping,,Tånnö,57.1,14.05,SWEDEN,SE,SWE
Gävleborgs Län,,Västra Bölan,61.483333,16.916667,SWEDEN,SE,SWE
Västra Götaland,,Västerbodarna,57.883333,12.466667,SWEDEN,SE,SWE
Västra Götaland,,Västra Bodarne,57.883333,12.466667,SWEDEN,SE,SWE
Västra Götaland,,Västra Bodane,58.516667,12.116667,SWEDEN,SE,SWE
Värmland,,Västra Boda,59.85,12,SWEDEN,SE,SWE
Värmland,,Boda,59.85,12,SWEDEN,SE,SWE
Värmland,,Västra Boda,59.266667,12.2,SWEDEN,SE,SWE
Östergötland,,Västra Bökestad,58.4,15.666667,SWEDEN,SE,SWE
Östergötland,,Västra Böckestad,58.4,15.666667,SWEDEN,SE,SWE
Värmland,,Värmerud,59.383333,12.933333,SWEDEN,SE,SWE
Värmland,,Vermerud,59.383333,12.933333,SWEDEN,SE,SWE
Jämtland,,Storrensjön,63.633333,12.466667,SWEDEN,SE,SWE
Jämtland,,Storrensjö,63.633333,12.466667,SWEDEN,SE,SWE
Örebro,,Tångsätter,59.133333,15.466667,SWEDEN,SE,SWE
Örebro,,Tångsäter,59.133333,15.466667,SWEDEN,SE,SWE
Jönköping,,Tånghult,57.533333,15.016667,SWEDEN,SE,SWE
Västmanland,,Tängesbo,60.2,17.133333,SWEDEN,SE,SWE
Västerbotten,,Svarttjärnliden,65,20,SWEDEN,SE,SWE
Västerbotten,,Svarttjärn,65.8,16.933333,SWEDEN,SE,SWE
Västerbotten,,Svarttjärn,64.466667,20.8,SWEDEN,SE,SWE
Västra Götaland,,Svarttjärn,59.133333,12.25,SWEDEN,SE,SWE
Blekinge Län,,Värhult,56.2,14.583333,SWEDEN,SE,SWE
Stockholm,,Vårholma,59.428611,18.468611,SWEDEN,SE,SWE
Dalarna Län,,Vålhåvallen,61.533056,13.083056,SWEDEN,SE,SWE
Västra Götaland,,Vevelhult,57.783333,13.166667,SWEDEN,SE,SWE
Östergötland,,Vetterstad,58.4,15.75,SWEDEN,SE,SWE
Blekinge Län,,Vettekulla,56.166667,14.933333,SWEDEN,SE,SWE
Uppsala,,Sund,60.05,18.083333,SWEDEN,SE,SWE
Stockholm,,Sund,60.033333,18.583333,SWEDEN,SE,SWE
Värmland,,Sund,59.733333,13.65,SWEDEN,SE,SWE
Västra Götaland,,Sund,59.133333,11.9,SWEDEN,SE,SWE
Värmland,,Sund,59.083333,14.116667,SWEDEN,SE,SWE
Kalmar,,Sund,57.883333,16.083333,SWEDEN,SE,SWE
Västra Götaland,,Ulvarås,58.033333,12.516667,SWEDEN,SE,SWE
Västra Götaland,,Ulvåker,58.483333,13.916667,SWEDEN,SE,SWE
Jönköping,,Ulvahult,57.516667,14.583333,SWEDEN,SE,SWE
Kronoberg,,Ulvahult,56.75,15.033333,SWEDEN,SE,SWE
Kronoberg,,Ulvagraven,56.883333,14.4,SWEDEN,SE,SWE
Gävleborgs Län,,Ulva,61.366667,16.733333,SWEDEN,SE,SWE
Västernorrland,,Ultrå,63.283333,19.083333,SWEDEN,SE,SWE
Västernorrland,,Ultrå,62.65,17.666667,SWEDEN,SE,SWE
Östergötland,,Västra Eneby,58.016667,15.716667,SWEDEN,SE,SWE
Kalmar,,Västra Emmabo,56.616667,15.566667,SWEDEN,SE,SWE
Kalmar,,Wästra Eknö,57.583333,16.666667,SWEDEN,SE,SWE
Kalmar,,Västra Eknö,57.583333,16.666667,SWEDEN,SE,SWE
Stockholm,,Västra Eka,59.816667,18.666667,SWEDEN,SE,SWE
Västerbotten,,Storsjö,64.133333,17.666667,SWEDEN,SE,SWE
Västerbotten,,Storsjön,64.133333,17.666667,SWEDEN,SE,SWE
Norrbotten,,Storsien,66.033333,23.05,SWEDEN,SE,SWE
Skåne,,Truedstorp,55.983333,12.983333,SWEDEN,SE,SWE
Värmland,,Trubbyn,59.316667,12.333333,SWEDEN,SE,SWE
Kalmar,,Troxhult,56.5,15.7,SWEDEN,SE,SWE
Stockholm,,Trovill,59.266667,18.933333,SWEDEN,SE,SWE
Kalmar,,Värnamohorva,57.416667,16.55,SWEDEN,SE,SWE
Kalmar,,Värnamo,57.416667,16.516667,SWEDEN,SE,SWE
Kalmar,,Värnaby,56.516667,16.133333,SWEDEN,SE,SWE
Östergötland,,Värna,58.316667,15.916667,SWEDEN,SE,SWE
Östergötland,,Värna,58.15,15.766667,SWEDEN,SE,SWE
Jämtland,,Värmon,63.35,14.183333,SWEDEN,SE,SWE
Östergötland,,Valla,58.583333,16.583333,SWEDEN,SE,SWE
Östergötland,,Valla,58.4,14.766667,SWEDEN,SE,SWE
Östergötland,,Valla,58.1,15.733333,SWEDEN,SE,SWE
Västra Götaland,,Valla,58.033333,11.716667,SWEDEN,SE,SWE
Skåne,,Stora Stockhult,56.466667,14.066667,SWEDEN,SE,SWE
Örebro,,Stora Sten,60.05,14.883333,SWEDEN,SE,SWE
Västra Götaland,,Torpmad,58.583333,14.033333,SWEDEN,SE,SWE
Västra Götaland,,Torpemad,58.583333,14.033333,SWEDEN,SE,SWE
Hallands Län,,Valinge,57.166667,12.383333,SWEDEN,SE,SWE
Skåne,,Välinge,56.183333,12.8,SWEDEN,SE,SWE
Kronoberg,,Ulvsboda,56.766667,14.333333,SWEDEN,SE,SWE
Gävleborgs Län,,Ulvsbo,60.316667,16.683333,SWEDEN,SE,SWE
Kronoberg,,Ulvsåkra,56.716667,15.05,SWEDEN,SE,SWE
Örebro,,Zinkgruvan,58.816667,15.083333,SWEDEN,SE,SWE
Örebro,,Åmmebergs zinkgruva,58.816667,15.083333,SWEDEN,SE,SWE
Östergötland,,Yxviken,58.75,15.816667,SWEDEN,SE,SWE
Gävleborgs Län,,Tjärnelund,61.816667,16.25,SWEDEN,SE,SWE
Västernorrland,,Tjärned,62.883333,18.083333,SWEDEN,SE,SWE
Västernorrland,,Trysunda,63.133333,18.783333,SWEDEN,SE,SWE
Kronoberg,,Vithult,57.066667,15.183333,SWEDEN,SE,SWE
Östergötland,,Styra,58.45,15.066667,SWEDEN,SE,SWE
Västerbotten,,Storselet,64.583333,15.5,SWEDEN,SE,SWE
Västerbotten,,Ullsjöberg,64.25,16.666667,SWEDEN,SE,SWE
Dalarna Län,,Ullnäsnoret,60.166667,14.983333,SWEDEN,SE,SWE
Uppsala,,Ullfors,60.266667,17.433333,SWEDEN,SE,SWE
Dalarna Län,,Tronsjö,60.466667,15.6,SWEDEN,SE,SWE
Kalmar,,Stora Stacketorp,56.95,16.8,SWEDEN,SE,SWE
Kalmar,,Stacketorp,56.95,16.8,SWEDEN,SE,SWE
Kalmar,,Stora Spånga,57.816667,16.266667,SWEDEN,SE,SWE
Västerbotten,,Tjärnberg,64.933333,19.633333,SWEDEN,SE,SWE
Jämtland,,Tjärnbacken,64.533333,14.783333,SWEDEN,SE,SWE
Västerbotten,,Tjärnbäck,65,18.866667,SWEDEN,SE,SWE
Västerbotten,,Tjärn,64.716667,20.983333,SWEDEN,SE,SWE
Värmland,,Tjärn,59.616667,13.45,SWEDEN,SE,SWE
Värmland,,Tjärn,59.4,12.233333,SWEDEN,SE,SWE
Östergötland,,Svärtinge,58.65,16,SWEDEN,SE,SWE
Östergötland,,Svärtinge Villasamhälle,58.65,16,SWEDEN,SE,SWE
Blekinge Län,,Svarthövderyd,56.433333,15.4,SWEDEN,SE,SWE
Västerbotten,,Ultervattnet,64.316667,20.766667,SWEDEN,SE,SWE
Västerbotten,,Ulriksdal,64.65,18.666667,SWEDEN,SE,SWE
Örebro,,Yxe,59.533333,15.15,SWEDEN,SE,SWE
Jönköping,,Yxanshult,57.283333,15.133333,SWEDEN,SE,SWE
Uppsala,,Yvre,60.266667,17.45,SWEDEN,SE,SWE
Västra Götaland,,Yttre Vång,57.883333,13.383333,SWEDEN,SE,SWE
Västra Götaland,,Vång,57.883333,13.383333,SWEDEN,SE,SWE
Västerbotten,,Yttre Storbäcken,64.133333,20.833333,SWEDEN,SE,SWE
Kalmar,,Stora Skedsbygd,56.916667,15.816667,SWEDEN,SE,SWE
Värmland,,Skärmnäs,59.616667,12.9,SWEDEN,SE,SWE
Värmland,,Stora Skärmnäs,59.616667,12.9,SWEDEN,SE,SWE
Västra Götaland,,Stora Skår,58.016667,11.833333,SWEDEN,SE,SWE
Kronoberg,,Trotteslöv,56.9,13.966667,SWEDEN,SE,SWE
Skåne,,Trottatorp,56.416667,13.45,SWEDEN,SE,SWE
Kalmar,,Trosnäs,57.066667,16.95,SWEDEN,SE,SWE
Jämtland,,Torråsen,63.2,14.733333,SWEDEN,SE,SWE
Värmland,,Visterud,59.733333,13.333333,SWEDEN,SE,SWE
Värmland,,Visterud,59.566667,13.466667,SWEDEN,SE,SWE
Östergötland,,Vistena,58.4,15.116667,SWEDEN,SE,SWE
Norrbotten,,Vistbäcken,65.7,20.483333,SWEDEN,SE,SWE
Värmland,,Tanderud,59.716667,12.433333,SWEDEN,SE,SWE
Dalarna Län,,Tandådalen,61.166667,12.966667,SWEDEN,SE,SWE
Västra Götaland,,Tämta,57.9,12.9,SWEDEN,SE,SWE
Västra Götaland,,Torpane,59.033056,12.5,SWEDEN,SE,SWE
Västra Götaland,,Torpane,58.766667,12.2,SWEDEN,SE,SWE
Västra Götaland,,Torpåkra,57.933333,13,SWEDEN,SE,SWE
Västra Götaland,,Tjärtakan,58.483333,12.1,SWEDEN,SE,SWE
Västra Götaland,,Vemmenhult,57.833333,12.783333,SWEDEN,SE,SWE
Jämtland,,Vemdalsskalet,62.483333,13.983333,SWEDEN,SE,SWE
Jämtland,,Vemdalen,62.45,13.866667,SWEDEN,SE,SWE
Skåne,,Vällinge,55.466667,13.016667,SWEDEN,SE,SWE
Skåne,,Vellinge,55.466667,13.016667,SWEDEN,SE,SWE
Gävleborgs Län,,Västra Berge,61.833333,16.5,SWEDEN,SE,SWE
Värmland,,Västra Berga,60.016667,13.083333,SWEDEN,SE,SWE
Värmland,,Västra Ämtervik,59.733333,13.133333,SWEDEN,SE,SWE
Värmland,,Västra Emtervik,59.733333,13.133333,SWEDEN,SE,SWE
Värmland,,Emtervik,59.733333,13.133333,SWEDEN,SE,SWE
Kalmar,,Västra Alsjö,56.633333,15.8,SWEDEN,SE,SWE
Kalmar,,Alsjö,56.633333,15.8,SWEDEN,SE,SWE
Kalmar,,Västra Alsjö,56.633333,15.616667,SWEDEN,SE,SWE
Kalmar,,Alsjö,56.633333,15.616667,SWEDEN,SE,SWE
Västra Götaland,,Tångeröd,58.033333,11.75,SWEDEN,SE,SWE
Kalmar,,Tångered,57.9,16.683056,SWEDEN,SE,SWE
Jönköping,,Tångerda,57.466667,15.066667,SWEDEN,SE,SWE
Jämtland,,Tången,64.716667,14.2,SWEDEN,SE,SWE
Jämtland,,Tången,62.683333,14.766667,SWEDEN,SE,SWE
Västra Götaland,,Tången,57.766667,11.916667,SWEDEN,SE,SWE
Värmland,,Tängelsbyn,59.166667,12.566667,SWEDEN,SE,SWE
Skåne,,Tängelsås,55.766667,13.4,SWEDEN,SE,SWE
Västra Götaland,,Tångeberg,58.733333,14.016667,SWEDEN,SE,SWE
Kalmar,,Vargsmåla,56.633333,15.716667,SWEDEN,SE,SWE
Västra Götaland,,Vargön,58.366667,12.366667,SWEDEN,SE,SWE
Västra Götaland,,Varagons,58.366667,12.366667,SWEDEN,SE,SWE
Västra Götaland,,Varagön,58.366667,12.366667,SWEDEN,SE,SWE
Dalarna Län,,Vargnäs,60.75,15.016667,SWEDEN,SE,SWE
Västerbotten,,Vargfors,65.016667,19.666667,SWEDEN,SE,SWE
Dalarna Län,,Vargbo,60.233333,16.05,SWEDEN,SE,SWE
Norrbotten,,Vargbacken,65.533333,21.183333,SWEDEN,SE,SWE
Västra Götaland,,Kärrkil,58.816667,12.516667,SWEDEN,SE,SWE
Västra Götaland,,Tjärkil,58.816667,12.516667,SWEDEN,SE,SWE
Västra Götaland,,Tjärkilen,58.816667,12.516667,SWEDEN,SE,SWE
Västra Götaland,,Kärrkilen,58.816667,12.516667,SWEDEN,SE,SWE
Skåne,,Vitemölla,55.7,14.2,SWEDEN,SE,SWE
Hallands Län,,Svartrå,57.1,12.633333,SWEDEN,SE,SWE
Norrbotten,,Svartöstaden,65.566667,22.183333,SWEDEN,SE,SWE
Norrbotten,,Svartö,65.566667,22.183333,SWEDEN,SE,SWE
Kalmar,,Svartö,57.083333,16.566667,SWEDEN,SE,SWE
Stockholm,,Svartnö,59.665278,18.850556,SWEDEN,SE,SWE
Västerbotten,,Svartnäs,64.833333,19.833333,SWEDEN,SE,SWE
Östergötland,,Svartmåla,58.25,15.7,SWEDEN,SE,SWE
Västerbotten,,Svartliden,64.433333,19.9,SWEDEN,SE,SWE
Jämtland,,Valåsvallen,62.116667,14.8,SWEDEN,SE,SWE
Jämtland,,Vålåstugorna,63.033333,12.8,SWEDEN,SE,SWE
Hallands Län,,Välasjö,57.083333,12.75,SWEDEN,SE,SWE
Örebro,,Valåsen,59.316667,14.583333,SWEDEN,SE,SWE
Örebro,,Walssen,59.316667,14.583333,SWEDEN,SE,SWE
Skåne,,Svartetorp,56.183333,14.35,SWEDEN,SE,SWE
Kalmar,,Stora Skälhem,57.95,16.233333,SWEDEN,SE,SWE
Dalarna Län,,Tammeråsen,60.983333,14.916667,SWEDEN,SE,SWE
Norrbotten,,Tjappsåive,65.816667,19.366667,SWEDEN,SE,SWE
Jämtland,,Tandsbyn,63,14.75,SWEDEN,SE,SWE
Värmland,,Vålåsen,59.516667,13.016667,SWEDEN,SE,SWE
Gävleborgs Län,,Trönö,61.383333,16.833333,SWEDEN,SE,SWE
Västra Götaland,,Tronnum,57.816667,11.783333,SWEDEN,SE,SWE
Hallands Län,,Trönningenäs,57.141667,12.216667,SWEDEN,SE,SWE
Hallands Län,,Trönningeby,56.616667,12.933333,SWEDEN,SE,SWE
Hallands Län,,Trönninge,56.616667,12.933333,SWEDEN,SE,SWE
Värmland,,Trönneviken,59.2,12.6,SWEDEN,SE,SWE
Värmland,,Tryneviken,59.2,12.6,SWEDEN,SE,SWE
Jönköping,,Tronebo,57.116667,13.433333,SWEDEN,SE,SWE
Blekinge Län,,Tromtösunda,56.166667,15.466667,SWEDEN,SE,SWE
Blekinge Län,,Tromtesunda,56.166667,15.466667,SWEDEN,SE,SWE
Gävleborgs Län,,Trollsved,62.133333,17.133333,SWEDEN,SE,SWE
Jönköping,,Visingsö,58.016667,14.316667,SWEDEN,SE,SWE
Gotlands Län,,Visby,57.633333,18.3,SWEDEN,SE,SWE
Gotlands Län,,Visbyslätt,57.616667,18.266667,SWEDEN,SE,SWE
Gotlands Län,,Visborgsslätt,57.616667,18.266667,SWEDEN,SE,SWE
Gotlands Län,,Viborgslatt,57.616667,18.266667,SWEDEN,SE,SWE
Kalmar,,Visböle,57.533333,15.916667,SWEDEN,SE,SWE
Östergötland,,Visäter,58.266667,15.483333,SWEDEN,SE,SWE
Östergötland,,Visätter,58.266667,15.483333,SWEDEN,SE,SWE
Kalmar,,Virstad,57.183333,15.983333,SWEDEN,SE,SWE
Västerbotten,,Tallberg,63.783333,19.366667,SWEDEN,SE,SWE
Värmland,,Svartåna,59.683333,13,SWEDEN,SE,SWE
Östergötland,,Svartåfors,58.45,15.483333,SWEDEN,SE,SWE
Jönköping,,Vaggeryd,57.5,14.116667,SWEDEN,SE,SWE
Stockholm,,Vedhamn,59.2375,18.466667,SWEDEN,SE,SWE
Västra Götaland,,Vedhall,57.833333,11.7,SWEDEN,SE,SWE
Örebro,,Vedevåg,59.533333,15.283333,SWEDEN,SE,SWE
Kronoberg,,Vederslöv,56.783333,14.733333,SWEDEN,SE,SWE
Kalmar,,Vederhult,57.466667,16.066667,SWEDEN,SE,SWE
Dalarna Län,,Veddarsbo,60.166667,16.283333,SWEDEN,SE,SWE
Kalmar,,Vedby,56.766667,16.65,SWEDEN,SE,SWE
Jämtland,,Stugun,63.166667,15.6,SWEDEN,SE,SWE
Jämtland,,Stugubyn,63.166667,15.6,SWEDEN,SE,SWE
Västernorrland,,Studsviken,63.783333,18.483333,SWEDEN,SE,SWE
Västmanland,,Västersälja,60.216667,17.2,SWEDEN,SE,SWE
Västernorrland,,Västerro,62.4,17.15,SWEDEN,SE,SWE
Västernorrland,,Stormon,63.5,16.833333,SWEDEN,SE,SWE
Västernorrland,,Stormon,62.65,17.4,SWEDEN,SE,SWE
Hallands Län,,Torkelstorp,56.883333,12.766667,SWEDEN,SE,SWE
Värmland,,Torkelsbyn,59.3,12,SWEDEN,SE,SWE
Värmland,,Torkilsbyn,59.3,12,SWEDEN,SE,SWE
Hallands Län,,Töringe,56.95,12.5,SWEDEN,SE,SWE
Blekinge Län,,Röan,56.216667,14.566667,SWEDEN,SE,SWE
Västernorrland,,Rö,62.7,17.966667,SWEDEN,SE,SWE
Kronoberg,,Räveberg,57.116667,15.566667,SWEDEN,SE,SWE
Östergötland,,Skenäs,58.625,16.583333,SWEDEN,SE,SWE
Södermanland,,Skenala,58.916667,16.65,SWEDEN,SE,SWE
Hallands Län,,Skenabygget,56.483333,13.233333,SWEDEN,SE,SWE
Stockholm,,Skäl,59.45,17.95,SWEDEN,SE,SWE
Västra Götaland,,Skåkerud,58.616667,12.433333,SWEDEN,SE,SWE
Örebro,,Stickninge,59.116667,14.816667,SWEDEN,SE,SWE
Stockholm,,Sticklinge,59.3,18.116667,SWEDEN,SE,SWE
Jämtland,,Raftsjöhöjden,63.616667,15,SWEDEN,SE,SWE
Jämtland,,Raftälven,63.6,14.783333,SWEDEN,SE,SWE
Jönköping,,Räfsebo,57,14.183333,SWEDEN,SE,SWE
Östergötland,,Rådsla,58.616667,15.583333,SWEDEN,SE,SWE
Västernorrland,,Rådom,63.216667,16.85,SWEDEN,SE,SWE
Värmland,,Signebyn,59.266667,12.283333,SWEDEN,SE,SWE
Kalmar,,Sigisslaryd,56.883333,15.8,SWEDEN,SE,SWE
Kalmar,,Sigislaryd,56.883333,15.8,SWEDEN,SE,SWE
Örebro,,Siggetorp,58.916667,15.25,SWEDEN,SE,SWE
Gävleborgs Län,,Siggesta,61.283333,16.983333,SWEDEN,SE,SWE
Uppsala,,Siggesta,59.766667,16.866667,SWEDEN,SE,SWE
Värmland,,Siggerud,59.066667,13.1,SWEDEN,SE,SWE
Örebro,,Siggeboda,59.633333,15.033333,SWEDEN,SE,SWE
Västra Götaland,,Siggarud,58.85,14.1,SWEDEN,SE,SWE
Jönköping,,Siggarp,57.916667,14.316667,SWEDEN,SE,SWE
Västerbotten,,Pellboda,64.333333,20.85,SWEDEN,SE,SWE
Västerbotten,,Pällboda,64.333333,20.85,SWEDEN,SE,SWE
Kalmar,,Pelarne,57.633333,15.716667,SWEDEN,SE,SWE
Kronoberg,,Peaboda,56.583333,14.316667,SWEDEN,SE,SWE
Jämtland,,Sångbäcken,62.483333,14.166667,SWEDEN,SE,SWE
Västernorrland,,Sångal,63.183333,17.516667,SWEDEN,SE,SWE
Västernorrland,,Sånga,63.183333,17.55,SWEDEN,SE,SWE
Värmland,,Såneby,59.566667,13.85,SWEDEN,SE,SWE
Östergötland,,Såneby,58.566667,16.683056,SWEDEN,SE,SWE
Örebro,,Sandviken,59.333333,14.583333,SWEDEN,SE,SWE
Stockholm,,Södermalm,59.316667,18.083333,SWEDEN,SE,SWE
Västmanland,,Översävne,60,16.8,SWEDEN,SE,SWE
Dalarna Län,,Översätra,60.416667,15.766667,SWEDEN,SE,SWE
Dalarna Län,,Öfre Sätra,60.416667,15.766667,SWEDEN,SE,SWE
Västerbotten,,Överrissjö,64.066667,17.666667,SWEDEN,SE,SWE
Västerbotten,,Övre Rissjö,64.066667,17.666667,SWEDEN,SE,SWE
Dalarna Län,,Öfvernora,60.366667,16.016667,SWEDEN,SE,SWE
Dalarna Län,,Övernora,60.366667,16.016667,SWEDEN,SE,SWE
Västmanland,,Övernäs,59.55,16.283333,SWEDEN,SE,SWE
Södermanland,,Övernäs,59.333333,16.3,SWEDEN,SE,SWE
Norrbotten,,Overluleå,65.833333,21.7,SWEDEN,SE,SWE
Västra Götaland,,Stenungsund,58.083333,11.816667,SWEDEN,SE,SWE
Örebro,,Skyrsta,58.8,14.933333,SWEDEN,SE,SWE
Stockholm,,Näsby,59.433333,18.066667,SWEDEN,SE,SWE
Stockholm,,Roslags-Näsby,59.433333,18.066667,SWEDEN,SE,SWE
Stockholm,,Roslags-Kulla,59.558889,18.560833,SWEDEN,SE,SWE
Värmland,,Risviken,59.3,12.15,SWEDEN,SE,SWE
Västerbotten,,Risvattnet,64.35,20.883333,SWEDEN,SE,SWE
Kalmar,,Skedshult,58.083333,16.483333,SWEDEN,SE,SWE
Västernorrland,,Skedom,62.533333,17.816667,SWEDEN,SE,SWE
Västra Götaland,,Sollum,58.183333,12.1,SWEDEN,SE,SWE
Stockholm,,Sollentuna,59.466667,17.9,SWEDEN,SE,SWE
Skåne,,Raus,56,12.766667,SWEDEN,SE,SWE
Norrbotten,,Raunavaara,66.483333,23.633333,SWEDEN,SE,SWE
Jämtland,,Raukasjö,64.933333,14.55,SWEDEN,SE,SWE
Jämtland,,Raukaselet,64.9,14.6,SWEDEN,SE,SWE
Norrbotten,,Ratukkavaaraby,66.916667,21.266667,SWEDEN,SE,SWE
Norrbotten,,Ratukkavaara,66.916667,21.266667,SWEDEN,SE,SWE
Dalarna Län,,Rättvik,60.883333,15.1,SWEDEN,SE,SWE
Jönköping,,Skaftarp,57.066667,14.3,SWEDEN,SE,SWE
Kronoberg,,Skafta,56.566667,13.7,SWEDEN,SE,SWE
Norrbotten,,Siekajärvi,66.566667,23.416667,SWEDEN,SE,SWE
Norrbotten,,Siekasjärvi,66.566667,23.416667,SWEDEN,SE,SWE
Gävleborgs Län,,Sidskogen,61.583333,15.866667,SWEDEN,SE,SWE
Gävleborgs Län,,Sidskog,61.583333,15.866667,SWEDEN,SE,SWE
Jämtland,,Sidsjö,62.733333,15.15,SWEDEN,SE,SWE
Värmland,,Råda,60.15,13.416667,SWEDEN,SE,SWE
Värmland,,Råda,60,13.6,SWEDEN,SE,SWE
Västra Götaland,,Råda,57.666667,12.1,SWEDEN,SE,SWE
Jämtland,,Räcksjön,63.083333,14.466667,SWEDEN,SE,SWE
Västmanland,,Racksätter,59.366667,15.716667,SWEDEN,SE,SWE
Västmanland,,Racksäer,59.366667,15.716667,SWEDEN,SE,SWE
Västmanland,,Racksäter,59.366667,15.716667,SWEDEN,SE,SWE
Södermanland,,Råby-Rönö,58.866667,16.9,SWEDEN,SE,SWE
Södermanland,,Råby,58.866667,16.9,SWEDEN,SE,SWE
Dalarna Län,,Sandviken,60.55,14.816667,SWEDEN,SE,SWE
Dalarna Län,,Sandviken Fäbodar,60.55,14.816667,SWEDEN,SE,SWE
Uppsala,,Sandviken,60.533333,17.6,SWEDEN,SE,SWE
Värmland,,Sandviken,59.9,12.916667,SWEDEN,SE,SWE
Värmland,,Sandviken,59.616667,12.85,SWEDEN,SE,SWE
Värmland,,Sandviken,59.6,13.183333,SWEDEN,SE,SWE
Västmanland,,Sandviken,59.466667,16.166667,SWEDEN,SE,SWE
Värmland,,Sandviken,59.266667,11.85,SWEDEN,SE,SWE
Värmland,,Sandvik,59.166667,12.9,SWEDEN,SE,SWE
Värmland,,Sandviken,59.166667,12.9,SWEDEN,SE,SWE
Västernorrland,,Sandviken,63.066667,18.683333,SWEDEN,SE,SWE
Värmland,,Skyttjärn,59.516667,14,SWEDEN,SE,SWE
Västra Götaland,,Skepplaskog,57.85,12.266667,SWEDEN,SE,SWE
Västmanland,,Patringbo,59.866667,16.783333,SWEDEN,SE,SWE
Jönköping,,Påtarp,57.583333,15.6,SWEDEN,SE,SWE
Kalmar,,Patamalm,56.9,16.416667,SWEDEN,SE,SWE
Skåne,,Stora Herrestad,55.466667,13.866667,SWEDEN,SE,SWE
Västra Götaland,,Stora Hedum,58.516667,11.466667,SWEDEN,SE,SWE
Västmanland,,Säby,59.9,17,SWEDEN,SE,SWE
Uppsala,,Säby,59.8,17.816667,SWEDEN,SE,SWE
Uppsala,,Säby,59.733333,17.466667,SWEDEN,SE,SWE
Västmanland,,Säby,59.55,16.3,SWEDEN,SE,SWE
Västmanland,,Säby,59.383333,15.933333,SWEDEN,SE,SWE
Örebro,,Säby,59.25,14.966667,SWEDEN,SE,SWE
Jönköping,,Säby,58.083333,14.35,SWEDEN,SE,SWE
Västra Götaland,,Säby,58.016667,11.6,SWEDEN,SE,SWE
Jönköping,,Säby,57.983333,14.916667,SWEDEN,SE,SWE
Gävleborgs Län,,Vista,60.333333,16.733333,SWEDEN,SE,SWE
Östergötland,,Vist,58.333333,15.733333,SWEDEN,SE,SWE
Stockholm,,Vissvass,59.190278,18.376389,SWEDEN,SE,SWE
Västerbotten,,Tallsjö,64.15,18.033333,SWEDEN,SE,SWE
Östergötland,,Tallsebo,57.883333,16.016667,SWEDEN,SE,SWE
Östergötland,,Talsebo,57.883333,16.016667,SWEDEN,SE,SWE
Södermanland,,Tallsäter,59.133333,15.933333,SWEDEN,SE,SWE
Västernorrland,,Tallnäset,63.516667,17.266667,SWEDEN,SE,SWE
Uppsala,,Tallmyra,59.666667,16.966667,SWEDEN,SE,SWE
Uppsala,,Vansta,60.05,17.65,SWEDEN,SE,SWE
Dalarna Län,,Vansjö,60.083333,16.2,SWEDEN,SE,SWE
Västmanland,,Vånsjö,59.733333,17.066667,SWEDEN,SE,SWE
Kalmar,,Vänsjö,56.583333,15.866667,SWEDEN,SE,SWE
Uppsala,,Vela,59.6,16.966667,SWEDEN,SE,SWE
Jönköping,,Svartarp,57.216667,15.433333,SWEDEN,SE,SWE
Jämtland,,Vägskälet,63.75,14.433333,SWEDEN,SE,SWE
Västra Götaland,,Uggletorp,58.55,14.066667,SWEDEN,SE,SWE
Jönköping,,Uggleryd,57.183333,14.516667,SWEDEN,SE,SWE
Kalmar,,Ugglemad,56.416667,15.866667,SWEDEN,SE,SWE
Jönköping,,Ugglekull,57.133333,14.283333,SWEDEN,SE,SWE
Kronoberg,,Ugglekull,56.566667,14.783333,SWEDEN,SE,SWE
Västra Götaland,,Uggledal,57.6,11.95,SWEDEN,SE,SWE
Blekinge Län,,Uggleboda,56.233333,14.683333,SWEDEN,SE,SWE
Västra Götaland,,Ugglebo,57.416667,13.216667,SWEDEN,SE,SWE
Östergötland,,Västerum,58.066667,16.616667,SWEDEN,SE,SWE
Uppsala,,Västra Tvärnö,60.2,18.5,SWEDEN,SE,SWE
Uppsala,,Västertvärnö,60.2,18.5,SWEDEN,SE,SWE
Västerbotten,,Stornorrforsen,63.866667,20.083333,SWEDEN,SE,SWE
Jämtland,,Stornäsudden,64.083333,15.883333,SWEDEN,SE,SWE
Västerbotten,,Stornäs,65.033333,15.166667,SWEDEN,SE,SWE
Skåne,,Troröd,55.933333,13.883333,SWEDEN,SE,SWE
Skåne,,Troeröd,55.933333,13.883333,SWEDEN,SE,SWE
Skåne,,Troentorp,56.45,12.75,SWEDEN,SE,SWE
Jämtland,,Trillevallen,63.416667,13.2,SWEDEN,SE,SWE
Jämtland,,Trillevallen,63.25,13.183333,SWEDEN,SE,SWE
Dalarna Län,,Vålarna,61.066667,14.95,SWEDEN,SE,SWE
Jönköping,,Stora Segerstad,57.15,13.55,SWEDEN,SE,SWE
Stockholm,,Törnby,59.333333,17.716667,SWEDEN,SE,SWE
Kalmar,,Törnbotten,56.666667,16.533333,SWEDEN,SE,SWE
Jämtland,,Tornäs,63.65,14.65,SWEDEN,SE,SWE
Västra Götaland,,Tornarp,57.983333,13.416667,SWEDEN,SE,SWE
Blekinge Län,,Törnåkra,56.233333,15.916667,SWEDEN,SE,SWE
Hallands Län,,Tormorup,57.033333,12.65,SWEDEN,SE,SWE
Skåne,,Tormastorp,56.116667,13.733333,SWEDEN,SE,SWE
Skåne,,Tormestorp,56.116667,13.733333,SWEDEN,SE,SWE
Västerbotten,,Tjälfors,65.116667,21,SWEDEN,SE,SWE
Kronoberg,,Yttre Gällareböke,56.5,13.583333,SWEDEN,SE,SWE
Kronoberg,,Yttre Bohult,56.783333,13.35,SWEDEN,SE,SWE
Norrbotten,,Tjäkjokk,65.716667,18.083333,SWEDEN,SE,SWE
Västerbotten,,Talliden,65.05,19.966667,SWEDEN,SE,SWE
Kalmar,,Tälleryd,57.5,16.066667,SWEDEN,SE,SWE
Kronoberg,,Tälleryd,57.15,15.283333,SWEDEN,SE,SWE
Örebro,,Tällekullen,59.283333,14.45,SWEDEN,SE,SWE
Västmanland,,Vagersta,59.8,16.516667,SWEDEN,SE,SWE
Örebro,,Vagersta,58.866667,14.85,SWEDEN,SE,SWE
Västernorrland,,Vägersjö,63.316667,16.4,SWEDEN,SE,SWE
Västernorrland,,Vägersjön,63.316667,16.4,SWEDEN,SE,SWE
Dalarna Län,,Uggelbo,60.366667,15.716667,SWEDEN,SE,SWE
Norrbotten,,Udtja,66.3,19.016667,SWEDEN,SE,SWE
Västmanland,,Ytterkålsta,59.816667,17,SWEDEN,SE,SWE
Kalmar,,Ytterhult,57.7,16.616667,SWEDEN,SE,SWE
Jämtland,,Ytterhogdal,62.183333,14.95,SWEDEN,SE,SWE
Gävleborgs Län,,Ytterharnäs,60.65,17.35,SWEDEN,SE,SWE
Uppsala,,Yttergånsta,59.616667,17.116667,SWEDEN,SE,SWE
Västernorrland,,Ytterfälle,62.9,17.8,SWEDEN,SE,SWE
Västernorrland,,Yttered,62.933333,18.083333,SWEDEN,SE,SWE
Blekinge Län,,Trensum,56.2,14.95,SWEDEN,SE,SWE
Blekinge Län,,Tränsum,56.2,14.95,SWEDEN,SE,SWE
Skåne,,Trälleborg,55.366667,13.166667,SWEDEN,SE,SWE
Skåne,,Trelleborg,55.366667,13.166667,SWEDEN,SE,SWE
Jämtland,,Trekilen,63.5,15.066667,SWEDEN,SE,SWE
Västra Götaland,,Treje,58.883333,11.333333,SWEDEN,SE,SWE
Västerbotten,,Trehörningen,64.383333,20.916667,SWEDEN,SE,SWE
Västerbotten,,Trehörningen,64.016667,20.15,SWEDEN,SE,SWE
Västernorrland,,Trehörningen,63.416667,18.716667,SWEDEN,SE,SWE
Stockholm,,Vinsta,59.383333,17.85,SWEDEN,SE,SWE
Skåne,,Vinslöv,56.1,13.916667,SWEDEN,SE,SWE
Örebro,,Vinön,59.2,15.716667,SWEDEN,SE,SWE
Skåne,,Vinnö,56.05,14.083333,SWEDEN,SE,SWE
Skåne,,Vinninge,55.6,13.216667,SWEDEN,SE,SWE
Östergötland,,Vinnerstad,58.516667,15.083333,SWEDEN,SE,SWE
Norrbotten,,Vinnäset,66.533333,22.75,SWEDEN,SE,SWE
Norrbotten,,Vinnäs,66.533333,22.75,SWEDEN,SE,SWE
Västra Götaland,,Torhult,57.766667,13.716667,SWEDEN,SE,SWE
Kalmar,,Torhult,56.483333,15.75,SWEDEN,SE,SWE
Västra Götaland,,Torgunnehagen,58.566667,12.45,SWEDEN,SE,SWE
Västra Götaland,,Torgrinsbyn,58.783333,12.4,SWEDEN,SE,SWE
Värmland,,Torgilsrud,59.816667,12.183333,SWEDEN,SE,SWE
Jönköping,,Torget,57.433333,15.1,SWEDEN,SE,SWE
Uppsala,,Torgesta,59.666667,16.9,SWEDEN,SE,SWE
Västra Götaland,,Törestorp,58.316667,13.066667,SWEDEN,SE,SWE
Västra Götaland,,Törestorp,58.216667,13.75,SWEDEN,SE,SWE
Västerbotten,,Vattugården,63.5,18.083333,SWEDEN,SE,SWE
Dalarna Län,,Vattrangi,60.083333,14.3,SWEDEN,SE,SWE
Västra Götaland,,Vattneböle,58.683333,11.966667,SWEDEN,SE,SWE
Västra Götaland,,Vättlösa,58.516667,13.483333,SWEDEN,SE,SWE
Uppsala,,Vattholma,60.016667,17.733333,SWEDEN,SE,SWE
Dalarna Län,,Vatthammar,60.45,15.45,SWEDEN,SE,SWE
Stockholm,,Vättersö,59.566667,18.7,SWEDEN,SE,SWE
Västmanland,,Vätterskoga,59.8,15.683333,SWEDEN,SE,SWE
Västernorrland,,Strömsta,62.383333,15.216667,SWEDEN,SE,SWE
Kalmar,,Strömsrum,57.083333,15.75,SWEDEN,SE,SWE
Kalmar,,Strömserum,56.933056,16.416667,SWEDEN,SE,SWE
Kalmar,,Strömsrum,56.933056,16.416667,SWEDEN,SE,SWE
Norrbotten,,Strömsnäs,66.466667,22.783333,SWEDEN,SE,SWE
Norrbotten,,Strömsnäset,66.466667,22.783333,SWEDEN,SE,SWE
Norrbotten,,Åmyran,66.466667,22.783333,SWEDEN,SE,SWE
Blekinge Län,,Stickeboda,56.4,15.533333,SWEDEN,SE,SWE
Skåne,,Stiby,55.55,14.183333,SWEDEN,SE,SWE
Kalmar,,Stibbetorp,56.85,15.65,SWEDEN,SE,SWE
Skåne,,Stianderöd,55.85,14.016667,SWEDEN,SE,SWE
Gävleborgs Län,,Sterte,60.316667,16.7,SWEDEN,SE,SWE
Kronoberg,,Stenvarmsholm,56.616667,15.2,SWEDEN,SE,SWE
Uppsala,,Stadsgånsta,59.616667,17.1,SWEDEN,SE,SWE
Jämtland,,Stadsforsen,62.983333,16.666667,SWEDEN,SE,SWE
Jönköping,,Röshult,57.633333,14.083333,SWEDEN,SE,SWE
Kronoberg,,Röshult,56.633333,14.25,SWEDEN,SE,SWE
Blekinge Län,,Röshult,56.333333,14.65,SWEDEN,SE,SWE
Västra Götaland,,Rösered,57.8,12.033333,SWEDEN,SE,SWE
Västra Götaland,,Rösered,57.583333,13.3,SWEDEN,SE,SWE
Örebro,,Rosensjö,59.4,14.45,SWEDEN,SE,SWE
Värmland,,Skumperud,59.266667,12.716667,SWEDEN,SE,SWE
Blekinge Län,,Skumpamåla,56.466667,15.416667,SWEDEN,SE,SWE
Västra Götaland,,Skummenäs,57.433333,13.25,SWEDEN,SE,SWE
Jämtland,,Stabergsvallen,62.483333,14.283333,SWEDEN,SE,SWE
Stockholm,,Solhem,59.383333,17.883333,SWEDEN,SE,SWE
Jämtland,,Rismon,63.616667,14.133333,SWEDEN,SE,SWE
Kronoberg,,Rislycke,56.85,15.383333,SWEDEN,SE,SWE
Västerbotten,,Risliden,64.8,19.4,SWEDEN,SE,SWE
Västerbotten,,Risliden,64.266667,19.983333,SWEDEN,SE,SWE
Värmland,,Råtorp,59.4,13.483333,SWEDEN,SE,SWE
Jämtland,,Rätansbyn,62.483333,14.533333,SWEDEN,SE,SWE
Hallands Län,,Skavböke,56.816667,13.1,SWEDEN,SE,SWE
Västerbotten,,Skafåsen,64.25,16.7,SWEDEN,SE,SWE
Västerbotten,,Skavåsen,64.25,16.7,SWEDEN,SE,SWE
Uppsala,,Söderkulla,60.133333,17.9,SWEDEN,SE,SWE
Östergötland,,Söderköping,58.483333,16.3,SWEDEN,SE,SWE
Uppsala,,Söderharg,60.333333,18.4,SWEDEN,SE,SWE
Gävleborgs Län,,Söderhamn,61.3,17.05,SWEDEN,SE,SWE
Stockholm,,Söderhagen,59.2,18.133333,SWEDEN,SE,SWE
Västernorrland,,Södergården,62.733333,17.55,SWEDEN,SE,SWE
Västernorrland,,Södergård,62.733333,17.55,SWEDEN,SE,SWE
Västernorrland,,Södergård,62.2,17.216667,SWEDEN,SE,SWE
Stockholm,,Råby,59.8,18.316667,SWEDEN,SE,SWE
Stockholm,,Råby,59.616667,17.6,SWEDEN,SE,SWE
Uppsala,,Råby,59.533333,17.5,SWEDEN,SE,SWE
Södermanland,,Råby,59.3,16.066667,SWEDEN,SE,SWE
Stockholm,,Råby,59.133333,17.85,SWEDEN,SE,SWE
Kalmar,,Råby,56.65,16.183333,SWEDEN,SE,SWE
Skåne,,Råby,56.1,14.516667,SWEDEN,SE,SWE
Södermanland,,Rabostan,59.283333,16.033333,SWEDEN,SE,SWE
Skåne,,Råbockarp,55.983333,13.816667,SWEDEN,SE,SWE
Gävleborgs Län,,Rabo,61.35,16.466667,SWEDEN,SE,SWE
Hallands Län,,Sibbalt,56.566667,13.266667,SWEDEN,SE,SWE
Blekinge Län,,Sibbaboda,56.133333,15.883333,SWEDEN,SE,SWE
Örebro,,Skyllbergs,58.95,14.983333,SWEDEN,SE,SWE
Örebro,,Skyllberg,58.95,14.983333,SWEDEN,SE,SWE
Västra Götaland,,Skyarp,57.3,13.216667,SWEDEN,SE,SWE
Kalmar,,Skvagerfall,57.816667,16.5,SWEDEN,SE,SWE
Uppsala,,Skuttungeby,60,17.5,SWEDEN,SE,SWE
Uppsala,,Skuttunge,60,17.516667,SWEDEN,SE,SWE
Kalmar,,Skutterstad,57.85,16.133333,SWEDEN,SE,SWE
Jönköping,,Påskarp,57.733333,14.766667,SWEDEN,SE,SWE
Norrbotten,,Paskojärvi,66.616667,23.166667,SWEDEN,SE,SWE
Norrbotten,,Paskajärvi,66.616667,23.166667,SWEDEN,SE,SWE
Norrbotten,,Parviainen,65.866667,23.85,SWEDEN,SE,SWE
Skåne,,Pärup,55.8,13.75,SWEDEN,SE,SWE
Norrbotten,,Sandudden,67.25,19.083333,SWEDEN,SE,SWE
Norrbotten,,Sandudden,65.7,21.65,SWEDEN,SE,SWE
Dalarna Län,,Sandudden,60.066667,15,SWEDEN,SE,SWE
Östergötland,,Skedet,58.366667,14.716667,SWEDEN,SE,SWE
Hallands Län,,Skedeskamma,57.266667,12.566667,SWEDEN,SE,SWE
Västernorrland,,Skede,63.25,19,SWEDEN,SE,SWE
Skåne,,Stora Görslöv,56.216667,12.65,SWEDEN,SE,SWE
Skåne,,Görslöv,56.216667,12.65,SWEDEN,SE,SWE
Norrbotten,,Stensund,66.05,18.133333,SWEDEN,SE,SWE
Västerbotten,,Stensund,65.483333,17.4,SWEDEN,SE,SWE
Västerbotten,,Stensund,65.25,18.583333,SWEDEN,SE,SWE
Västernorrland,,Sidensjö,63.3,18.3,SWEDEN,SE,SWE
Västerbotten,,Sidberg,64.883333,18.366667,SWEDEN,SE,SWE
Värmland,,Stenstad,59.666667,12.85,SWEDEN,SE,SWE
Värmland,,Stenstan,59.666667,12.85,SWEDEN,SE,SWE
Örebro,,Stensta,59.5,15.45,SWEDEN,SE,SWE
Gävleborgs Län,,Stensön,61.784444,17.345556,SWEDEN,SE,SWE
Skåne,,Stabbarps Gruva,55.866667,13.3,SWEDEN,SE,SWE
Västra Götaland,,Sprottebo,58.416667,14.15,SWEDEN,SE,SWE
Västra Götaland,,Språttebo,58.416667,14.15,SWEDEN,SE,SWE
Gotlands Län,,Sproge,57.25,18.2,SWEDEN,SE,SWE
Dalarna Län,,Spraxkya,60.416667,15.35,SWEDEN,SE,SWE
Kronoberg,,Språxhult,56.6,13.416667,SWEDEN,SE,SWE
Jönköping,,Språtarp,57.466667,15.2,SWEDEN,SE,SWE
Dalarna Län,,Spräckla,60.183333,15.316667,SWEDEN,SE,SWE
Dalarna Län,,Spräklan,60.183333,15.316667,SWEDEN,SE,SWE
Örebro,,Rösavi,59.1,15.1,SWEDEN,SE,SWE
Södermanland,,Risinge,59.166667,16.033333,SWEDEN,SE,SWE
Östergötland,,Risinge,58.683056,15.833056,SWEDEN,SE,SWE
Kalmar,,Risinge,56.483333,16.383333,SWEDEN,SE,SWE
Norrbotten,,Solberg,66,18.1,SWEDEN,SE,SWE
Norrbotten,,Solberg,65.65,21.583333,SWEDEN,SE,SWE
Västernorrland,,Solberg,63.933333,16.7,SWEDEN,SE,SWE
Jämtland,,Solberg,63.516667,15.35,SWEDEN,SE,SWE
Jämtland,,Solberg,63.066667,14.766667,SWEDEN,SE,SWE
Västernorrland,,Solberg,62.266667,17.35,SWEDEN,SE,SWE
Värmland,,Solberg,60.183333,13.383333,SWEDEN,SE,SWE
Värmland,,Solberg,59.6,13.633333,SWEDEN,SE,SWE
Värmland,,Solberg,59.5,13.166667,SWEDEN,SE,SWE
Värmland,,Solberga,59.233333,12.416667,SWEDEN,SE,SWE
Värmland,,Solberg,59.233333,12.416667,SWEDEN,SE,SWE
Västernorrland,,Solbacka,62.5,17.35,SWEDEN,SE,SWE
Dalarna Län,,Solbacka,60.533333,15.3,SWEDEN,SE,SWE
Södermanland,,Solbacka,59.116667,16.95,SWEDEN,SE,SWE
Kalmar,,Solbacka,57.683333,15.616667,SWEDEN,SE,SWE
Jönköping,,Solbacka,57.6,14.683333,SWEDEN,SE,SWE
Östergötland,,Råssnäs,58.533333,14.983333,SWEDEN,SE,SWE
Kalmar,,Rasslebygd,56.633333,15.55,SWEDEN,SE,SWE
Gävleborgs Län,,Vakåsen,62.166667,16.316667,SWEDEN,SE,SWE
Västernorrland,,Vågen,63.05,17.016667,SWEDEN,SE,SWE
Västernorrland,,Våjen,63.05,17.016667,SWEDEN,SE,SWE
Norrbotten,,Vaisaluokta,67.666667,17.266667,SWEDEN,SE,SWE
Norrbotten,,Vaisaluoktakåtan,67.666667,17.266667,SWEDEN,SE,SWE
Norrbotten,,Vajsaluokta,67.666667,17.266667,SWEDEN,SE,SWE
Västernorrland,,Ytterskog,62.733333,17.866667,SWEDEN,SE,SWE
Jämtland,,Tivarsgården,63.15,14.35,SWEDEN,SE,SWE
Jämtland,,Tifvarsgård,63.15,14.35,SWEDEN,SE,SWE
Västra Götaland,,Tittebo,57.416667,13.2,SWEDEN,SE,SWE
Östergötland,,Tistorp,58.416667,14.933333,SWEDEN,SE,SWE
Värmland,,Uggleberg,59.116667,13.016667,SWEDEN,SE,SWE
Gävleborgs Län,,Yttermyra,60.6,16.583333,SWEDEN,SE,SWE
Norrbotten,,Yttermorjärv,66.05,22.7,SWEDEN,SE,SWE
Norrbotten,,Yttre Morjärv,66.05,22.7,SWEDEN,SE,SWE
Dalarna Län,,Yttermora,60.516667,15.416667,SWEDEN,SE,SWE
Västernorrland,,Ytterkovland,62.466667,17.15,SWEDEN,SE,SWE
Västernorrland,,Ytterkofland,62.466667,17.15,SWEDEN,SE,SWE
Norrbotten,,Virkamaa,66.866667,23.233333,SWEDEN,SE,SWE
Kronoberg,,Virestad,56.616667,14.333333,SWEDEN,SE,SWE
Kalmar,,Tålebo,57,16.35,SWEDEN,SE,SWE
Stockholm,,Talby,59.233333,17.666667,SWEDEN,SE,SWE
Västra Götaland,,Tålanna,58.133333,12.933333,SWEDEN,SE,SWE
Västra Götaland,,Tålanda,58.133333,12.933333,SWEDEN,SE,SWE
Västra Götaland,,Svanvik,58.566667,14.483333,SWEDEN,SE,SWE
Västra Götaland,,Svanvik,58.033333,11.716667,SWEDEN,SE,SWE
Jämtland,,Svantjärnåsen,62.25,14.25,SWEDEN,SE,SWE
Dalarna Län,,Tretjärn,60.433333,14.183333,SWEDEN,SE,SWE
Västra Götaland,,Vedåsla,57.916667,13.45,SWEDEN,SE,SWE
Kronoberg,,Vedåsa,56.716667,14.166667,SWEDEN,SE,SWE
Kronoberg,,Vedamåla,56.7,15.233333,SWEDEN,SE,SWE
Västernorrland,,Veda,62.8,17.916667,SWEDEN,SE,SWE
Stockholm,,Veda,60.066667,18.716667,SWEDEN,SE,SWE
Västerbotten,,Vebomark,64.4,21,SWEDEN,SE,SWE
Värmland,,Ve,59.416667,13.816667,SWEDEN,SE,SWE
Värmland,,Växvik,59.716667,12.283333,SWEDEN,SE,SWE
Stockholm,,Vaxtuna,59.616667,18.066667,SWEDEN,SE,SWE
Västerbotten,,Växtholm,64.033333,20.383333,SWEDEN,SE,SWE
Hallands Län,,Stubbhult,56.95,13.35,SWEDEN,SE,SWE
Örebro,,Stubbetorp,58.783333,14.816667,SWEDEN,SE,SWE
Blekinge Län,,Stubbetorp,56.2,15.716667,SWEDEN,SE,SWE
Blekinge Län,,Stubbemåla,56.283333,16.033333,SWEDEN,SE,SWE
Blekinge Län,,Stubbelycke,56.3,15.666667,SWEDEN,SE,SWE
Jämtland,,Väster Nyland,63.7,15.166667,SWEDEN,SE,SWE
Västerbotten,,Västernoret,64.1,17.316667,SWEDEN,SE,SWE
Västerbotten,,Västernäs,64.016667,20.066667,SWEDEN,SE,SWE
Stockholm,,Västernäs,60.116667,18.6,SWEDEN,SE,SWE
Stockholm,,Västernäs,59.716667,18.966667,SWEDEN,SE,SWE
Västerbotten,,Västermyrriset,64.4,17.983333,SWEDEN,SE,SWE
Dalarna Län,,Västra Myckeläng,61.2,14.033333,SWEDEN,SE,SWE
Dalarna Län,,Västermyckleäng,61.2,14.033333,SWEDEN,SE,SWE
Dalarna Län,,Västermyckeläng,61.2,14.033333,SWEDEN,SE,SWE
Västerbotten,,Västermark,64.266667,20.2,SWEDEN,SE,SWE
Västmanland,,Västerlundby,59.516667,16.05,SWEDEN,SE,SWE
Östergötland,,Västerlösa,58.8,15.533333,SWEDEN,SE,SWE
Östergötland,,Västerlösa,58.416667,15.333333,SWEDEN,SE,SWE
Södermanland,,Västerljung,58.916667,17.433333,SWEDEN,SE,SWE
Värmland,,Tälle,59.85,12.266667,SWEDEN,SE,SWE
Skåne,,Vanneberga,56.05,13.9,SWEDEN,SE,SWE
Västerbotten,,Vännäsby,63.933333,19.833333,SWEDEN,SE,SWE
Västerbotten,,Vännäs,63.883333,19.2,SWEDEN,SE,SWE
Skåne,,Vannaröd,56.05,13.666667,SWEDEN,SE,SWE
Södermanland,,Vannala,59.033333,15.833333,SWEDEN,SE,SWE
Dalarna Län,,Täktsberget,61.149722,15.05,SWEDEN,SE,SWE
Värmland,,Takene,59.75,12.8,SWEDEN,SE,SWE
Örebro,,Tåje,59.483333,15.566667,SWEDEN,SE,SWE
Kalmar,,Vånga,57.566667,16.216667,SWEDEN,SE,SWE
Skåne,,Vånga,56.183333,14.366667,SWEDEN,SE,SWE
Skåne,,Villands Vånga,56.183333,14.366667,SWEDEN,SE,SWE
Värmland,,Vång,59.416667,13.75,SWEDEN,SE,SWE
Blekinge Län,,Vång,56.266667,15.416667,SWEDEN,SE,SWE
Västerbotten,,Vänfors,64.15,19.5,SWEDEN,SE,SWE
Västra Götaland,,Väne Åsaka,58.25,12.416667,SWEDEN,SE,SWE
Norrbotten,,Vändträsk,65.783333,21.433333,SWEDEN,SE,SWE
Västerbotten,,Svannäs,64.6,17.783333,SWEDEN,SE,SWE
Västerbotten,,Svannäs,64.583333,16.616667,SWEDEN,SE,SWE
Örebro,,Svanhult,58.716667,14.483333,SWEDEN,SE,SWE
Blekinge Län,,Svanhalla,56.116667,15.883333,SWEDEN,SE,SWE
Blekinge Län,,Svängsta,56.266667,14.766667,SWEDEN,SE,SWE
Västerbotten,,Svanfors,64.866667,20.5,SWEDEN,SE,SWE
Värmland,,Svaneholm,59.183333,12.55,SWEDEN,SE,SWE
Västra Götaland,,Svaneholm,57.616667,12.816667,SWEDEN,SE,SWE
Skåne,,Svanebäck,56.166667,12.566667,SWEDEN,SE,SWE
Västerbotten,,Svanberget,64.533333,16.633333,SWEDEN,SE,SWE
Kronoberg,,Väderlanda,56.733333,15,SWEDEN,SE,SWE
Kronoberg,,Värnlanda,56.733333,15,SWEDEN,SE,SWE
Jönköping,,Väderås,57.05,13.883333,SWEDEN,SE,SWE
Skåne,,Vadensjö,55.9,12.9,SWEDEN,SE,SWE
Västra Götaland,,Vadened,58.283333,14.133333,SWEDEN,SE,SWE
Gävleborgs Län,,Vad,61.283333,17.133333,SWEDEN,SE,SWE
Västmanland,,Vad,59.783333,16.616667,SWEDEN,SE,SWE
Södermanland,,Vad,59.016667,15.966667,SWEDEN,SE,SWE
Jämtland,,Strömnäs,63.166667,15.85,SWEDEN,SE,SWE
Jämtland,,Strömsnäs,63.166667,15.85,SWEDEN,SE,SWE
Värmland,,Strömsmark,59.733333,12.05,SWEDEN,SE,SWE
Stockholm,,Strömslund,59.149722,18.133056,SWEDEN,SE,SWE
Stockholm,,Strömsund,59.149722,18.133056,SWEDEN,SE,SWE
Västra Götaland,,Strömslund,58.333333,12.716667,SWEDEN,SE,SWE
Västra Götaland,,Strömslund,58.283333,12.266667,SWEDEN,SE,SWE
Västra Götaland,,Strömsholm,58.2,11.533333,SWEDEN,SE,SWE
Stockholm,,Tyrved,59.033333,17.8,SWEDEN,SE,SWE
Västra Götaland,,Tyrsjön,57.783333,12.133333,SWEDEN,SE,SWE
Dalarna Län,,Tyrsberget,60.383333,14.733333,SWEDEN,SE,SWE
Östergötland,,Tyrislöt,58.333056,16.9,SWEDEN,SE,SWE
Västmanland,,Tyringe,59.333333,15.916667,SWEDEN,SE,SWE
Dalarna Län,,Tyrinäs,61.4,13.266667,SWEDEN,SE,SWE
Stockholm,,Tyresö Strand,59.25,18.283333,SWEDEN,SE,SWE
Stockholm,,Strand,59.25,18.283333,SWEDEN,SE,SWE
Stockholm,,Tyresö,59.233333,18.3,SWEDEN,SE,SWE
Västra Götaland,,Tynnered,57.65,11.883333,SWEDEN,SE,SWE
Västernorrland,,Tynnerås,63.483333,16.5,SWEDEN,SE,SWE
Norrbotten,,Ylikodanmännikö,67.25,22.316667,SWEDEN,SE,SWE
Norrbotten,,Ylikodanmännikkö,67.25,22.316667,SWEDEN,SE,SWE
Norrbotten,,Männikkö,67.25,22.316667,SWEDEN,SE,SWE
Västra Götaland,,Skultorp,58.35,13.833333,SWEDEN,SE,SWE
Örebro,,Skulsta,59.433333,15.55,SWEDEN,SE,SWE
Västernorrland,,Skulnäs,63.166667,18.416667,SWEDEN,SE,SWE
Västernorrland,,Skullersta,62.866667,18.016667,SWEDEN,SE,SWE
Västra Götaland,,Skulestad,58.6,11.55,SWEDEN,SE,SWE
Hallands Län,,Skedala,56.7,12.966667,SWEDEN,SE,SWE
Östergötland,,Skeda,58.333056,15.55,SWEDEN,SE,SWE
Kronoberg,,Skeda,57,13.766667,SWEDEN,SE,SWE
Norrbotten,,Parakka,67.5,21.7,SWEDEN,SE,SWE
Västra Götaland,,Paradistorp,58.933333,14.416667,SWEDEN,SE,SWE
Örebro,,Paradiset,59.666667,14.8,SWEDEN,SE,SWE
Västmanland,,Paradiset,59.65,16.1,SWEDEN,SE,SWE
Västernorrland,,Para,63.183333,17.483333,SWEDEN,SE,SWE
Blekinge Län,,Pantarholmen,56.166667,15.583333,SWEDEN,SE,SWE
Västra Götaland,,Pankan,58.666667,14.216667,SWEDEN,SE,SWE
Skåne,,Stora Hammer,55.425,12.966667,SWEDEN,SE,SWE
Skåne,,Stora Hammar,55.425,12.966667,SWEDEN,SE,SWE
Norrbotten,,Skaulo,67.416667,21.133333,SWEDEN,SE,SWE
Västernorrland,,Skadum,63.133333,17.666667,SWEDEN,SE,SWE
Västernorrland,,Skadom,63.133333,17.666667,SWEDEN,SE,SWE
Värmland,,Skacksjö,59.733333,13.316667,SWEDEN,SE,SWE
Örebro,,Skäcklinge,59.35,15.433333,SWEDEN,SE,SWE
Värmland,,Skacklerud,59.55,13.6,SWEDEN,SE,SWE
Västra Götaland,,Skacka,58.55,14.466667,SWEDEN,SE,SWE
Västra Götaland,,Skacken,58.55,14.466667,SWEDEN,SE,SWE
Stockholm,,Skå,59.333333,17.733333,SWEDEN,SE,SWE
Skåne,,Stensnäs,56.8,14.133333,SWEDEN,SE,SWE
Västerbotten,,Stensliden,64.8,19.633333,SWEDEN,SE,SWE
Värmland,,Stenslanda,59.5,12.133333,SWEDEN,SE,SWE
Kronoberg,,Stenslanda,56.733333,14.816667,SWEDEN,SE,SWE
Gävleborgs Län,,Ryggskog,61.75,15.116667,SWEDEN,SE,SWE
Västra Götaland,,Sexdrega,57.583333,13.116667,SWEDEN,SE,SWE
Norrbotten,,Sevuvuoma,68.016667,20.616667,SWEDEN,SE,SWE
Östergötland,,Sevden,58.05,15.916667,SWEDEN,SE,SWE
Västmanland,,Sevalla,59.733333,16.716667,SWEDEN,SE,SWE
Västernorrland,,Spjute,63.183333,18.45,SWEDEN,SE,SWE
Västra Götaland,,Spjäsvik,58.316667,11.433333,SWEDEN,SE,SWE
Västra Götaland,,Spjäsvik,58.316667,11.433333,SWEDEN,SE,SWE
Västra Götaland,,Spjösvik,58.316667,11.433333,SWEDEN,SE,SWE
Dalarna Län,,Spjärsbodarna,60.883333,15.916667,SWEDEN,SE,SWE
Blekinge Län,,Spjälkö,56.166667,15.216667,SWEDEN,SE,SWE
Stockholm,,Spillersboda,59.7,18.85,SWEDEN,SE,SWE
Västra Götaland,,Spikudden,58.683333,13.216667,SWEDEN,SE,SWE
Västra Götaland,,Spiken,58.683333,13.216667,SWEDEN,SE,SWE
Dalarna Län,,Risberget,60.933056,12.883056,SWEDEN,SE,SWE
Norrbotten,,Sandträsk,66.133333,21.35,SWEDEN,SE,SWE
Norrbotten,,Sandträsk,65.266667,19.35,SWEDEN,SE,SWE
Västra Götaland,,Sandtorp,58.533056,13.366667,SWEDEN,SE,SWE
Kalmar,,Sandslätt,57.216667,15.9,SWEDEN,SE,SWE
Västernorrland,,Sandslån,63.016667,17.783333,SWEDEN,SE,SWE
Örebro,,Södra Vinön,59.183333,15.716667,SWEDEN,SE,SWE
Värmland,,Södra Viker,59.3,11.916667,SWEDEN,SE,SWE
Jämtland,,Södra Vike,63.25,14.483333,SWEDEN,SE,SWE
Dalarna Län,,Södra Vika,60.933056,14.516667,SWEDEN,SE,SWE
Örebro,,Södra Via,59.116667,15.133333,SWEDEN,SE,SWE
Kalmar,,Södra Vi,57.75,15.8,SWEDEN,SE,SWE
Dalarna Län,,Västansjö,60.25,14.933333,SWEDEN,SE,SWE
Dalarna Län,,Södra Vastansjö,60.25,14.933333,SWEDEN,SE,SWE
Kronoberg,,Södra Vare,56.816667,14.433333,SWEDEN,SE,SWE
Skåne,,Södra Varalöv,56.183333,12.833333,SWEDEN,SE,SWE
Skåne,,Södra Vallåkra,55.95,12.866667,SWEDEN,SE,SWE
Norrbotten,,Sockenträsk,66.083333,23.116667,SWEDEN,SE,SWE
Västerbotten,,Råsele,64.416667,16.816667,SWEDEN,SE,SWE
Gävleborgs Län,,Rasbo,60.333333,16.783333,SWEDEN,SE,SWE
Västernorrland,,Ryssjö,63.533333,18.483333,SWEDEN,SE,SWE
Västra Götaland,,Rysshult,57.5,13.233333,SWEDEN,SE,SWE
Södermanland,,Rosenholm,58.983333,16.216667,SWEDEN,SE,SWE
Hallands Län,,Snöstorp,56.666667,12.916667,SWEDEN,SE,SWE
Kronoberg,,Snörsjö,56.5,13.733333,SWEDEN,SE,SWE
Västernorrland,,Skule,63.15,18.4,SWEDEN,SE,SWE
Jönköping,,Skuggebo,57.216667,14.383333,SWEDEN,SE,SWE
Dalarna Län,,Skuggarvet,60.666667,15.683333,SWEDEN,SE,SWE
Dalarna Län,,Skuggarfvet,60.666667,15.683333,SWEDEN,SE,SWE
Jämtland,,Skucku,62.783333,14.5,SWEDEN,SE,SWE
Stockholm,,Pungpinan,59.266667,18.1,SWEDEN,SE,SWE
Dalarna Län,,Pungmakarbo,60.35,15.833333,SWEDEN,SE,SWE
Västra Götaland,,Pulsängen,58.55,14.133333,SWEDEN,SE,SWE
Dalarna Län,,Risholen,60.8,15.2,SWEDEN,SE,SWE
Dalarna Län,,Risholn,60.8,15.2,SWEDEN,SE,SWE
Dalarna Län,,Risholn,60.616667,15.75,SWEDEN,SE,SWE
Dalarna Län,,Skattungbyn,61.2,14.866667,SWEDEN,SE,SWE
Örebro,,Skättorp,59.15,14.933333,SWEDEN,SE,SWE
Värmland,,Skattkärr,59.416667,13.633333,SWEDEN,SE,SWE
Västra Götaland,,Skatteg,58.583056,13.166667,SWEDEN,SE,SWE
Dalarna Län,,Pålsbenning,60.25,16.133333,SWEDEN,SE,SWE
Östergötland,,Stora Flarka,57.9,15.833333,SWEDEN,SE,SWE
Jönköping,,Stora Fifflekull,57.516667,15.066667,SWEDEN,SE,SWE
Jönköping,,Råsmäte,57.966667,14.85,SWEDEN,SE,SWE
Jönköping,,Råssmäte,57.966667,14.85,SWEDEN,SE,SWE
Jönköping,,Råssmark,57.966667,14.85,SWEDEN,SE,SWE
Jönköping,,Råsmark,57.966667,14.85,SWEDEN,SE,SWE
Kronoberg,,Sjuhult,57.05,14.35,SWEDEN,SE,SWE
Kronoberg,,Sjuhult,56.583333,13.866667,SWEDEN,SE,SWE
Blekinge Län,,Sjuhalla,56.183333,15.566667,SWEDEN,SE,SWE
Västernorrland,,Sjöviken,62.589722,18.013889,SWEDEN,SE,SWE
Västra Götaland,,Sjöviken,58.55,11.25,SWEDEN,SE,SWE
Västra Götaland,,Sjövik,57.916667,12.366667,SWEDEN,SE,SWE
Gävleborgs Län,,Sjövesta,61.783333,16.05,SWEDEN,SE,SWE
Jämtland,,Sjougdnäs,64.6,14.9,SWEDEN,SE,SWE
Jämtland,,Sjougdnäs Kapell,64.6,14.9,SWEDEN,SE,SWE
Jämtland,,Sjoutnäset,64.6,14.9,SWEDEN,SE,SWE
Jämtland,,Sjoutnäs,64.6,14.9,SWEDEN,SE,SWE
Norrbotten,,Sjötrask,65.566667,18.933333,SWEDEN,SE,SWE
Södermanland,,Tisnarbro,58.916667,16.05,SWEDEN,SE,SWE
Södermanland,,Tisnarebaden,58.916667,16.05,SWEDEN,SE,SWE
Dalarna Län,,Tällberg,60.816667,15,SWEDEN,SE,SWE
Dalarna Län,,Tällberg,60.7,15.316667,SWEDEN,SE,SWE
Västernorrland,,Västergård,62.266667,16.833333,SWEDEN,SE,SWE
Dalarna Län,,Västerfors,60.583333,15.016667,SWEDEN,SE,SWE
Västernorrland,,Västerfannbyn,63.45,18.116667,SWEDEN,SE,SWE
Västernorrland,,Västerfanbyn,63.45,18.116667,SWEDEN,SE,SWE
Västernorrland,,Fannbyn,63.45,18.116667,SWEDEN,SE,SWE
Dalarna Län,,Västerfallet,60.316667,14.716667,SWEDEN,SE,SWE
Uppsala,,Västerensta,60.3,17.383333,SWEDEN,SE,SWE
Skåne,,Vankiva,56.183333,13.733333,SWEDEN,SE,SWE
Västerbotten,,Vänjaurträsk,64.3,18.633333,SWEDEN,SE,SWE
Västerbotten,,Vänjaurbäck,64.366667,18.583333,SWEDEN,SE,SWE
Dalarna Län,,Vanhäll,60.116667,15.466667,SWEDEN,SE,SWE
Västernorrland,,Stor-Hullsjön,62.55,16.666667,SWEDEN,SE,SWE
Jämtland,,Storholmsjön,63.683333,14.35,SWEDEN,SE,SWE
Jämtland,,Storholmsjö,63.683333,14.35,SWEDEN,SE,SWE
Västerbotten,,Svanström,64.85,20.5,SWEDEN,SE,SWE
Norrbotten,,Svanstein,66.65,23.85,SWEDEN,SE,SWE
Norrbotten,,Svansten,66.65,23.85,SWEDEN,SE,SWE
Västra Götaland,,Vänga,58.016667,12.483333,SWEDEN,SE,SWE
Västra Götaland,,Vågerse,57.433333,12.4,SWEDEN,SE,SWE
Jämtland,,Vågen,64.633333,13.733333,SWEDEN,SE,SWE
Jämtland,,Vågen,63.533333,13.8,SWEDEN,SE,SWE
Jämtland,,Vågen,63.1,16.433333,SWEDEN,SE,SWE
Värmland,,Vägen,59.516667,14.3,SWEDEN,SE,SWE
Jämtland,,Vågdalen,63.8,15.7,SWEDEN,SE,SWE
Kronoberg,,Vägarås,56.5,13.8,SWEDEN,SE,SWE
Skåne,,Stubbaröd,55.65,14.166667,SWEDEN,SE,SWE
Värmland,,Uddeholm,60.016667,13.616667,SWEDEN,SE,SWE
Västra Götaland,,Uddeholm,57.45,12.5,SWEDEN,SE,SWE
Västra Götaland,,Uddebo,57.466667,13.25,SWEDEN,SE,SWE
Kalmar,,Uddaryd,57.133333,15.633333,SWEDEN,SE,SWE
Västra Götaland,,Uddarp,57.25,13.05,SWEDEN,SE,SWE
Hallands Län,,Uddared,56.533333,13.25,SWEDEN,SE,SWE
Uppsala,,Uddarby,60.166667,17.783333,SWEDEN,SE,SWE
Kalmar,,Uddabo,56.733333,16.05,SWEDEN,SE,SWE
Värmland,,Uddaberg,59.966667,13.15,SWEDEN,SE,SWE
Uppsala,,Uckerö,60.3,18.133333,SWEDEN,SE,SWE
Västernorrland,,Uberg,63.366667,18,SWEDEN,SE,SWE
Norrbotten,,Ubyn,65.9,21.916667,SWEDEN,SE,SWE
Norrbotten,,Utbyn,65.9,21.916667,SWEDEN,SE,SWE
Norrbotten,,Ubbyn,65.9,21.916667,SWEDEN,SE,SWE
Uppsala,,Ubby,59.95,17.4,SWEDEN,SE,SWE
Skåne,,Ystad,55.416667,13.816667,SWEDEN,SE,SWE
Skåne,,Ystao,55.416667,13.816667,SWEDEN,SE,SWE
Hallands Län,,Ysby,57.480278,12.0175,SWEDEN,SE,SWE
Norrbotten,,Yrttivaara,66.9,21.766667,SWEDEN,SE,SWE
Norrbotten,,Yrttivara,66.9,21.766667,SWEDEN,SE,SWE
Värmland,,Yppersbyn,59.6,12.75,SWEDEN,SE,SWE
Hallands Län,,Ynnabo,56.883333,13.25,SWEDEN,SE,SWE
Örebro,,Tredingskullen,59.233333,15.066667,SWEDEN,SE,SWE
Västra Götaland,,Trävattna,58.166667,13.266667,SWEDEN,SE,SWE
Jämtland,,Trättgärde,63.25,14.616667,SWEDEN,SE,SWE
Kronoberg,,Trästen,56.75,14.416667,SWEDEN,SE,SWE
Västerbotten,,Vindeln,64.2,19.733333,SWEDEN,SE,SWE
Västerbotten,,Vindelkroken,66.266667,15.55,SWEDEN,SE,SWE
Kronoberg,,Vindås,56.6,15.233333,SWEDEN,SE,SWE
Västmanland,,Vinbergstorp,59.366667,15.933333,SWEDEN,SE,SWE
Hallands Län,,Vinberg,56.95,12.533333,SWEDEN,SE,SWE
Västmanland,,Vinbäcken,59.383333,15.816667,SWEDEN,SE,SWE
Kronoberg,,Torbjörnahult,56.533333,14.416667,SWEDEN,SE,SWE
Skåne,,Torastorp,55.9,13.783333,SWEDEN,SE,SWE
Skåne,,Torrasteröd,55.766667,14.066667,SWEDEN,SE,SWE
Skåne,,Torastaröd,55.766667,14.066667,SWEDEN,SE,SWE
Norrbotten,,Torasjärvi,66.783333,22.033333,SWEDEN,SE,SWE
Kronoberg,,Torarp,56.816667,13.6,SWEDEN,SE,SWE
Blekinge Län,,Torarp,56.216667,14.8,SWEDEN,SE,SWE
Hallands Län,,Torared,56.666667,13.116667,SWEDEN,SE,SWE
Jönköping,,Topperyd,57.666667,14.533333,SWEDEN,SE,SWE
Dalarna Län,,Tisjölandet,60.883056,13.066667,SWEDEN,SE,SWE
Västernorrland,,Västvattnet,63.5,16.016667,SWEDEN,SE,SWE
Västernorrland,,Vestvattnet,63.5,16.016667,SWEDEN,SE,SWE
Jämtland,,Västvallen,62.1,13.25,SWEDEN,SE,SWE
Södermanland,,Västtorp,59.116667,15.9,SWEDEN,SE,SWE
Västra Götaland,,Västtorp,58.4,13.466667,SWEDEN,SE,SWE
Dalarna Län,,Västtjärnlindan,60.45,14.983333,SWEDEN,SE,SWE
Dalarna Län,,Västtjärna,60.566667,15.083333,SWEDEN,SE,SWE
Jämtland,,Västeredesmoarna,63.033333,16.516667,SWEDEN,SE,SWE
Jämtland,,Västerede,63.05,16.55,SWEDEN,SE,SWE
Västmanland,,Västerbykil,60.033333,16.25,SWEDEN,SE,SWE
Västmanland,,Vesterbykil,60.033333,16.25,SWEDEN,SE,SWE
Västernorrland,,Västerby,63.316667,18.316667,SWEDEN,SE,SWE
Gävleborgs Län,,Västerby,61.366667,16.6,SWEDEN,SE,SWE
Dalarna Län,,Vesterbyn,60.45,16.133333,SWEDEN,SE,SWE
Dalarna Län,,Västerby,60.45,16.133333,SWEDEN,SE,SWE
Västra Götaland,,Stora Myren,58.616667,13.733333,SWEDEN,SE,SWE
Västra Götaland,,Stora Myran,58.616667,13.733333,SWEDEN,SE,SWE
Örebro,,Torpmossen,58.833333,14.6,SWEDEN,SE,SWE
Örebro,,Stora Mosstorp,58.833333,14.6,SWEDEN,SE,SWE
Örebro,,Mosstorp,58.833333,14.6,SWEDEN,SE,SWE
Stockholm,,Stora Mossen,59.333333,17.966667,SWEDEN,SE,SWE
Kalmar,,Stora Mossen,57.283333,17,SWEDEN,SE,SWE
Kalmar,,Tomtåkra,57.516667,15.9,SWEDEN,SE,SWE
Gävleborgs Län,,Tomta,61.766667,16.9,SWEDEN,SE,SWE
Stockholm,,Tomta,60.083333,18.766667,SWEDEN,SE,SWE
Örebro,,Tomta,59.05,15.05,SWEDEN,SE,SWE
Södermanland,,Tomta,58.633333,16.9,SWEDEN,SE,SWE
Östergötland,,Tomta,58.3,15.283333,SWEDEN,SE,SWE
Gävleborgs Län,,Toms,61.6,15.033333,SWEDEN,SE,SWE
Västernorrland,,Tomming,62.6,17.066667,SWEDEN,SE,SWE
Kronoberg,,Västra Torsås,56.7,14.566667,SWEDEN,SE,SWE
Östergötland,,Tift,58.433333,15.516667,SWEDEN,SE,SWE
Norrbotten,,Saimovaara,66.916667,20.916667,SWEDEN,SE,SWE
Norrbotten,,Tidnokenttä,66.916667,20.916667,SWEDEN,SE,SWE
Uppsala,,Tiby,59.883333,17.483333,SWEDEN,SE,SWE
Hallands Län,,Ylaxered,56.933333,13.116667,SWEDEN,SE,SWE
Hallands Län,,Ylasryd,56.933333,13.116667,SWEDEN,SE,SWE
Gävleborgs Län,,Ygskorset,61.8,15.866667,SWEDEN,SE,SWE
Gävleborgs Län,,Ygsbo,61.816667,15.916667,SWEDEN,SE,SWE
Jönköping,,Yggersryd,57.266667,14.683333,SWEDEN,SE,SWE
Stockholm,,Vinaren,59.083333,17.866667,SWEDEN,SE,SWE
Dalarna Län,,Vimo,60.85,14.283333,SWEDEN,SE,SWE
Västernorrland,,Vimmervattnet,63.633333,15.933333,SWEDEN,SE,SWE
Västernorrland,,Vimmarvattnet,63.633333,15.933333,SWEDEN,SE,SWE
Västra Götaland,,Syrhåla,57.714167,11.822222,SWEDEN,SE,SWE
Östergötland,,Syntorp,58.283333,16.5,SWEDEN,SE,SWE
Västra Götaland,,Synneröd,57.700556,11.824722,SWEDEN,SE,SWE
Västra Götaland,,Synnerål,58.133333,13.583333,SWEDEN,SE,SWE
Uppsala,,Svallby,59.583333,17.216667,SWEDEN,SE,SWE
Västmanland,,Valsätra,60.083333,16.483333,SWEDEN,SE,SWE
Värmland,,Sandsjön,59.916667,14.1,SWEDEN,SE,SWE
Värmland,,Sandsjöhyttan,59.916667,14.1,SWEDEN,SE,SWE
Örebro,,Sandsjöhöjden,59.566667,14.633333,SWEDEN,SE,SWE
Västerbotten,,Sandsjö,64.45,17.75,SWEDEN,SE,SWE
Kronoberg,,Ryssby,56.866667,14.166667,SWEDEN,SE,SWE
Norrbotten,,Ryssbält,65.766667,22.983333,SWEDEN,SE,SWE
Jönköping,,Södra Svinhult,57.733333,13.766667,SWEDEN,SE,SWE
Norrbotten,,Södra Svartbyn,65.783333,21.75,SWEDEN,SE,SWE
Blekinge Län,,Snövleboda,56.333333,14.533333,SWEDEN,SE,SWE
Blekinge Län,,Snöfleboda,56.333333,14.533333,SWEDEN,SE,SWE
Jämtland,,Randsjö,62.2,13.866667,SWEDEN,SE,SWE
Jämtland,,Ransjö,62.2,13.866667,SWEDEN,SE,SWE
Östergötland,,Rösäter,58.233333,15.533333,SWEDEN,SE,SWE
Kronoberg,,Rösås,57.133333,14.666667,SWEDEN,SE,SWE
Västra Götaland,,Rödesand,58.25,14.1,SWEDEN,SE,SWE
Västra Götaland,,Rösand,58.25,14.1,SWEDEN,SE,SWE
Dalarna Län,,Rosahöjden,60.166667,14.366667,SWEDEN,SE,SWE
Skåne,,Rösa,56.166667,13.1,SWEDEN,SE,SWE
Skåne,,Sniberup,55.766667,13.75,SWEDEN,SE,SWE
Norrbotten,,Snesudden,66.133333,20.366667,SWEDEN,SE,SWE
Jönköping,,Skriperyd,56.916667,14.283333,SWEDEN,SE,SWE
Gävleborgs Län,,Skriksvik,61.75,16.116667,SWEDEN,SE,SWE
Gävleborgs Län,,Skridsvik,61.75,16.116667,SWEDEN,SE,SWE
Örebro,,Skrikarhyttan,59.45,14.883333,SWEDEN,SE,SWE
Kalmar,,Skrika,57.166667,16.366667,SWEDEN,SE,SWE
Kalmar,,Skrickerum,58.15,16.416667,SWEDEN,SE,SWE
Västra Götaland,,Skrelunda,58.316667,13.433056,SWEDEN,SE,SWE
Hallands Län,,Skrea Strand,56.883333,12.5,SWEDEN,SE,SWE
Hallands Län,,Skreastrand,56.883333,12.5,SWEDEN,SE,SWE
Södermanland,,Skravsta,59.333333,16.316667,SWEDEN,SE,SWE
Uppsala,,Risberga,59.6,16.95,SWEDEN,SE,SWE
Östergötland,,Risberga,58.433333,15.016667,SWEDEN,SE,SWE
Västernorrland,,Risbäck,63.583333,18.1,SWEDEN,SE,SWE
Västerbotten,,Skarvsjöby,64.966667,17.116667,SWEDEN,SE,SWE
Västerbotten,,Skarfsjö,64.966667,17.116667,SWEDEN,SE,SWE
Västerbotten,,Skarvsjö,64.966667,17.116667,SWEDEN,SE,SWE
Stockholm,,Skärvik,59.266667,17.816667,SWEDEN,SE,SWE
Skåne,,Skarvik,56.216667,14.25,SWEDEN,SE,SWE
Stockholm,,Skärvassa,59.216667,18.7,SWEDEN,SE,SWE
Dalarna Län,,Storagen,61.383056,13.066667,SWEDEN,SE,SWE
Kalmar,,Gangsmad,56.816667,15.883333,SWEDEN,SE,SWE
Kalmar,,Stora Gangsmad,56.816667,15.883333,SWEDEN,SE,SWE
Västernorrland,,Rasåsen,62.366667,17.116667,SWEDEN,SE,SWE
Östergötland,,Rås,57.933333,15.116667,SWEDEN,SE,SWE
Kronoberg,,Rås,56.75,13.516667,SWEDEN,SE,SWE
Västra Götaland,,Raröd,57.983333,11.866667,SWEDEN,SE,SWE
Norrbotten,,Purnuvara,67.1,21.35,SWEDEN,SE,SWE
Norrbotten,,Purnuvaara,67.1,21.35,SWEDEN,SE,SWE
Norrbotten,,Purnovaara,67.1,21.35,SWEDEN,SE,SWE
Skåne,,Sjörup,55.45,13.65,SWEDEN,SE,SWE
Skåne,,Sjörröd,56.283333,13.916667,SWEDEN,SE,SWE
Gävleborgs Län,,Sjörgrå,61.416667,16.433333,SWEDEN,SE,SWE
Hallands Län,,Sjöred,56.95,12.783333,SWEDEN,SE,SWE
Hallands Län,,Sjönevad,56.983333,12.733333,SWEDEN,SE,SWE
Västerbotten,,Sjön,64.583333,21,SWEDEN,SE,SWE
Örebro,,Sjömo,59.4,15.6,SWEDEN,SE,SWE
Blekinge Län,,Stenshamn,56.016667,15.783333,SWEDEN,SE,SWE
Jönköping,,Stensgöl,57.7,15.083333,SWEDEN,SE,SWE
Blekinge Län,,Pålycke,56.266667,15.55,SWEDEN,SE,SWE
Gävleborgs Län,,Pålvik,60.766667,17.316667,SWEDEN,SE,SWE
Skåne,,Segutslycke,56.4,14.066667,SWEDEN,SE,SWE
Skåne,,Säguslycke,56.4,14.066667,SWEDEN,SE,SWE
Värmland,,Segoltan,59.316667,13.033333,SWEDEN,SE,SWE
Värmland,,Segmon,59.283333,13.016667,SWEDEN,SE,SWE
Norrbotten,,Sandsjärv,66.333333,22.7,SWEDEN,SE,SWE
Norrbotten,,Södra Sandsjärv,66.333333,22.7,SWEDEN,SE,SWE
Hallands Län,,Sandshult,56.95,13.166667,SWEDEN,SE,SWE
Hallands Län,,Sandsilt,56.95,13.166667,SWEDEN,SE,SWE
Jönköping,,Sandseryd,57.75,14.083333,SWEDEN,SE,SWE
Västerbotten,,Sandsele,65.3,17.666667,SWEDEN,SE,SWE
Västerbotten,,Sanasele,65.3,17.666667,SWEDEN,SE,SWE
Jönköping,,Sandsebo,57.55,13.85,SWEDEN,SE,SWE
Kronoberg,,Sandsbro,56.916667,14.85,SWEDEN,SE,SWE
Örebro,,Spångboda,59.5,15.383333,SWEDEN,SE,SWE
Stockholm,,Spånga,59.383333,17.916667,SWEDEN,SE,SWE
Uppsala,,Spånga,60.033333,18.033333,SWEDEN,SE,SWE
Örebro,,Spånga,59.233333,14.966667,SWEDEN,SE,SWE
Skåne,,Spånga,56.166667,14.033333,SWEDEN,SE,SWE
Jönköping,,Stora Fagraryd,57.35,15.116667,SWEDEN,SE,SWE
Värmland,,Sandnäs,59.916667,12.916667,SWEDEN,SE,SWE
Gävleborgs Län,,Ryggesbo,61.5,15.8,SWEDEN,SE,SWE
Kalmar,,Ryggåsen,57.65,16.083333,SWEDEN,SE,SWE
Hallands Län,,Rygg,57.183333,12.366667,SWEDEN,SE,SWE
Östergötland,,Rydsnäs,57.8,15.166667,SWEDEN,SE,SWE
Kalmar,,Rydsgård,55.466667,13.583333,SWEDEN,SE,SWE
Kalmar,,Rydholm,56.916667,15.983333,SWEDEN,SE,SWE
Uppsala,,Snesslinge,60.316667,18.266667,SWEDEN,SE,SWE
Värmland,,Snaversrud,59.5,13.783333,SWEDEN,SE,SWE
Stockholm,,Snättringe,59.266667,17.966667,SWEDEN,SE,SWE
Gävleborgs Län,,Snaten,61.55,16.466667,SWEDEN,SE,SWE
Blekinge Län,,Rörsmåla,56.4,15.716667,SWEDEN,SE,SWE
Skåne,,Rörsjöstaden,55.6,13,SWEDEN,SE,SWE
Dalarna Län,,Rörshyttan,60.433333,16.166667,SWEDEN,SE,SWE
,,Rörsby,59.833333,18.216667,SWEDEN,SE,SWE
Västra Götaland,,Rörsås,58.633333,13.833333,SWEDEN,SE,SWE
Jämtland,,Rörö,62.733333,14.466667,SWEDEN,SE,SWE
Jämtland,,Rörön,62.733333,14.466667,SWEDEN,SE,SWE
Västra Götaland,,Rörön,57.776111,11.616667,SWEDEN,SE,SWE
Västra Götaland,,Rörö,57.776111,11.616667,SWEDEN,SE,SWE
Jämtland,,Skrållan,62.85,12.75,SWEDEN,SE,SWE
Värmland,,Skrädene,59.516667,11.783333,SWEDEN,SE,SWE
Dalarna Län,,Skräddartorp,59.983333,15.316667,SWEDEN,SE,SWE
Örebro,,Skräddartorp,59.833333,14.95,SWEDEN,SE,SWE
Skåne,,Skräddaröd,55.6,14.2,SWEDEN,SE,SWE
Jönköping,,Uppebo,57.35,13.933333,SWEDEN,SE,SWE
Norrbotten,,Storåholm,66.25,21.35,SWEDEN,SE,SWE
Västra Götaland,,Stora Höga,58.016667,11.833333,SWEDEN,SE,SWE
Jönköping,,Stora Ökna,57.45,15.416667,SWEDEN,SE,SWE
Jönköping,,Transval,56.916667,14.283333,SWEDEN,SE,SWE
Dalarna Län,,Transtrand,61.083333,13.316667,SWEDEN,SE,SWE
Värmland,,Transtrand,60.6,13.066667,SWEDEN,SE,SWE
Kalmar,,Tönshult,57.266667,15.55,SWEDEN,SE,SWE
Gävleborgs Län,,Tönsen,61.15,16.533333,SWEDEN,SE,SWE
Skåne,,Villie,55.433333,13.116667,SWEDEN,SE,SWE
Jämtland,,Västsjön,63.65,13.633333,SWEDEN,SE,SWE
Kalmar,,Västrum,57.666667,16.566667,SWEDEN,SE,SWE
Kalmar,,Västerum,57.666667,16.566667,SWEDEN,SE,SWE
Kalmar,,Västerrum,57.666667,16.566667,SWEDEN,SE,SWE
Kalmar,,Vestrum,57.666667,16.566667,SWEDEN,SE,SWE
Värmland,,Tömte,59.883333,13.733333,SWEDEN,SE,SWE
Kalmar,,Tingetorp,58.15,16.166667,SWEDEN,SE,SWE
Västra Götaland,,Tingberg,58.016667,12.15,SWEDEN,SE,SWE
Kronoberg,,Timsfors,56.483333,13.583333,SWEDEN,SE,SWE
Västernorrland,,Timrå,62.477778,17.306944,SWEDEN,SE,SWE
Västra Götaland,,Timmersdala,58.533333,13.75,SWEDEN,SE,SWE
Gävleborgs Län,,Västerberg,61.216667,16.516667,SWEDEN,SE,SWE
Gävleborgs Län,,Västerberg,60.6,16.55,SWEDEN,SE,SWE
Västerbotten,,Västerbacka,64.016667,20.1,SWEDEN,SE,SWE
Västernorrland,,Västeråsen,62.383333,17.116667,SWEDEN,SE,SWE
Västerbotten,,Västerås,64.083333,19.6,SWEDEN,SE,SWE
Värmland,,Västerås,59.716667,12.266667,SWEDEN,SE,SWE
Värmland,,Vesterås,59.716667,12.266667,SWEDEN,SE,SWE
Västmanland,,Västerås,59.616667,16.55,SWEDEN,SE,SWE
Skåne,,Yngsjö,55.883333,14.216667,SWEDEN,SE,SWE
Skåne,,Ynglingarum,55.983333,13.666667,SWEDEN,SE,SWE
Västra Götaland,,Tådene,58.45,12.85,SWEDEN,SE,SWE
Hallands Län,,Täckinge,56.783333,12.733333,SWEDEN,SE,SWE
Västmanland,,Tackfallet,59.666667,16.166667,SWEDEN,SE,SWE
Värmland,,Tackerud,59.1,14.283333,SWEDEN,SE,SWE
Skåne,,Tåckarp,56.333333,14.183333,SWEDEN,SE,SWE
Skåne,,Tockarp,56.333333,14.183333,SWEDEN,SE,SWE
Uppsala,,Täby,59.966667,18.166667,SWEDEN,SE,SWE
Örebro,,Täby,59.216667,15.066667,SWEDEN,SE,SWE
Västra Götaland,,Våmb,58.383333,13.816667,SWEDEN,SE,SWE
Västerbotten,,Välvsjön,64.35,20.416667,SWEDEN,SE,SWE
Västerbotten,,Välvsjöliden,64.366667,20.416667,SWEDEN,SE,SWE
Jämtland,,Vålvallen,62.283333,13.933333,SWEDEN,SE,SWE
Östergötland,,Valstorp,58.7,15.566667,SWEDEN,SE,SWE
Östergötland,,Svaltorp,58.233333,16.216667,SWEDEN,SE,SWE
Skåne,,Svalöf,55.916667,13.1,SWEDEN,SE,SWE
Skåne,,Svalöv,55.916667,13.1,SWEDEN,SE,SWE
Gävleborgs Län,,Strömsbro,60.7,17.166667,SWEDEN,SE,SWE
Västernorrland,,Uvsjön,63.4,17.933333,SWEDEN,SE,SWE
Dalarna Län,,Ufnäs,60.7,15.616667,SWEDEN,SE,SWE
Dalarna Län,,Uvnäs,60.7,15.616667,SWEDEN,SE,SWE
Östergötland,,Uvmarö,58.333056,16.833056,SWEDEN,SE,SWE
Dalarna Län,,Ufberget,60.466667,15.55,SWEDEN,SE,SWE
Dalarna Län,,Uvberget,60.466667,15.55,SWEDEN,SE,SWE
Dalarna Län,,Västerby,60.316667,15.916667,SWEDEN,SE,SWE
Dalarna Län,,Vesterby,60.316667,15.916667,SWEDEN,SE,SWE
Västra Götaland,,Strömma,57.4,12.85,SWEDEN,SE,SWE
Kronoberg,,Strömhult,57.116667,14.366667,SWEDEN,SE,SWE
Norrbotten,,Strömfors,65.4,20.216667,SWEDEN,SE,SWE
Västerbotten,,Strömfors,64.883333,20.4,SWEDEN,SE,SWE
Kalmar,,Strömby,56.5,15.9,SWEDEN,SE,SWE
Jämtland,,Storhögen,63.383333,15.2,SWEDEN,SE,SWE
Västra Götaland,,Tydjebyn,58.95,12.616667,SWEDEN,SE,SWE
Dalarna Län,,Tybyn,60.166667,14.233333,SWEDEN,SE,SWE
Dalarna Län,,Tyn,60.166667,14.233333,SWEDEN,SE,SWE
Kalmar,,Tränsjömåla,57.15,15.766667,SWEDEN,SE,SWE
Kronoberg,,Transjö,56.933333,14.5,SWEDEN,SE,SWE
Värmland,,Tranmossen,59.65,14.116667,SWEDEN,SE,SWE
Västmanland,,Tränhammar,59.666667,16.633333,SWEDEN,SE,SWE
Skåne,,Västra Torp,55.35,13.3,SWEDEN,SE,SWE
Värmland,,Västra Tönnet,60.233333,13.483333,SWEDEN,SE,SWE
Skåne,,Västra Tommarp,55.4,13.1,SWEDEN,SE,SWE
Jämtland,,Västra Tåsjö,64.25,15.866667,SWEDEN,SE,SWE
Värmland,,Västra Takene,59.266667,13.5,SWEDEN,SE,SWE
Dalarna Län,,Västra Svartnäs,60.916667,16.033333,SWEDEN,SE,SWE
Värmland,,Västra Sunnäs,59.333333,14.016667,SWEDEN,SE,SWE
Hallands Län,,Stråvalla,57.3,12.216667,SWEDEN,SE,SWE
Dalarna Län,,Stråtjärn,60.566667,15.483333,SWEDEN,SE,SWE
Gävleborgs Län,,Stråtjära,61.166667,16.85,SWEDEN,SE,SWE
Dalarna Län,,Stråtenbo,60.583333,15.466667,SWEDEN,SE,SWE
Västernorrland,,Stranne,63.316667,18.8,SWEDEN,SE,SWE
Södermanland,,Strångsjö,58.9,16.2,SWEDEN,SE,SWE
Västra Götaland,,Strängsered,57.766667,13.666667,SWEDEN,SE,SWE
Jönköping,,Strängsbo,57.583333,13.983333,SWEDEN,SE,SWE
Västernorrland,,Strängön,63.133333,18.616667,SWEDEN,SE,SWE
Västernorrland,,Strängö,63.133333,18.616667,SWEDEN,SE,SWE
Värmland,,Tvärhult,59.3,13.516667,SWEDEN,SE,SWE
Kronoberg,,Tiböke,56.6,13.583333,SWEDEN,SE,SWE
Jämtland,,Västanviken,64.3,14.966667,SWEDEN,SE,SWE
Östergötland,,Västanvik,58.683333,14.933333,SWEDEN,SE,SWE
Västerbotten,,Västanträsk,64.45,20.4,SWEDEN,SE,SWE
Kalmar,,Västantorp,57.9,16.083333,SWEDEN,SE,SWE
Kalmar,,Västantorp,57.733333,16.116667,SWEDEN,SE,SWE
Västernorrland,,Västansjön,62.7,17.033333,SWEDEN,SE,SWE
Västerbotten,,Västansjö,65.183333,15.866667,SWEDEN,SE,SWE
Västernorrland,,Västansjö,63.2,18.416667,SWEDEN,SE,SWE
Västernorrland,,Västansjö,63,17.45,SWEDEN,SE,SWE
Uppsala,,Valsätra,59.816667,17.616667,SWEDEN,SE,SWE
Gävleborgs Län,,Ufås,61.683333,16.25,SWEDEN,SE,SWE
Gävleborgs Län,,Uvås,61.683333,16.25,SWEDEN,SE,SWE
Jönköping,,Uvanäs,57.433333,15.35,SWEDEN,SE,SWE
Värmland,,Uvanå,60.283333,13.783333,SWEDEN,SE,SWE
Värmland,,Stora Lerdala,59.383333,14.05,SWEDEN,SE,SWE
Skåne,,Tolånga,55.633333,13.766667,SWEDEN,SE,SWE
Kalmar,,Tokö,57,16.45,SWEDEN,SE,SWE
Värmland,,Tokil,59.3,12.2,SWEDEN,SE,SWE
Dalarna Län,,Ransibodarna,61.45,13.316667,SWEDEN,SE,SWE
Värmland,,Ransby,60.033333,13.116667,SWEDEN,SE,SWE
Jönköping,,Pukulla,57.666667,15.316667,SWEDEN,SE,SWE
Västra Götaland,,Puketorp,57.716667,12.083333,SWEDEN,SE,SWE
Kalmar,,Pukemåla,57.433333,16.083333,SWEDEN,SE,SWE
Jönköping,,Pukarp,57.466667,14.033333,SWEDEN,SE,SWE
Kalmar,,Pukaberg,56.633333,15.783333,SWEDEN,SE,SWE
Dalarna Län,,Sjöhaga,60.433333,15.633333,SWEDEN,SE,SWE
Jönköping,,Skögle,57.666667,15.283333,SWEDEN,SE,SWE
Jönköping,,Sjögle,57.666667,15.283333,SWEDEN,SE,SWE
Västra Götaland,,Segerstorp,58.366667,13.85,SWEDEN,SE,SWE
Västra Götaland,,Segerstorp,57.8,12.9,SWEDEN,SE,SWE
Värmland,,Segerstad,59.383333,13.233333,SWEDEN,SE,SWE
Västra Götaland,,Segerstad,58.25,13.666667,SWEDEN,SE,SWE
Gävleborgs Län,,Segersta,61.266667,16.633333,SWEDEN,SE,SWE
Västra Götaland,,Stenkyrka,58,11.616667,SWEDEN,SE,SWE
Gotlands Län,,Stenkyrka,57.783333,18.533333,SWEDEN,SE,SWE
Dalarna Län,,Pällbo,60.183333,16.35,SWEDEN,SE,SWE
Norrbotten,,Pallakka,66.15,23.466667,SWEDEN,SE,SWE
Jämtland,,Sandmyren,63.45,14.416667,SWEDEN,SE,SWE
Jämtland,,Sandmyran,63.45,14.416667,SWEDEN,SE,SWE
Dalarna Län,,Sandmon,61.4,13.066667,SWEDEN,SE,SWE
Uppsala,,Sandikaön,60.233333,18.4,SWEDEN,SE,SWE
Uppsala,,Sandika,60.233333,18.4,SWEDEN,SE,SWE
Västra Götaland,,Sandhult,57.766667,12.816667,SWEDEN,SE,SWE
Skåne,,Sandhult,56.383333,13.5,SWEDEN,SE,SWE
Västra Götaland,,Sandhem,58.016667,13.483333,SWEDEN,SE,SWE
Västra Götaland,,Sandhem,57.983333,13.766667,SWEDEN,SE,SWE
Blekinge Län,,Sandhamn,56.1,15.85,SWEDEN,SE,SWE
Västerbotten,,Sandfors,65.233333,19.233333,SWEDEN,SE,SWE
Örebro,,Södra Sanna,59.083333,15.15,SWEDEN,SE,SWE
Jönköping,,Stora Galthult,57.9,14.566667,SWEDEN,SE,SWE
Stockholm,,Stora Frösunda,59.366667,18.016667,SWEDEN,SE,SWE
Kalmar,,Stora Forssa,57.083333,16.433333,SWEDEN,SE,SWE
Kalmar,,Stora Forsa,57.083333,16.433333,SWEDEN,SE,SWE
Kalmar,,Forsa,57.083333,16.433333,SWEDEN,SE,SWE
Kronoberg,,Ryd,56.816667,15.316667,SWEDEN,SE,SWE
Kronoberg,,Ryd,56.683333,15.066667,SWEDEN,SE,SWE
Kronoberg,,Ryd,56.683333,13.8,SWEDEN,SE,SWE
Kronoberg,,Ryd,56.666667,13.416667,SWEDEN,SE,SWE
Kalmar,,Ryd,56.466667,16,SWEDEN,SE,SWE
Blekinge Län,,Ryd,56.333333,15.533333,SWEDEN,SE,SWE
Blekinge Län,,Ryd,56.1,15.683333,SWEDEN,SE,SWE
Östergötland,,Rycklösa,58.433333,15.733333,SWEDEN,SE,SWE
Östergötland,,Ryckelsby,58.266667,15,SWEDEN,SE,SWE
Västra Götaland,,Rycka,58.399722,13.066667,SWEDEN,SE,SWE
Kalmar,,Snällebo,57.966667,16.233333,SWEDEN,SE,SWE
Jönköping,,Stenseryd,57.683333,14.45,SWEDEN,SE,SWE
Kalmar,,Stenserum,57.9,16.233333,SWEDEN,SE,SWE
Södermanland,,Stensborg,59.316667,16.416667,SWEDEN,SE,SWE
Dalarna Län,,Stensbo,60.2,16.066667,SWEDEN,SE,SWE
Örebro,,Stensbo,59.083333,15.35,SWEDEN,SE,SWE
Hallands Län,,Spånstad,56.733333,12.916667,SWEDEN,SE,SWE
Dalarna Län,,Spånsfäb,60.366667,15.166667,SWEDEN,SE,SWE
Jönköping,,Röpplinge,57.166667,13.5,SWEDEN,SE,SWE
Skåne,,Ripa,55.916667,14.233333,SWEDEN,SE,SWE
Värmland,,Rinnen,59.733056,12.8,SWEDEN,SE,SWE
Skåne,,Rinnebäck,55.8,13.1,SWEDEN,SE,SWE
Värmland,,Skottlanda,59.1,14.266667,SWEDEN,SE,SWE
Norrbotten,,Storträsk Number Two,66.066667,23.216667,SWEDEN,SE,SWE
Norrbotten,,Södra Storträsk,66.066667,23.216667,SWEDEN,SE,SWE
Västerbotten,,Stortjärn,64.266667,20.566667,SWEDEN,SE,SWE
Västerbotten,,Södra Stortjärn,64.266667,20.566667,SWEDEN,SE,SWE
Värmland,,Södra Stensdalen,59.783333,13.466667,SWEDEN,SE,SWE
Jämtland,,Ringsjöhöjden,64.233333,14.9,SWEDEN,SE,SWE
Kronoberg,,Ringshult,56.616667,15.05,SWEDEN,SE,SWE
Värmland,,Ransäter,59.766667,13.433333,SWEDEN,SE,SWE
Norrbotten,,Rånögårdarna,65.733333,22.916667,SWEDEN,SE,SWE
Västernorrland,,Rännö,62.333333,16.933333,SWEDEN,SE,SWE
Stockholm,,Skarpö,59.35,18.733333,SWEDEN,SE,SWE
Stockholm,,Skarpnäck,59.266667,18.116667,SWEDEN,SE,SWE
Gävleborgs Län,,Skarplycka,61.6,17.033333,SWEDEN,SE,SWE
Östergötland,,Sjögestad,58.366667,15.366667,SWEDEN,SE,SWE
Örebro,,Sjögesta,59.333333,15.316667,SWEDEN,SE,SWE
Östergötland,,Sjögerum,58.366667,16.566667,SWEDEN,SE,SWE
Västra Götaland,,Snartorp,58.166667,12.266667,SWEDEN,SE,SWE
Värmland,,Snårstadtorp,59.5,13.683333,SWEDEN,SE,SWE
Värmland,,Snårstadstorp,59.5,13.683333,SWEDEN,SE,SWE
Värmland,,Snarstatorp,59.5,13.683333,SWEDEN,SE,SWE
Värmland,,Snarstad,59.5,13.7,SWEDEN,SE,SWE
Skåne,,Snarrarp,56.3,14.183333,SWEDEN,SE,SWE
Örebro,,Prästtorp,59.4,15.083333,SWEDEN,SE,SWE
Södermanland,,Prästtorp,58.7,16.866667,SWEDEN,SE,SWE
Östergötland,,Prästtorp,58.366667,15.35,SWEDEN,SE,SWE
Östergötland,,Prästtomta,58.633056,15.433056,SWEDEN,SE,SWE
Kalmar,,Prästlycke,56.5,16.033333,SWEDEN,SE,SWE
Kalmar,,Seberneby,56.283333,16.45,SWEDEN,SE,SWE
Kalmar,,Sebberneby,56.283333,16.45,SWEDEN,SE,SWE
Skåne,,Sebbarp,55.816667,13.616667,SWEDEN,SE,SWE
Västernorrland,,Sebäng,62.95,18.3,SWEDEN,SE,SWE
Kalmar,,Skräddaregärde,56.666667,15.7,SWEDEN,SE,SWE
Västmanland,,Skräddarbo,60.116667,16.55,SWEDEN,SE,SWE
Norrbotten,,Pålänge,65.816667,22.9,SWEDEN,SE,SWE
Norrbotten,,Påläng,65.816667,22.9,SWEDEN,SE,SWE
Västernorrland,,Påläng,62.383333,17.15,SWEDEN,SE,SWE
Dalarna Län,,Palahöjden,60.05,14.683333,SWEDEN,SE,SWE
Norrbotten,,Paksuniemi,67.816667,20.7,SWEDEN,SE,SWE
Dalarna Län,,Sandbacken,59.983333,15.416667,SWEDEN,SE,SWE
Västra Götaland,,Sandbäck,58.133333,12.7,SWEDEN,SE,SWE
Blekinge Län,,Sandbäck,56.191667,14.633333,SWEDEN,SE,SWE
